     3.05           OBSERVATION DATA    MIXED               RINEX VERSION / TYPE
TPS2RIN 1.0.29.3920 TPS-USER            20240511 200040 UTC PGM / RUN BY / DATE
Win64 build Feb 23, 2024 (c) Topcon Positioning Systems     COMMENT
SRC: 20240510_MI05.tps                                      COMMENT
OPT: -S -v 3.05                                             COMMENT
Observer            Agency                                  OBSERVER / AGENCY
O0M3X53SBGM         TPS HIPER_SR        4.8 HSR Jul,08,2022 REC # / TYPE / VERS
FW: 4.8 HSR Jul,08,2022 p3                                  COMMENT
SN: HiPer SR 1212-12575                                     COMMENT
000                 TPSHIPER_SR     NONE                    ANT # / TYPE
        1.8000        0.0000        0.0000                  ANTENNA: DELTA H/E/N
MI05                                                        MARKER NAME
  5383167.6377 -1588603.9587  3020805.8358                  APPROX POSITION XYZ
  2024     5    10    11    53   33.0000000     GPS         TIME OF FIRST OBS
  2024     5    10    12     8   32.0000000     GPS         TIME OF LAST OBS
     1.000                                                  INTERVAL
   900 EPOCHS                                               COMMENT
G   16 C1C L1C D1C S1C C1W L1W D1W S1W C2W L2W D2W S2W C2X  SYS / # / OBS TYPES
       L2X D2X S2X                                          SYS / # / OBS TYPES
R   16 C1C L1C D1C S1C C1P L1P D1P S1P C2P L2P D2P S2P C2C  SYS / # / OBS TYPES
       L2C D2C S2C                                          SYS / # / OBS TYPES
    14                                                      # OF SATELLITES
   G02   900   900   900   900   900   900   900   900   900PRN / # OF OBS
         900   900   900     0     0     0     0            PRN / # OF OBS
   G07   779   779   779   779   772   772   772   772   772PRN / # OF OBS
         772   772   772   764   764   764   764            PRN / # OF OBS
   G08   900   900   900   900   900   900   900   900   900PRN / # OF OBS
         900   900   900   900   900   900   900            PRN / # OF OBS
   G10   900   900   900   900   900   900   900   900   900PRN / # OF OBS
         900   900   900   900   900   900   900            PRN / # OF OBS
   G16   900   900   900   900   900   900   900   900   900PRN / # OF OBS
         900   900   900     0     0     0     0            PRN / # OF OBS
   G21   900   900   900   900   900   900   900   900   900PRN / # OF OBS
         900   900   900     0     0     0     0            PRN / # OF OBS
   G23   900   900   900   900   900   900   900   900   900PRN / # OF OBS
         900   900   900   900   900   900   900            PRN / # OF OBS
   G26   900   900   900   900   900   900   900   900   900PRN / # OF OBS
         900   900   900   900   900   900   900            PRN / # OF OBS
   G27   900   900   900   900   900   900   900   900   900PRN / # OF OBS
         900   900   900   900   900   900   900            PRN / # OF OBS
   R11   900   900   900   900   900   900   900   900   900PRN / # OF OBS
         900   900   900   900   900   900   900            PRN / # OF OBS
   R12   900   900   900   900   900   900   900   900   900PRN / # OF OBS
         900   900   900   900   900   900   900            PRN / # OF OBS
   R13    31    31    31    31    25    25    25    25    25PRN / # OF OBS
          25    25    25    24    24    24    24            PRN / # OF OBS
   R22   900   900   900   900   900   900   900   900   900PRN / # OF OBS
         900   900   900   900   900   900   900            PRN / # OF OBS
   R23   900   900   900   900   900   900   900   900     0PRN / # OF OBS
           0     0     0     0     0     0     0            PRN / # OF OBS
G L1C                                                       SYS / PHASE SHIFT
G L1W -0.25000                                              SYS / PHASE SHIFT
G L2W  0.00000                                              SYS / PHASE SHIFT
G L2X  0.25000                                              SYS / PHASE SHIFT
R L1C                                                       SYS / PHASE SHIFT
R L1P -0.25000                                              SYS / PHASE SHIFT
R L2P -0.25000                                              SYS / PHASE SHIFT
R L2C                                                       SYS / PHASE SHIFT
  5 R11  0 R12 -1 R13 -2 R22 -3 R23  3                      GLONASS SLOT / FRQ #
                                                            GLONASS COD/PHS/BIS
    18    18  1929     7GPS                                 LEAP SECONDS
                                                            END OF HEADER
> 2024 05 10 11 53 33.0000000  0 13
R22  20425016.400   109030125.168 8       193.750          48.875    20425017.440   109030125.169 7       193.750          47.812    20425023.200    84801237.756 8       150.695          49.812    20425023.900    84801238.758 8       150.695          49.750
G10  22282536.660   117095522.047 7      3211.065          45.437    22282534.740   117095522.052 7      3211.065          45.812    22282545.000    91243297.668 7      2502.128          45.312    22282544.920    91243297.668 8      2502.128          48.312
G27  20864291.280   109642588.491 8      2080.822          48.375    20864290.080   109642588.495 8      2080.822          49.250    20864296.600    85435802.940 8      1621.419          49.437    20864296.820    85435806.941 8      1621.419          50.375
G02  23291546.040   122397905.860 7      5009.509          42.750    23291543.780   122397905.865 4      5009.509          29.937    23291551.920    95375006.317 4      3903.513          29.812
R12  19184925.760   102482426.782 8      2203.847          50.312    19184926.080   102482426.783 8      2203.847          49.562    19184934.420    79708589.786 8      1714.103          51.312    19184934.660    79708591.789 8      1714.103          51.187
G26  22011893.740   115673282.854 7      -154.594          46.812    22011892.460   115673282.854 7      -154.594          44.937    22011902.420    90135059.006 7      -120.463          45.062    22011902.960    90135060.014 7      -120.463          46.875
R11  21912874.720   117095750.771 7     -1537.803          45.437    21912873.600   117095750.783 7     -1537.803          44.750    21912889.260    91074571.144 7     -1196.069          47.812    21912889.080    91074537.139 7     -1196.069          47.562
G07  24707569.300   129839160.657 7      4407.154          43.437    24707570.800   129839160.686 3      4407.154          22.937    24707572.420   101173404.015 4      3434.146          24.000    24707572.900   101173401.014 5      3434.146          35.312
R23  20411316.720   109186784.652 7      3078.163          45.750    20411316.400   109186784.662 7      3078.163          44.750
G16  20481988.380   107633578.867 7      1780.496          46.062    20481986.540   107633578.877 6      1780.496          39.750    20481990.900    83870325.935 6      1387.400          39.562
G21  21558125.840   113288716.811 7      4543.886          46.437    21558124.340   113288716.818 6      4543.886          36.750    21558130.400    88276894.693 6      3540.690          36.750
G08  21667443.300   113863185.535 7      3603.665          45.562    21667441.200   113863185.532 6      3603.665          36.187    21667449.280    88724585.115 5      2808.051          35.812    21667450.360    88724590.134 8      2808.051          48.437
G23  23246116.180   122159163.398 7      1291.200          43.750    23246115.620   122159163.400 5      1291.200          32.875    23246123.300    95188989.185 5      1006.130          32.500    23246123.000    95188989.175 7      1006.130          46.500
> 2024 05 10 11 53 34.0000000  0 13
R22  20424979.880   109029931.166 8       193.974          49.187    20424980.820   109029931.167 8       193.974          48.562    20424986.960    84801086.864 8       150.869          49.625    20424987.460    84801087.868 8       150.869          49.937
G10  22281925.560   117092310.910 7      3210.931          45.187    22281923.560   117092310.912 7      3210.931          45.687    22281933.840    91240795.485 7      2502.024          45.250    22281934.060    91240795.486 8      2502.024          48.437
G27  20863895.360   109640507.412 8      2081.043          48.187    20863894.120   109640507.412 8      2081.043          49.312    20863900.560    85434181.316 8      1621.592          49.500    20863900.940    85434185.321 8      1621.592          50.250
G02  23290592.740   122392896.217 7      5009.457          42.562    23290590.540   122392896.224 4      5009.457          29.937    23290598.600    95371102.702 4      3903.473          29.812
R12  19184513.160   102480223.027 8      2203.408          49.125    19184513.740   102480223.031 8      2203.408          49.250    19184522.040    79706875.759 8      1713.762          50.625    19184522.100    79706877.764 8      1713.762          50.875
G26  22011923.200   115673437.421 7      -154.680          45.937    22011922.040   115673437.431 7      -154.680          45.187    22011931.900    90135179.448 7      -120.530          45.062    22011932.120    90135180.457 7      -120.530          46.500
R11  21913162.300   117097288.411 7     -1537.834          45.437    21913161.500   117097288.426 7     -1537.834          44.937    21913177.180    91075767.071 7     -1196.093          47.125    21913177.000    91075733.069 7     -1196.093          47.500
G07  24706730.680   129834753.438 7      4406.965          43.625    24706732.180   129834753.469 3      4406.965          22.937    24706733.400   101169969.820 4      3433.999          24.000    24706735.040   101169966.827 5      3433.999          35.312
R23  20410741.260   109183706.404 7      3078.042          45.812    20410741.280   109183706.414 7      3078.042          44.250
G16  20481649.800   107631798.285 7      1780.396          45.750    20481647.760   107631798.292 6      1780.396          39.562    20481652.060    83868938.464 6      1387.322          38.937
G21  21557261.300   113284172.852 7      4543.810          46.500    21557259.580   113284172.862 6      4543.810          36.437    21557265.500    88273353.951 6      3540.631          36.562
G08  21666757.500   113859581.666 7      3603.942          45.937    21666755.380   113859581.663 6      3603.942          36.187    21666763.420    88721776.903 5      2808.267          35.875    21666764.640    88721781.916 8      2808.267          48.562
G23  23245870.040   122157872.189 7      1290.917          43.937    23245869.860   122157872.196 5      1290.917          32.687    23245877.700    95187983.050 5      1005.910          32.500    23245877.320    95187983.050 7      1005.910          46.500
> 2024 05 10 11 53 35.0000000  0 13
R22  20424943.820   109029737.298 8       193.780          48.125    20424944.620   109029737.299 8       193.780          48.812    20424950.620    84800936.082 8       150.718          49.500    20424951.340    84800937.086 8       150.718          49.687
G10  22281314.560   117089100.207 7      3210.432          44.750    22281312.440   117089100.206 7      3210.432          45.562    22281322.960    91238293.639 7      2501.636          45.250    22281323.160    91238293.639 8      2501.636          48.625
G27  20863499.300   109638426.374 8      2080.993          49.312    20863498.180   109638426.373 8      2080.993          49.375    20863504.440    85432559.728 8      1621.553          49.250    20863504.860    85432563.729 8      1621.553          49.875
G02  23289639.380   122387886.791 7      5009.124          43.875    23289637.400   122387886.796 4      5009.124          29.937    23289645.300    95367199.256 4      3903.213          29.875
R12  19184100.840   102478020.044 8      2202.571          49.062    19184101.080   102478020.037 8      2202.571          49.937    19184109.620    79705162.321 8      1713.111          50.437    19184109.800    79705164.327 8      1713.111          51.000
G26  22011952.760   115673592.231 7      -154.956          45.875    22011951.420   115673592.236 7      -154.956          45.000    22011961.340    90135300.073 7      -120.745          45.000    22011961.940    90135301.079 7      -120.745          46.625
R11  21913450.000   117098826.325 7     -1538.102          45.500    21913449.120   117098826.331 7     -1538.102          44.625    21913465.080    91076963.207 7     -1196.302          47.187    21913464.840    91076929.203 8     -1196.302          48.062
G07  24705891.740   129830346.504 7      4406.814          44.000    24705893.820   129830346.536 3      4406.814          22.937    24705894.780   101166535.849 4      3433.881          24.000    24705895.880   101166532.864 5      3433.881          35.312
R23  20410165.960   109180628.515 7      3077.637          46.750    20410165.620   109180628.521 7      3077.637          45.125
G16  20481310.840   107630018.086 7      1779.994          46.125    20481308.880   107630018.094 6      1779.994          40.062    20481313.320    83867551.292 6      1387.008          39.375
G21  21556396.480   113279629.294 7      4543.358          46.562    21556395.040   113279629.301 6      4543.358          36.625    21556400.860    88269813.519 6      3540.279          36.750
G08  21666071.720   113855977.820 7      3603.773          45.000    21666069.580   113855977.815 6      3603.773          36.375    21666077.780    88718968.712 6      2808.134          36.000    21666078.720    88718973.724 8      2808.134          48.375
G23  23245624.660   122156581.444 7      1290.488          43.750    23245624.340   122156581.449 5      1290.488          32.687    23245632.080    95186977.271 5      1005.575          32.437    23245631.680    95186977.261 7      1005.575          46.500
> 2024 05 10 11 53 36.0000000  0 13
R22  20424907.540   109029543.759 7       193.511          47.000    20424908.140   109029543.754 8       193.511          48.250    20424914.640    84800785.547 8       150.508          49.875    20424914.920    84800786.546 8       150.508          49.750
G10  22280703.560   117085890.158 7      3209.821          44.187    22280701.780   117085890.160 7      3209.821          45.437    22280712.180    91235792.304 7      2501.159          45.187    22280712.200    91235792.308 7      2501.159          47.562
G27  20863103.460   109636345.627 8      2080.711          49.062    20863102.000   109636345.626 8      2080.711          48.250    20863108.540    85430938.364 8      1621.333          48.375    20863108.920    85430942.367 8      1621.333          49.875
G02  23288686.160   122382877.825 7      5008.755          43.687    23288684.200   122382877.833 4      5008.755          29.687    23288692.100    95363296.172 4      3902.926          29.875
R12  19183688.460   102475818.020 8      2201.644          50.812    19183689.060   102475818.024 8      2201.644          50.125    19183697.400    79703449.640 8      1712.389          49.062    19183697.400    79703451.643 8      1712.389          50.750
G26  22011982.320   115673747.512 7      -155.404          46.500    22011981.100   115673747.520 7      -155.404          45.562    22011990.800    90135421.059 7      -121.094          45.187    22011991.240    90135422.067 7      -121.094          46.562
R11  21913738.320   117100364.730 7     -1538.567          45.437    21913737.120   117100364.736 7     -1538.567          45.062    21913752.760    91078159.727 7     -1196.664          47.187    21913752.940    91078125.726 7     -1196.664          47.000
G07  24705053.320   129825940.178 7      4406.088          43.625    24705055.240   129825940.207 3      4406.088          22.937    24705056.060   101163102.350 3      3433.315          22.500    24705058.180   101163099.375 5      3433.315          35.312
R23  20409590.340   109177551.221 7      3077.050          45.812    20409590.440   109177551.231 7      3077.050          45.062
G16  20480972.160   107628238.511 7      1779.335          46.625    20480970.340   107628238.515 6      1779.335          39.812    20480974.620    83866164.606 6      1386.494          39.125
G21  21555531.720   113275086.344 7      4542.716          46.687    21555530.580   113275086.354 6      4542.716          36.062    21555536.400    88266273.561 6      3539.779          36.000
G08  21665385.900   113852374.196 7      3603.647          45.562    21665383.900   113852374.187 5      3603.647          35.875    21665392.000    88716160.693 6      2808.037          36.000    21665393.280    88716165.701 7      2808.037          47.125
G23  23245379.080   122155291.380 7      1289.873          42.875    23245378.800   122155291.385 5      1289.873          32.687    23245386.560    95185972.022 5      1005.095          32.437    23245386.380    95185972.016 7      1005.095          45.250
> 2024 05 10 11 53 37.0000000  0 13
R22  20424871.600   109029350.651 8       193.072          48.250    20424871.760   109029350.650 8       193.072          48.187    20424878.720    84800635.344 8       150.167          48.062    20424879.000    84800636.344 7       150.167          47.875
G10  22280093.060   117082680.810 7      3209.178          44.875    22280091.140   117082680.807 7      3209.178          44.437    22280101.080    91233291.512 7      2500.658          44.500    22280101.220    91233291.512 8      2500.658          48.250
G27  20862707.460   109634265.216 8      2080.425          48.562    20862706.220   109634265.216 8      2080.425          48.375    20862712.600    85429317.261 8      1621.111          48.250    20862712.980    85429321.266 8      1621.111          50.562
G02  23287732.720   122377869.388 7      5008.352          43.625    23287731.260   122377869.398 4      5008.352          29.687    23287739.000    95359393.493 4      3902.612          29.875
R12  19183276.680   102473617.089 8      2200.537          50.125    19183277.240   102473617.093 8      2200.537          49.625    19183285.460    79701737.796 8      1711.529          48.875    19183285.340    79701739.802 8      1711.529          48.687
G26  22012011.880   115673903.332 7      -155.838          46.625    22012010.700   115673903.337 7      -155.838          44.937    22012020.640    90135542.475 7      -121.432          44.750    22012021.040    90135543.483 7      -121.432          46.187
R11  21914026.100   117101903.709 7     -1539.101          45.125    21914024.880   117101903.715 7     -1539.101          44.562    21914041.100    91079356.692 7     -1197.079          47.750    21914040.780    91079322.691 7     -1197.079          46.437
G07  24704215.120   129821534.443 7      4405.618          44.562    24704216.780   129821534.469 3      4405.618          22.937    24704217.600   101159669.313 3      3432.949          22.500    24704218.020   101159666.341 5      3432.949          33.062
R23  20409015.180   109174474.600 7      3076.382          46.312    20409014.940   109174474.604 7      3076.382          44.875
G16  20480633.700   107626459.581 7      1778.731          47.062    20480631.880   107626459.591 6      1778.731          39.812    20480636.100    83864778.429 6      1386.024          39.250
G21  21554667.500   113270544.073 7      4542.093          45.812    21554666.280   113270544.078 6      4542.093          36.625    21554672.180    88262734.131 6      3539.293          36.437
G08  21664700.020   113848770.886 7      3603.322          44.625    21664698.120   113848770.880 5      3603.322          35.625    21664706.320    88713352.919 5      2807.784          35.375    21664707.420    88713357.929 8      2807.784          48.812
G23  23245133.800   122154002.112 7      1289.004          44.437    23245133.540   122154002.123 5      1289.004          32.562    23245141.120    95184967.398 5      1004.419          32.437    23245140.760    95184967.388 7      1004.419          46.375
> 2024 05 10 11 53 38.0000000  0 13
R22  20424835.540   109029157.571 7       192.896          47.937    20424835.480   109029157.572 7       192.896          47.875    20424842.400    84800485.166 8       150.030          49.812    20424843.000    84800486.168 8       150.030          49.687
G10  22279482.440   117079471.828 7      3208.620          44.812    22279480.220   117079471.831 7      3208.620          45.375    22279490.240    91230791.010 7      2500.224          45.125    22279490.680    91230791.012 7      2500.224          47.937
G27  20862311.600   109632184.787 8      2080.331          48.625    20862310.320   109632184.786 8      2080.331          49.500    20862316.720    85427696.147 8      1621.037          49.500    20862317.060    85427700.152 8      1621.037          50.187
G02  23286779.760   122372861.110 7      5008.094          42.812    23286778.240   122372861.112 4      5008.094          29.687    23286785.860    95355490.939 4      3902.411          29.812
R12  19182864.720   102471416.833 8      2199.751          50.687    19182865.360   102471416.834 8      2199.751          49.625    19182873.320    79700026.488 8      1710.917          50.500    19182873.580    79700028.491 8      1710.917          50.812
G26  22012041.640   115674059.349 7      -156.292          46.562    22012040.300   115674059.354 7      -156.292          45.312    22012050.380    90135664.036 7      -121.786          45.250    22012050.940    90135665.044 7      -121.786          47.250
R11  21914313.900   117103442.894 7     -1539.447          45.375    21914313.440   117103442.898 7     -1539.447          44.500    21914329.060    91080553.811 8     -1197.348          48.000    21914328.960    91080519.806 7     -1197.348          47.250
G07  24703376.600   129817128.963 7      4405.328          43.937    24703378.440   129817128.986 3      4405.328          22.937    24703379.160   101156236.474 3      3432.723          22.500    24703379.240   101156233.460 5      3432.723          33.062
R23  20408439.760   109171398.234 7      3076.090          45.750    20408439.660   109171398.244 7      3076.090          44.437
G16  20480295.280   107624680.965 7      1778.346          46.312    20480293.340   107624680.977 6      1778.346          40.125    20480297.660    83863392.492 6      1385.724          39.875
G21  21553803.500   113266002.101 7      4541.664          47.062    21553802.000   113266002.109 6      4541.664          36.625    21553807.800    88259194.940 6      3538.959          37.000
G08  21664014.300   113845167.506 7      3603.273          45.875    21664012.420   113845167.505 6      3603.273          36.125    21664020.520    88710545.088 5      2807.745          35.750    21664021.640    88710550.107 8      2807.745          48.250
G23  23244888.540   122152713.215 7      1288.607          42.875    23244888.080   122152713.228 5      1288.607          32.562    23244896.020    95183963.060 5      1004.110          32.250    23244895.600    95183963.056 7      1004.110          46.187
> 2024 05 10 11 53 39.0000000  0 13
R22  20424799.220   109028964.648 8       192.817          48.312    20424799.580   109028964.651 7       192.817          47.500    20424806.340    84800335.115 8       149.969          49.937    20424806.900    84800336.118 8       149.969          50.437
G10  22278871.740   117076263.301 7      3208.256          45.000    22278869.560   117076263.308 7      3208.256          45.687    22278879.840    91228290.867 7      2499.940          45.562    22278880.000    91228290.869 8      2499.940          48.625
G27  20861915.820   109630104.455 7      2080.246          47.875    20861914.540   109630104.455 8      2080.246          49.500    20861920.900    85426075.109 8      1620.971          49.750    20861921.260    85426079.116 8      1620.971          50.312
G02  23285826.620   122367853.101 7      5007.887          43.375    23285825.320   122367853.103 4      5007.887          29.687    23285832.920    95351588.603 4      3902.250          29.812
R12  19182452.880   102469217.368 8      2199.012          48.562    19182453.720   102469217.369 8      2199.012          49.875    19182461.720    79698315.789 8      1710.343          50.687    19182461.820    79698317.792 8      1710.343          51.062
G26  22012071.280   115674215.621 7      -156.423          46.125    22012070.120   115674215.625 7      -156.423          45.000    22012079.940    90135785.796 7      -121.888          45.062    22012080.640    90135786.802 7      -121.888          46.937
R11  21914602.300   117104982.346 7     -1539.680          46.250    21914601.240   117104982.347 7     -1539.680          44.562    21914617.100    91081751.157 7     -1197.529          47.812    21914617.000    91081717.158 7     -1197.529          47.750
G07  24702538.300   129812723.887 7      4404.866          43.875    24702540.320   129812723.913 3      4404.866          22.937    24702540.360   101152803.952 3      3432.363          22.500    24702541.640   101152800.963 5      3432.363          33.062
R23  20407865.180   109168322.292 7      3075.765          46.187    20407865.040   109168322.301 7      3075.765          44.875
G16  20479957.080   107622902.768 7      1777.994          46.750    20479955.000   107622902.781 6      1777.994          39.812    20479959.380    83862006.885 6      1385.450          39.687
G21  21552939.160   113261460.568 7      4541.298          47.937    21552937.640   113261460.576 6      4541.298          36.625    21552943.480    88255656.087 6      3538.674          36.812
G08  21663328.560   113841564.183 7      3603.359          45.625    21663326.840   113841564.177 6      3603.359          36.312    21663334.880    88707737.304 5      2807.812          35.812    21663336.100    88707742.310 8      2807.812          48.437
G23  23244643.240   122151424.854 7      1288.118          42.750    23244642.860   122151424.859 5      1288.118          32.500    23244650.820    95182959.134 5      1003.728          32.250    23244650.320    95182959.124 7      1003.728          46.625
> 2024 05 10 11 53 40.0000000  0 13
R22  20424763.040   109028772.136 8       192.221          48.687    20424763.580   109028772.147 8       192.221          48.375    20424770.120    84800185.394 8       149.505          49.875    20424770.760    84800186.397 8       149.505          49.875
G10  22278261.520   117073055.519 7      3207.318          45.875    22278259.320   117073055.519 7      3207.318          45.437    22278269.620    91225791.291 7      2499.209          45.062    22278269.800    91225791.291 8      2499.209          48.312
G27  20861519.900   109628024.475 8      2079.722          48.937    20861518.640   109628024.472 8      2079.722          49.750    20861525.060    85424454.346 8      1620.562          49.687    20861525.360    85424458.349 8      1620.562          50.250
G02  23284874.020   122362845.638 7      5007.145          43.687    23284872.320   122362845.645 4      5007.145          29.937    23284879.980    95347686.688 4      3901.671          29.812
R12  19182041.280   102467018.942 8      2197.799          50.625    19182041.940   102467018.951 8      2197.799          50.062    19182050.100    79696605.906 8      1709.400          51.000    19182050.420    79696607.909 8      1709.400          51.437
G26  22012101.140   115674372.462 7      -157.237          46.625    22012100.080   115674372.465 7      -157.237          45.500    22012109.760    90135908.007 7      -122.522          45.125    22012110.340    90135909.014 7      -122.522          46.562
R11  21914890.020   117106522.357 7     -1540.470          45.875    21914889.380   117106522.369 7     -1540.470          45.250    21914905.420    91082948.941 7     -1198.143          47.250    21914905.300    91082914.942 7     -1198.143          47.312
G07  24701700.240   129808319.421 7      4404.042          44.062    24701702.440   129808319.445 3      4404.042          22.937    24701701.920   101149371.904 3      3431.721          22.500    24701702.440   101149368.913 5      3431.721          33.062
R23  20407290.080   109165247.015 7      3074.916          45.937    20407289.860   109165247.028 7      3074.916          44.750
G16  20479618.560   107621125.274 7      1777.086          46.562    20479616.780   107621125.286 6      1777.086          40.187    20479621.160    83860621.818 6      1384.743          39.500
G21  21552075.140   113256919.713 7      4540.491          47.750    21552073.320   113256919.720 6      4540.491          36.687    21552079.520    88252117.759 6      3538.045          36.812
G08  21662643.140   113837961.181 7      3602.729          45.312    21662641.380   113837961.178 6      3602.729          36.312    21662649.280    88704929.772 5      2807.322          35.937    21662650.180    88704934.787 8      2807.322          48.437
G23  23244398.120   122150137.260 7      1287.030          43.687    23244397.900   122150137.265 5      1287.030          32.500    23244405.660    95181955.814 5      1002.880          32.750    23244405.540    95181955.806 7      1002.880          46.500
> 2024 05 10 11 53 41.0000000  0 13
R22  20424727.120   109028579.874 7       192.096          47.500    20424727.700   109028579.875 7       192.096          47.937    20424734.020    84800035.847 8       149.408          49.375    20424734.680    84800036.852 8       149.408          49.812
G10  22277651.160   117069848.242 7      3207.026          45.625    22277649.060   117069848.247 7      3207.026          45.812    22277659.320    91223292.118 7      2498.982          45.375    22277659.600    91223292.119 8      2498.982          48.562
G27  20861124.240   109625944.653 7      2079.713          47.875    20861122.720   109625944.650 8      2079.713          48.875    20861129.180    85422833.705 8      1620.555          49.125    20861129.600    85422837.706 8      1620.555          50.250
G02  23283921.300   122357838.514 7      5006.918          43.562    23283919.440   122357838.522 4      5006.918          29.937    23283927.160    95343785.039 4      3901.495          29.812
R12  19181629.820   102464821.400 8      2197.102          48.125    19181630.560   102464821.403 8      2197.102          49.812    19181638.680    79694896.702 8      1708.857          50.750    19181638.760    79694898.708 8      1708.857          51.187
G26  22012131.040   115674529.635 7      -157.360          46.000    22012129.960   115674529.640 7      -157.360          45.000    22012139.560    90136030.467 7      -122.618          45.062    22012140.080    90136031.474 7      -122.618          46.812
R11  21915178.500   117108062.776 7     -1540.726          45.750    21915177.820   117108062.786 7     -1540.726          45.062    21915193.400    91084147.028 7     -1198.343          47.812    21915193.460    91084113.027 7     -1198.343          47.375
G07  24700862.620   129803915.392 7      4403.827          44.437    24700864.380   129803915.415 3      4403.827          21.750    24700863.880   101145940.193 3      3431.553          22.500    24700864.140   101145937.193 5      3431.553          33.062
R23  20406715.600   109162172.207 7      3074.625          46.125    20406715.200   109162172.219 7      3074.625          45.062
G16  20479280.440   107619348.252 7      1776.776          47.125    20479278.540   107619348.259 6      1776.776          40.062    20479282.940    83859237.125 6      1384.501          39.437
G21  21551211.040   113252379.352 7      4540.105          47.125    21551209.300   113252379.365 6      4540.105          36.375    21551215.420    88248579.821 6      3537.744          36.375
G08  21661957.520   113834358.292 7      3602.766          46.312    21661955.700   113834358.286 6      3602.766          36.187    21661963.680    88702122.326 6      2807.350          36.125    21661964.540    88702127.336 8      2807.350          49.000
G23  23244153.180   122148850.239 7      1286.617          43.250    23244153.040   122148850.241 5      1286.617          33.000    23244160.840    95180952.936 5      1002.558          32.750    23244160.700    95180952.922 7      1002.558          46.750
> 2024 05 10 11 53 42.0000000  0 13
R22  20424691.080   109028387.845 7       192.177          47.812    20424691.480   109028387.844 8       192.177          48.562    20424698.040    84799886.487 8       149.471          49.875    20424698.580    84799887.490 8       149.471          49.812
G10  22277041.080   117066641.549 7      3206.669          45.812    22277039.000   117066641.551 7      3206.669          45.562    22277049.040    91220793.400 7      2498.703          45.437    22277049.400    91220793.404 8      2498.703          48.375
G27  20860728.200   109623865.017 7      2079.805          47.687    20860726.960   109623865.017 8      2079.805          49.562    20860733.420    85421213.210 8      1620.627          49.125    20860733.800    85421217.215 8      1620.627          50.250
G02  23282968.360   122352831.774 7      5006.798          44.187    23282966.780   122352831.776 4      5006.798          29.937    23282974.200    95339883.685 5      3901.401          30.375
R12  19181218.580   102462624.771 8      2196.428          50.375    19181219.240   102462624.777 8      2196.428          49.500    19181227.440    79693188.215 8      1708.333          50.750    19181227.540    79693190.219 8      1708.333          50.937
G26  22012161.000   115674687.205 7      -157.556          46.187    22012160.000   115674687.204 7      -157.556          45.250    22012169.560    90136153.242 7      -122.771          45.062    22012170.060    90136154.245 7      -122.771          46.562
R11  21915466.860   117109603.599 7     -1540.822          45.625    21915466.280   117109603.614 7     -1540.822          45.000    21915481.880    91085345.427 7     -1198.417          47.125    21915481.680    91085311.428 7     -1198.417          47.312
G07  24700024.840   129799511.856 7      4403.476          43.250    24700026.520   129799511.879 3      4403.476          21.750    24700025.740   101142508.866 3      3431.280          22.500    24700025.840   101142505.848 5      3431.280          33.062
R23  20406141.020   109159097.920 7      3074.341          45.875    20406140.480   109159097.929 7      3074.341          44.812
G16  20478942.300   107617571.758 7      1776.430          45.875    20478940.560   107617571.763 6      1776.430          40.250    20478944.800    83857852.843 6      1384.231          39.500
G21  21550347.020   113247839.527 7      4539.782          47.125    21550345.480   113247839.537 6      4539.782          36.437    21550351.560    88245042.299 6      3537.493          36.375
G08  21661271.900   113830755.550 7      3602.862          45.750    21661270.160   113830755.544 6      3602.862          36.375    21661278.120    88699314.995 5      2807.425          35.750    21661279.180    88699320.005 8      2807.425          48.625
G23  23243908.640   122147563.819 7      1286.207          43.687    23243908.220   122147563.819 5      1286.207          33.000    23243916.100    95179950.529 5      1002.239          32.750    23243915.980    95179950.517 7      1002.239          46.375
> 2024 05 10 11 53 43.0000000  0 13
R22  20424655.200   109028195.982 8       191.601          48.312    20424655.040   109028195.980 7       191.601          47.687    20424662.140    84799737.260 8       149.023          49.562    20424662.800    84799738.265 8       149.023          49.812
G10  22276430.960   117063435.312 7      3205.887          46.125    22276428.920   117063435.317 7      3205.887          45.875    22276438.820    91218295.036 7      2498.094          45.687    22276439.160    91218295.040 8      2498.094          48.000
G27  20860332.440   109621785.484 7      2079.311          47.937    20860331.500   109621785.484 8      2079.311          49.312    20860337.620    85419592.795 8      1620.242          49.312    20860338.180    85419596.802 8      1620.242          50.750
G02  23282015.500   122347825.288 7      5006.107          43.437    23282014.280   122347825.291 5      5006.107          30.500    23282021.480    95335982.537 5      3900.863          30.375
R12  19180807.660   102460428.959 8      2195.252          49.312    19180808.160   102460428.966 8      2195.252          50.250    19180816.460    79691480.364 8      1707.418          51.062    19180816.680    79691482.367 8      1707.418          51.062
G26  22012190.960   115674845.042 7      -158.060          46.125    22012190.100   115674845.047 7      -158.060          44.875    22012199.560    90136276.224 7      -123.164          45.375    22012199.980    90136277.232 7      -123.164          46.875
R11  21915755.100   117111144.708 7     -1541.293          45.562    21915754.580   117111144.717 7     -1541.293          44.812    21915770.280    91086544.045 7     -1198.784          47.687    21915770.360    91086510.048 7     -1198.784          47.562
G07  24699186.980   129795108.672 7      4402.822          43.125    24699188.480   129795108.690 3      4402.822          21.750    24699187.740   101139077.808 3      3430.770          22.500    24699188.820   101139074.798 5      3430.770          33.062
R23  20405566.740   109156024.058 7      3073.462          46.437    20405565.900   109156024.071 7      3073.462          45.250
G16  20478604.260   107615795.669 7      1775.725          45.875    20478602.680   107615795.677 6      1775.725          40.062    20478606.920    83856468.877 6      1383.682          39.875
G21  21549483.380   113243300.111 7      4539.062          47.375    21549481.720   113243300.121 6      4539.062          36.062    21549487.620    88241505.094 6      3536.932          36.375
G08  21660586.460   113827152.858 7      3602.499          46.000    21660584.720   113827152.852 6      3602.499          36.187    21660592.680    88696507.704 6      2807.142          36.062    21660593.400    88696512.715 8      2807.142          48.375
G23  23243664.120   122146277.875 7      1285.605          43.562    23243663.660   122146277.877 5      1285.605          32.625    23243671.180    95178948.493 5      1001.770          32.750    23243671.280    95178948.483 7      1001.770          46.562
> 2024 05 10 11 53 44.0000000  0 13
R22  20424618.920   109028004.353 7       191.363          47.812    20424619.540   109028004.351 8       191.363          48.375    20424626.000    84799588.209 8       148.838          49.750    20424626.460    84799589.215 8       148.838          49.375
G10  22275820.620   117060229.623 7      3205.374          45.062    22275818.780   117060229.622 7      3205.374          46.062    22275828.680    91215797.098 7      2497.694          45.625    22275829.000    91215797.102 8      2497.694          48.062
G27  20859936.720   109619706.109 8      2079.225          48.625    20859935.540   109619706.106 8      2079.225          49.187    20859942.060    85417972.498 8      1620.175          49.437    20859942.380    85417976.499 8      1620.175          50.187
G02  23281063.240   122342819.150 7      5005.910          43.687    23281061.540   122342819.155 5      5005.910          30.500    23281068.820    95332081.656 5      3900.709          30.375
R12  19180397.160   102458234.011 8      2194.418          50.250    19180397.500   102458234.017 8      2194.418          49.625    19180405.720    79689773.176 8      1706.770          51.250    19180405.380    79689775.181 8      1706.770          51.375
G26  22012221.180   115675003.250 7      -158.564          46.187    22012220.300   115675003.258 7      -158.564          45.187    22012229.760    90136399.501 7      -123.556          45.250    22012230.380    90136400.503 7      -123.556          46.937
R11  21916044.040   117112686.242 7     -1541.863          45.250    21916042.900   117112686.238 7     -1541.863          44.812    21916058.800    91087742.995 7     -1199.227          47.375    21916058.460    91087709.000 7     -1199.227          47.750
G07  24698349.460   129790705.909 7      4402.494          44.250    24698350.780   129790705.927 3      4402.494          21.750    24698349.720   101135647.085 3      3430.515          22.500    24698352.280   101135644.104 5      3430.515          33.062
R23  20404991.660   109152950.668 7      3073.092          46.250    20404991.380   109152950.674 7      3073.092          45.187
G16  20478266.620   107614020.093 7      1775.182          46.875    20478264.820   107614020.097 6      1775.182          40.375    20478269.100    83855085.305 6      1383.259          39.875
G21  21548619.660   113238761.203 7      4538.558          47.750    21548618.040   113238761.211 6      4538.558          36.125    21548623.720    88237968.287 6      3536.539          36.062
G08  21659900.700   113823550.300 7      3602.342          45.250    21659899.040   113823550.294 6      3602.342          36.062    21659907.040    88693700.516 5      2807.020          35.812    21659907.860    88693705.529 8      2807.020          48.625
G23  23243419.500   122144992.567 7      1284.880          44.375    23243419.180   122144992.569 5      1284.880          32.625    23243426.660    95177946.950 5      1001.205          32.562    23243426.820    95177946.934 7      1001.205          46.250
> 2024 05 10 11 53 45.0000000  0 13
R22  20424583.320   109027813.029 7       191.351          47.875    20424584.180   109027813.035 8       191.351          48.312    20424590.160    84799439.401 8       148.828          49.312    20424590.940    84799440.409 8       148.828          49.812
G10  22275210.600   117057024.582 7      3204.892          45.187    22275208.920   117057024.581 7      3204.892          46.062    22275219.060    91213299.657 7      2497.319          45.875    22275218.760    91213299.656 8      2497.319          48.062
G27  20859541.080   109617626.999 7      2079.194          47.937    20859539.920   109617626.998 8      2079.194          49.812    20859546.380    85416352.412 8      1620.151          50.125    20859546.560    85416356.413 8      1620.151          50.000
G02  23280110.420   122337813.476 7      5005.587          42.750    23280109.020   122337813.481 5      5005.587          30.500    23280116.280    95328181.136 5      3900.458          30.562
R12  19179985.880   102456040.010 8      2193.792          50.187    19179986.640   102456040.009 8      2193.792          50.062    19179994.980    79688066.727 8      1706.283          51.000    19179994.800    79688068.730 8      1706.283          50.812
G26  22012251.220   115675161.916 7      -158.713          45.937    22012250.420   115675161.921 7      -158.713          44.812    22012260.040    90136523.126 7      -123.673          44.812    22012260.180    90136524.132 7      -123.673          46.625
R11  21916332.120   117114228.224 7     -1541.959          45.687    21916331.740   117114228.225 7     -1541.959          45.125    21916347.460    91088942.300 7     -1199.301          47.500    21916347.480    91088908.303 7     -1199.301          47.437
G07  24697511.400   129786303.716 7      4402.084          44.187    24697512.960   129786303.736 3      4402.084          21.750    24697511.780   101132216.801 3      3430.196          21.875    24697512.540   101132213.783 5      3430.196          33.062
R23  20404417.280   109149877.881 7      3072.576          45.562    20404417.080   109149877.896 7      3072.576          45.187
G16  20477928.680   107612245.102 7      1774.801          46.250    20477926.920   107612245.112 6      1774.801          40.250    20477931.360    83853702.197 6      1382.962          39.875
G21  21547756.200   113234222.892 7      4538.254          47.500    21547754.320   113234222.899 6      4538.254          36.125    21547760.240    88234431.944 6      3536.302          36.312
G08  21659215.300   113819947.960 7      3602.455          44.937    21659213.380   113819947.949 6      3602.455          36.125    21659221.460    88690893.496 5      2807.108          35.812    21659222.520    88690898.500 8      2807.108          48.375
G23  23243174.920   122143707.911 7      1284.562          44.812    23243174.740   122143707.913 5      1284.562          32.375    23243182.180    95176945.917 5      1000.957          32.562    23243182.060    95176945.911 7      1000.957          46.812
> 2024 05 10 11 53 46.0000000  0 13
R22  20424547.360   109027621.875 8       190.976          48.312    20424548.420   109027621.876 8       190.976          48.375    20424554.260    84799290.718 8       148.537          49.875    20424555.100    84799291.725 8       148.537          49.687
G10  22274600.940   117053819.985 7      3204.288          45.312    22274599.080   117053819.987 7      3204.288          45.875    22274609.160    91210802.577 7      2496.848          45.625    22274608.960    91210802.579 8      2496.848          48.500
G27  20859145.560   109615547.973 8      2078.942          48.625    20859144.320   109615547.975 8      2078.942          49.125    20859150.860    85414732.392 8      1619.954          48.875    20859151.260    85414736.397 8      1619.954          50.562
G02  23279158.080   122332808.063 7      5005.174          42.437    23279156.660   122332808.070 5      5005.174          30.500    23279163.680    95324280.818 5      3900.136          30.562
R12  19179575.560   102453846.806 8      2192.750          50.687    19179575.740   102453846.799 8      2192.750          49.937    19179584.380    79686360.895 8      1705.472          50.625    19179584.380    79686362.900 8      1705.472          51.062
G26  22012281.480   115675320.862 7      -159.201          46.437    22012280.600   115675320.867 7      -159.201          45.437    22012290.200    90136646.970 7      -124.053          45.312    22012290.780    90136647.978 7      -124.053          47.250
R11  21916621.040   117115770.533 7     -1542.603          45.750    21916620.260   117115770.534 7     -1542.603          45.000    21916636.180    91090141.858 8     -1199.802          48.312    21916636.000    91090107.857 7     -1199.802          47.812
G07  24696673.320   129781901.846 7      4401.662          43.687    24696675.480   129781901.869 3      4401.662          21.750    24696674.060   101128786.776 3      3429.866          21.875    24696675.200   101128783.867 5      3429.866          33.062
R23  20403843.060   109146805.496 7      3072.062          45.125    20403842.740   109146805.508 7      3072.062          45.125
G16  20477591.220   107610470.516 7      1774.266          45.687    20477589.200   107610470.526 6      1774.266          40.062    20477593.620    83852319.401 6      1382.545          39.312
G21  21546892.540   113229685.021 7      4537.560          46.125    21546890.760   113229685.029 6      4537.560          36.187    21546896.660    88230895.941 6      3535.761          36.375
G08  21658529.840   113816345.657 7      3602.217          45.562    21658528.080   113816345.651 6      3602.217          36.312    21658535.980    88688086.511 6      2806.922          36.000    21658536.940    88688091.515 7      2806.922          47.812
G23  23242930.540   122142423.793 7      1283.701          44.062    23242930.440   122142423.795 5      1283.701          32.375    23242937.840    95175945.306 5      1000.287          32.562    23242938.060    95175945.294 7      1000.287          46.437
> 2024 05 10 11 53 47.0000000  0 13
R22  20424511.940   109027430.935 8       190.747          49.062    20424512.380   109027430.944 8       190.747          48.312    20424518.480    84799142.207 8       148.358          49.437    20424519.060    84799143.212 8       148.358          49.437
G10  22273991.440   117050615.945 7      3203.635          45.687    22273989.420   117050615.950 7      3203.635          45.687    22273999.500    91208305.933 7      2496.339          45.187    22273999.180    91208305.935 8      2496.339          48.312
G27  20858749.860   109613469.125 8      2078.715          49.062    20858748.820   109613469.125 8      2078.715          49.375    20858755.380    85413112.507 8      1619.778          49.250    20858755.660    85413116.512 8      1619.778          50.562
G02  23278205.620   122327802.996 7      5004.850          43.125    23278204.240   122327803.004 5      5004.850          30.500    23278211.040    95320380.770 5      3899.883          30.562
R12  19179165.320   102451654.496 8      2191.893          49.375    19179165.260   102451654.483 8      2191.893          49.687    19179174.020    79684655.758 8      1704.805          50.375    19179173.740    79684657.760 8      1704.805          51.375
G26  22012311.960   115675480.158 7      -159.484          46.500    22012311.000   115675480.160 7      -159.484          44.875    22012320.680    90136771.087 7      -124.273          45.125    22012320.960    90136772.090 7      -124.273          46.750
R11  21916909.660   117117313.183 7     -1542.833          45.750    21916909.360   117117313.187 7     -1542.833          44.687    21916924.700    91091341.685 7     -1199.981          47.437    21916924.860    91091307.680 7     -1199.981          47.937
G07  24695835.820   129777500.472 7      4401.203          44.062    24695837.720   129777500.496 3      4401.203          21.750    24695836.480   101125357.145 3      3429.509          21.875    24695839.480   101125354.246 5      3429.509          33.062
R23  20403268.720   109143733.565 7      3071.677          45.312    20403268.180   109143733.586 7      3071.677          44.750
G16  20477253.680   107608696.411 7      1773.899          45.812    20477251.660   107608696.421 6      1773.899          40.312    20477255.820    83850936.983 6      1382.259          39.312
G21  21546029.120   113225147.629 7      4537.141          47.125    21546027.280   113225147.631 6      4537.141          36.187    21546033.180    88227360.311 6      3535.435          36.437
G08  21657844.340   113812743.506 7      3602.066          45.687    21657842.480   113812743.503 6      3602.066          36.312    21657850.520    88685279.640 5      2806.804          35.812    21657851.600    88685284.646 8      2806.804          48.750
G23  23242686.420   122141140.224 7      1283.243          44.437    23242686.180   122141140.229 5      1283.243          32.500    23242693.680    95174945.118 5       999.930          32.312    23242693.860    95174945.106 7       999.930          46.937
> 2024 05 10 11 53 48.0000000  0 13
R22  20424475.980   109027240.166 8       190.670          48.437    20424476.440   109027240.170 8       190.670          48.437    20424483.080    84798993.833 8       148.299          49.500    20424483.540    84798994.841 8       148.299          49.312
G10  22273381.580   117047412.362 7      3203.229          45.000    22273379.620   117047412.367 7      3203.229          45.625    22273389.780    91205809.631 7      2496.022          45.437    22273389.640    91205809.631 8      2496.022          48.375
G27  20858354.200   109611390.370 8      2078.703          49.000    20858353.260   109611390.369 8      2078.703          49.187    20858359.660    85411492.697 8      1619.769          49.125    20858359.960    85411496.698 8      1619.769          48.750
G02  23277253.280   122322798.227 7      5004.539          44.062    23277251.880   122322798.234 5      5004.539          30.500    23277258.820    95316480.953 5      3899.641          30.562
R12  19178754.820   102449463.009 8      2191.061          49.750    19178754.840   102449463.007 8      2191.061          49.750    19178763.680    79682951.270 8      1704.158          49.812    19178763.840    79682953.276 8      1704.158          50.937
G26  22012342.320   115675639.777 7      -159.852          46.187    22012341.320   115675639.779 7      -159.852          45.125    22012350.880    90136895.461 7      -124.560          44.875    22012351.200    90136896.471 7      -124.560          46.500
R11  21917198.440   117118856.176 7     -1543.303          45.687    21917198.180   117118856.171 7     -1543.303          44.812    21917213.460    91092541.776 7     -1200.347          46.875    21917213.300    91092507.775 7     -1200.347          47.375
G07  24694998.600   129773099.462 7      4400.893          44.312    24695000.160   129773099.482 3      4400.893          21.750    24694998.680   101121927.796 3      3429.267          21.875    24695002.300   101121924.905 5      3429.267          33.062
R23  20402694.320   109140662.090 7      3071.211          44.812    20402694.040   109140662.107 7      3071.211          45.000
G16  20476916.000   107606922.783 7      1773.344          46.250    20476914.040   107606922.794 6      1773.344          40.125    20476918.360    83849554.930 6      1381.827          39.250
G21  21545165.900   113220610.697 7      4536.586          46.750    21545163.940   113220610.699 6      4536.586          36.250    21545169.840    88223825.048 6      3535.002          36.375
G08  21657158.680   113809141.392 7      3602.128          45.437    21657157.040   113809141.384 6      3602.128          36.000    21657165.100    88682472.792 5      2806.853          35.937    21657166.020    88682477.796 7      2806.853          47.687
G23  23242442.420   122139857.199 7      1282.666          44.562    23242442.300   122139857.204 5      1282.666          32.500    23242449.440    95173945.355 5       999.480          32.312    23242449.540    95173945.343 7       999.480          46.437
> 2024 05 10 11 53 49.0000000  0 13
R22  20424440.380   109027049.621 8       190.352          48.000    20424440.880   109027049.622 8       190.352          48.312    20424447.440    84798845.627 8       148.051          49.625    20424447.960    84798846.637 8       148.051          49.312
G10  22272772.000   117044209.311 7      3202.674          44.500    22272770.000   117044209.310 7      3202.674          45.500    22272780.220    91203313.744 7      2495.590          45.312    22272780.160    91203313.744 7      2495.590          47.875
G27  20857958.820   109609311.785 8      2078.389          48.750    20857957.740   109609311.782 7      2078.389          47.812    20857963.960    85409873.021 7      1619.524          47.500    20857964.260    85409877.024 8      1619.524          49.875
G02  23276301.080   122317793.785 7      5004.172          44.062    23276299.720   122317793.795 5      5004.172          30.500    23276306.300    95312581.387 5      3899.355          30.125
R12  19178344.820   102447272.384 8      2190.100          49.875    19178344.840   102447272.377 8      2190.100          49.937    19178353.400    79681247.451 8      1703.411          48.375    19178353.520    79681249.453 8      1703.411          50.000
G26  22012372.780   115675799.717 7      -160.245          46.437    22012371.820   115675799.722 7      -160.245          44.875    22012381.340    90137020.089 7      -124.866          44.625    22012381.800    90137021.093 7      -124.866          46.750
R11  21917487.100   117120399.505 7     -1543.666          46.125    21917486.680   117120399.506 7     -1543.666          44.812    21917502.400    91093742.124 7     -1200.629          47.562    21917502.420    91093708.123 7     -1200.629          47.375
G07  24694161.100   129768698.890 7      4400.367          44.375    24694162.780   129768698.910 3      4400.367          21.312    24694161.100   101118498.783 3      3428.857          21.875    24694163.840   101118495.909 5      3428.857          33.062
R23  20402120.300   109137591.076 7      3070.679          44.812    20402120.260   109137591.089 7      3070.679          44.437
G16  20476578.560   107605149.606 7      1772.851          46.250    20476576.780   107605149.616 6      1772.851          40.000    20476581.020    83848173.235 6      1381.442          39.312
G21  21544302.460   113216074.227 7      4536.108          46.625    21544300.520   113216074.229 6      4536.108          36.000    21544306.560    88220290.138 5      3534.630          35.750
G08  21656473.540   113805539.409 7      3601.869          45.187    21656471.520   113805539.401 6      3601.869          36.000    21656479.580    88679666.054 5      2806.652          35.750    21656480.160    88679671.060 8      2806.652          48.250
G23  23242198.200   122138574.737 7      1282.051          44.562    23242198.260   122138574.742 5      1282.051          32.562    23242205.240    95172946.029 5       999.000          32.562    23242205.480    95172946.019 7       999.000          45.937
> 2024 05 10 11 53 50.0000000  0 13
R22  20424404.740   109026859.396 8       190.380          48.062    20424405.280   109026859.397 8       190.380          48.625    20424411.780    84798697.662 8       148.074          49.625    20424412.440    84798698.668 8       148.074          50.062
G10  22272162.640   117041006.900 7      3202.410          44.875    22272160.500   117041006.902 7      3202.410          45.687    22272170.760    91200818.363 7      2495.384          45.562    22272170.820    91200818.364 8      2495.384          48.062
G27  20857563.440   109607233.455 8      2078.459          48.562    20857561.940   109607233.452 8      2078.459          48.875    20857568.640    85408253.545 8      1619.578          48.937    20857568.880    85408257.546 8      1619.578          50.375
G02  23275348.660   122312789.770 7      5004.013          43.437    23275347.440   122312789.777 5      5004.013          30.000    23275354.260    95308682.158 5      3899.231          30.125
R12  19177934.780   102445082.710 8      2189.463          49.375    19177934.740   102445082.706 8      2189.463          49.750    19177943.520    79679544.370 8      1702.916          50.375    19177943.500    79679546.373 8      1702.916          50.625
G26  22012403.420   115675960.129 7      -160.396          46.437    22012402.360   115675960.129 7      -160.396          45.187    22012411.940    90137145.072 7      -124.984          45.062    22012412.540    90137146.084 7      -124.984          46.937
R11  21917775.820   117121943.309 7     -1543.772          46.875    21917775.920   117121943.311 7     -1543.772          45.187    21917791.240    91094942.838 7     -1200.711          47.625    21917791.380    91094908.839 7     -1200.711          47.562
G07  24693324.080   129764298.859 7      4400.175          44.437    24693325.500   129764298.880 3      4400.175          21.312    24693323.840   101115070.192 3      3428.708          21.875    24693328.640   101115067.311 5      3428.708          33.062
R23  20401546.440   109134520.625 7      3070.447          45.312    20401546.640   109134520.645 7      3070.447          45.250
G16  20476241.220   107603377.038 7      1772.525          46.375    20476239.520   107603377.045 6      1772.525          39.875    20476243.800    83846792.003 6      1381.188          39.562
G21  21543439.160   113211538.359 7      4535.888          47.125    21543437.320   113211538.367 6      4535.888          36.062    21543443.400    88216755.693 6      3534.458          36.437
G08  21655788.140   113801937.647 7      3601.918          45.500    21655786.080   113801937.639 6      3601.918          36.000    21655794.060    88676859.486 5      2806.689          35.875    21655794.880    88676864.499 8      2806.689          48.250
