     3.05           OBSERVATION DATA    MIXED               RINEX VERSION / TYPE
TPS2RIN 1.0.29.3920 TPS-USER            20240511 200040 UTC PGM / RUN BY / DATE
Win64 build Feb 23, 2024 (c) Topcon Positioning Systems     COMMENT
SRC: 20240510_MI06.tps                                      COMMENT
OPT: -S -v 3.05                                             COMMENT
Observer            Agency                                  OBSERVER / AGENCY
O0M3X53SBGM         TPS HIPER_SR        4.8 HSR Jul,08,2022 REC # / TYPE / VERS
FW: 4.8 HSR Jul,08,2022 p3                                  COMMENT
SN: HiPer SR 1212-12575                                     COMMENT
000                 TPSHIPER_SR     NONE                    ANT # / TYPE
        1.8000        0.0000        0.0000                  ANTENNA: DELTA H/E/N
MI06                                                        MARKER NAME
  5383476.5043 -1589691.6422  3019652.9703                  APPROX POSITION XYZ
  2024     5    10    12    20    5.0000000     GPS         TIME OF FIRST OBS
  2024     5    10    12    35    5.0000000     GPS         TIME OF LAST OBS
     1.000                                                  INTERVAL
   901 EPOCHS                                               COMMENT
G   16 C1C L1C D1C S1C C1W L1W D1W S1W C2W L2W D2W S2W C2X  SYS / # / OBS TYPES
       L2X D2X S2X                                          SYS / # / OBS TYPES
R   16 C1C L1C D1C S1C C1P L1P D1P S1P C2P L2P D2P S2P C2C  SYS / # / OBS TYPES
       L2C D2C S2C                                          SYS / # / OBS TYPES
    15                                                      # OF SATELLITES
   G02   901   901   901   901   901   901   901   901   901PRN / # OF OBS
         901   901   901     0     0     0     0            PRN / # OF OBS
   G07   901   901   901   901   901   901   901   901   901PRN / # OF OBS
         901   901   901   901   901   901   901            PRN / # OF OBS
   G08   901   901   901   901   901   901   901   901   901PRN / # OF OBS
         901   901   901   901   901   901   901            PRN / # OF OBS
   G10   901   901   901   901   901   901   901   901   901PRN / # OF OBS
         901   901   901   901   901   901   901            PRN / # OF OBS
   G16   901   901   901   901   901   901   901   901   901PRN / # OF OBS
         901   901   901     0     0     0     0            PRN / # OF OBS
   G21   901   901   901   901   901   901   901   901   901PRN / # OF OBS
         901   901   901     0     0     0     0            PRN / # OF OBS
   G23   901   901   901   901   901   901   901   901   901PRN / # OF OBS
         901   901   901   901   901   901   901            PRN / # OF OBS
   G26   901   901   901   901   901   901   901   901   901PRN / # OF OBS
         901   901   901   901   901   901   901            PRN / # OF OBS
   G27   901   901   901   901   901   901   901   901   901PRN / # OF OBS
         901   901   901   901   901   901   901            PRN / # OF OBS
   R07   860   860   860   860   856   856   856   856   856PRN / # OF OBS
         856   856   856   855   855   855   855            PRN / # OF OBS
   R11   216   216   216   216   216   216   216   216   216PRN / # OF OBS
         216   216   216   216   216   216   216            PRN / # OF OBS
   R12   901   901   901   901   901   901   901   901   901PRN / # OF OBS
         901   901   901   901   901   901   901            PRN / # OF OBS
   R22   901   901   901   901   901   901   901   901   901PRN / # OF OBS
         901   901   901   901   901   901   901            PRN / # OF OBS
   R23   901   901   901   901   901   901   901   901     0PRN / # OF OBS
           0     0     0     0     0     0     0            PRN / # OF OBS
   R24   195   195   195   195   190   190   190   190   190PRN / # OF OBS
         190   190   190   189   189   189   189            PRN / # OF OBS
G L1C                                                       SYS / PHASE SHIFT
G L1W -0.25000                                              SYS / PHASE SHIFT
G L2W  0.00000                                              SYS / PHASE SHIFT
G L2X  0.25000                                              SYS / PHASE SHIFT
R L1C                                                       SYS / PHASE SHIFT
R L1P -0.25000                                              SYS / PHASE SHIFT
R L2P -0.25000                                              SYS / PHASE SHIFT
R L2C                                                       SYS / PHASE SHIFT
  6 R07  5 R11  0 R12 -1 R22 -3 R23  3 R24  2               GLONASS SLOT / FRQ #
                                                            GLONASS COD/PHS/BIS
    18    18  1929     7GPS                                 LEAP SECONDS
                                                            END OF HEADER
> 2024 05 10 12 20  5.0000000  0 13
G27  20875292.180   109700402.909 7      1807.115          47.375    20875291.220   109700402.914 8      1807.115          48.250    20875297.560    85480855.785 8      1408.141          48.687    20875298.320    85480866.782 8      1408.141          49.937
G21  20904123.420   109851911.675 7      3718.469          47.687    20904122.060   109851911.680 6      3718.469          37.687    20904126.500    85598905.784 6      2897.509          37.937
G10  22047504.580   115860414.171 7      2284.207          46.875    22047503.260   115860414.176 7      2284.207          45.125    22047511.960    90280881.904 7      1779.902          45.437    22047512.120    90280880.905 7      1779.902          47.250
R23  20202526.080   108069898.541 7      2378.173          44.437    20202526.240   108069898.564 7      2378.173          44.500
G16  20664039.140   108590259.109 7       971.803          46.437    20664037.220   108590259.122 6       971.803          39.625    20664042.200    84615797.455 6       757.249          39.187
R12  19335242.560   103285399.991 8       815.261          49.000    19335242.080   103285399.984 8       815.261          48.562    19335252.520    80333124.822 8       634.092          51.062    19335252.820    80333125.824 8       634.092          51.562
R22  21011016.400   112158230.852 7       -58.350          44.125    21011015.040   112158230.842 7       -58.350          45.562    21011024.100    87234212.790 8       -45.384          48.687    21011024.340    87234212.789 8       -45.384          48.625
R11  23044204.640   123141247.912 6     -1984.251          41.625    23044203.480   123141247.903 6     -1984.251          41.000    23044225.320    95776608.953 7     -1543.307          46.250    23044225.140    95776606.953 7     -1543.307          46.937
G23  23593422.500   123984270.486 7       399.551          42.562    23593420.920   123984270.496 5       399.551          30.750    23593430.560    96611134.212 5       311.338          30.750    23593430.580    96611155.212 7       311.338          45.625
G26  22739317.880   119495915.440 7      -671.317          43.750    22739316.480   119495915.442 6      -671.317          41.687    22739330.460    93113750.566 6      -523.104          41.312    22739331.000    93113757.560 7      -523.104          46.312
G02  22461236.700   118034596.228 7      4407.908          44.812    22461234.760   118034596.233 5      4407.908          34.687    22461241.160    91975028.573 5      3434.733          34.750
G07  24086612.000   126576011.773 7      3629.202          43.250    24086610.180   126576011.778 4      3629.202          26.625    24086617.180    98630639.387 4      2827.949          26.250    24086619.140    98630691.382 6      2827.949          38.375
G08  21206802.360   111442500.295 7      3393.637          46.875    21206801.520   111442500.295 6      3393.637          37.875    21206808.640    86838337.970 6      2644.392          37.562    21206809.260    86838341.977 8      2644.392          49.375
> 2024 05 10 12 20  6.0000000  0 13
G27  20874948.500   109698595.865 8      1806.998          48.437    20874947.360   109698595.870 8      1806.998          48.937    20874953.720    85479447.697 8      1408.051          48.875    20874954.520    85479458.692 8      1408.051          49.937
G21  20903415.880   109848193.432 8      3718.025          48.312    20903414.660   109848193.437 6      3718.025          38.125    20903419.060    85596008.453 6      2897.163          38.187
G10  22047069.880   115858130.243 7      2283.636          47.437    22047068.740   115858130.248 7      2283.636          45.812    22047077.380    90279102.220 7      1779.456          45.687    22047077.420    90279101.223 7      1779.456          47.000
R23  20202081.300   108067520.613 7      2377.786          44.750    20202081.620   108067520.634 7      2377.786          44.375
G16  20663854.140   108589287.561 7       971.262          46.125    20663852.400   108589287.571 6       971.262          39.250    20663857.400    84615040.396 6       756.828          38.875
R12  19335090.020   103284585.182 8       814.436          48.500    19335089.440   103284585.175 8       814.436          48.687    19335099.900    80332491.079 8       633.450          51.437    19335100.320    80332492.081 8       633.450          51.687
R22  21011027.660   112158289.192 7       -58.449          46.375    21011025.960   112158289.188 7       -58.449          46.125    21011035.040    87234258.168 8       -45.460          49.000    21011035.000    87234258.167 8       -45.460          49.187
R11  23044576.040   123143232.035 6     -1984.322          40.000    23044574.620   123143232.031 6     -1984.322          39.375    23044596.620    95778152.158 7     -1543.361          46.687    23044596.360    95778150.159 7     -1543.361          46.437
G23  23593346.740   123983871.300 7       398.950          42.625    23593344.900   123983871.310 5       398.950          30.750    23593354.600    96610823.154 5       310.870          30.812    23593354.640    96610844.150 7       310.870          45.875
G26  22739445.440   119496586.926 7      -671.570          43.875    22739444.300   119496586.923 6      -671.570          41.500    22739458.320    93114273.781 6      -523.301          41.437    22739458.900    93114280.775 7      -523.301          46.125
G02  22460398.020   118030188.604 7      4407.404          45.375    22460396.080   118030188.606 5      4407.404          34.687    22460402.380    91971594.062 5      3434.341          34.437
G07  24085921.400   126572382.887 7      3628.612          43.437    24085919.760   126572382.887 4      3628.612          26.625    24085926.700    98627811.682 4      2827.490          26.250    24085927.860    98627863.674 6      2827.490          38.375
G08  21206156.640   111439106.759 7      3393.570          46.187    21206155.660   111439106.758 6      3393.570          37.625    21206162.880    86835693.658 6      2644.340          37.812    21206163.240    86835697.665 8      2644.340          49.312
> 2024 05 10 12 20  7.0000000  0 13
G27  20874604.580   109696789.071 8      1806.588          48.062    20874603.560   109696789.078 8      1806.588          49.687    20874609.980    85478039.803 8      1407.731          49.375    20874610.720    85478050.802 8      1407.731          49.937
G21  20902708.300   109844475.789 8      3717.257          48.562    20902707.180   109844475.791 6      3717.257          37.562    20902711.520    85593111.588 6      2896.564          37.687
G10  22046635.320   115855846.991 7      2282.891          47.750    22046634.200   115855846.993 7      2282.891          45.187    22046642.780    90277323.056 7      1778.876          45.750    22046642.780    90277322.062 7      1778.876          47.312
R23  20201636.920   108065143.140 7      2377.124          44.625    20201637.240   108065143.166 7      2377.124          44.687
G16  20663669.460   108588316.567 7       970.681          46.625    20663667.600   108588316.577 6       970.681          39.312    20663672.660    84614283.775 6       756.375          39.125
R12  19334937.920   103283771.273 8       813.377          49.125    19334937.220   103283771.268 8       813.377          49.250    19334947.600    80331858.035 8       632.627          50.875    19334947.820    80331859.035 8       632.627          51.375
R22  21011038.500   112158347.679 7       -58.648          43.937    21011036.960   112158347.671 7       -58.648          46.187    21011046.020    87234303.649 8       -45.615          49.062    21011046.000    87234303.648 8       -45.615          49.250
R11  23044947.380   123145216.403 6     -1984.486          40.000    23044946.200   123145216.391 6     -1984.486          39.375    23044967.820    95779695.547 7     -1543.489          47.000    23044967.960    95779693.547 7     -1543.489          46.312
G23  23593270.320   123983472.687 6       398.160          41.437    23593269.040   123983472.698 5       398.160          30.750    23593278.640    96610512.544 5       310.255          30.812    23593278.960    96610533.543 7       310.255          45.687
G26  22739573.300   119497258.753 7      -672.087          43.437    22739572.220   119497258.756 6      -672.087          41.937    22739586.120    93114797.275 6      -523.704          41.437    22739586.360    93114804.263 7      -523.704          46.062
G02  22459559.140   118025781.408 7      4406.820          45.125    22459557.460   118025781.413 5      4406.820          34.562    22459563.640    91968159.892 5      3433.886          34.750
G07  24085230.820   126568754.582 7      3627.877          43.625    24085229.280   126568754.582 4      3627.877          26.625    24085236.260    98624984.429 4      2826.917          26.250    24085237.660    98625036.424 6      2826.917          38.250
G08  21205510.900   111435713.451 7      3393.158          46.062    21205509.980   111435713.451 6      3393.158          37.625    21205517.100    86833049.522 6      2644.019          37.375    21205517.760    86833053.525 8      2644.019          50.000
> 2024 05 10 12 20  8.0000000  0 13
G27  20874260.680   109694982.311 8      1806.930          48.500    20874259.720   109694982.321 8      1806.930          48.812    20874266.000    85476631.940 8      1407.997          49.187    20874266.500    85476642.937 8      1407.997          49.687
G21  20902000.920   109840758.521 8      3717.271          48.687    20901999.680   109840758.524 6      3717.271          37.375    20902004.160    85590215.016 6      2896.575          37.812
G10  22046200.880   115853564.227 7      2282.680          47.562    22046199.880   115853564.232 7      2282.680          45.500    22046208.400    90275544.286 7      1778.712          45.750    22046208.640    90275543.291 7      1778.712          46.937
R23  20201192.280   108062765.913 7      2377.266          44.625    20201192.820   108062765.928 7      2377.266          44.500
G16  20663484.720   108587345.975 7       970.595          46.875    20663482.860   108587345.982 6       970.595          39.687    20663487.980    84613527.464 6       756.308          39.250
R12  19334785.440   103282958.069 8       813.108          49.437    19334784.940   103282958.067 8       813.108          49.000    19334795.200    80331225.539 8       632.418          51.437    19334795.460    80331226.539 8       632.418          51.375
R22  21011049.720   112158406.128 7       -58.272          45.937    21011047.860   112158406.113 7       -58.272          46.562    21011057.020    87234349.101 8       -45.323          48.812    21011056.980    87234349.104 8       -45.323          49.187
R11  23045318.860   123147200.847 6     -1984.312          40.500    23045318.020   123147200.851 6     -1984.312          39.375    23045339.220    95781239.001 7     -1543.354          46.812    23045339.120    95781237.005 7     -1543.354          46.687
G23  23593194.540   123983074.471 6       398.123          41.562    23593193.240   123983074.482 5       398.123          30.750    23593202.820    96610202.244 5       310.226          30.812    23593203.100    96610223.236 7       310.226          45.562
G26  22739701.200   119497930.725 7      -671.806          43.812    22739700.080   119497930.730 6      -671.806          41.687    22739714.040    93115320.877 6      -523.485          41.250    22739714.800    93115327.869 7      -523.485          45.937
G02  22458720.560   118021374.488 7      4406.953          45.375    22458718.800   118021374.490 5      4406.953          34.937    22458724.980    91964725.930 5      3433.990          34.750
G07  24084540.620   126565126.661 7      3627.907          43.250    24084538.920   126565126.663 4      3627.907          26.625    24084546.020    98622157.474 4      2826.940          26.562    24084547.420    98622209.466 6      2826.940          38.250
G08  21204865.060   111432320.130 7      3393.596          46.375    21204864.200   111432320.124 6      3393.596          37.687    21204871.440    86830405.373 6      2644.361          37.812    21204871.920    86830409.372 8      2644.361          50.000
> 2024 05 10 12 20  9.0000000  0 13
G27  20873916.900   109693175.695 7      1806.498          47.375    20873916.000   109693175.700 8      1806.498          48.437    20873922.220    85475224.184 8      1407.661          48.562    20873922.960    85475235.181 8      1407.661          49.937
G21  20901293.680   109837041.748 8      3716.489          48.750    20901292.460   109837041.747 6      3716.489          37.687    20901296.900    85587318.826 6      2895.965          37.625
G10  22045766.580   115851282.033 7      2281.773          47.125    22045765.640   115851282.038 7      2281.773          45.562    22045774.220    90273765.951 7      1778.005          45.687    22045774.600    90273764.960 7      1778.005          46.875
R23  20200748.280   108060389.029 7      2376.598          44.312    20200748.280   108060389.044 7      2376.598          44.500
G16  20663300.120   108586375.830 7       969.879          45.625    20663298.220   108586375.835 6       969.879          39.500    20663303.360    84612771.504 6       755.750          39.187
R12  19334633.660   103282145.714 8       811.841          48.875    19334632.880   103282145.710 8       811.841          49.500    19334643.200    80330593.703 8       631.432          51.312    19334643.420    80330594.705 8       631.432          51.500
R22  21011060.480   112158464.598 7       -58.583          46.000    21011058.860   112158464.594 7       -58.583          46.250    21011068.100    87234394.585 8       -45.565          48.812    21011068.260    87234394.583 8       -45.565          48.500
R11  23045690.280   123149185.429 6     -1984.758          40.500    23045689.360   123149185.433 6     -1984.758          39.625    23045710.680    95782782.559 7     -1543.701          46.875    23045710.780    95782780.560 7     -1543.701          46.875
G23  23593119.220   123982676.723 6       397.358          41.437    23593117.660   123982676.728 5       397.358          30.625    23593127.260    96609892.302 5       309.630          30.437    23593127.740    96609913.290 7       309.630          45.750
G26  22739829.240   119498602.960 7      -672.372          43.000    22739827.880   119498602.959 6      -672.372          41.750    22739842.020    93115844.678 6      -523.926          41.812    22739842.460    93115851.672 7      -523.926          46.000
G02  22457882.080   118016967.909 7      4406.329          45.250    22457880.300   118016967.909 5      4406.329          34.937    22457886.300    91961292.239 5      3433.503          34.687
G07  24083850.220   126561499.220 7      3627.127          42.750    24083848.700   126561499.225 4      3627.127          26.625    24083855.820    98619330.894 4      2826.333          26.562    24083857.180    98619382.889 6      2826.333          38.250
G08  21204219.460   111428926.914 7      3393.111          46.562    21204218.580   111428926.909 6      3393.111          38.062    21204225.660    86827761.309 6      2643.983          38.062    21204226.520    86827765.312 8      2643.983          50.062
> 2024 05 10 12 20 10.0000000  0 13
G27  20873573.300   109691369.498 7      1806.166          47.750    20873572.240   109691369.508 8      1806.166          48.875    20873578.560    85473816.763 8      1407.402          49.312    20873579.360    85473827.762 8      1407.402          49.812
G21  20900586.540   109833325.736 7      3715.831          47.875    20900585.340   109833325.738 6      3715.831          37.375    20900589.840    85584423.237 6      2895.453          37.625
G10  22045332.500   115849000.680 8      2281.090          48.125    22045331.640   115849000.683 7      2281.090          45.812    22045340.100    90271988.277 7      1777.472          46.062    22045340.420    90271987.285 7      1777.472          47.187
R23  20200303.820   108058012.794 7      2376.038          44.375    20200304.380   108058012.806 7      2376.038          44.375
G16  20663115.720   108585406.452 7       969.211          46.750    20663113.780   108585406.459 6       969.211          39.437    20663118.760    84612016.145 6       755.230          39.125
R12  19334481.460   103281334.436 8       810.955          48.437    19334480.940   103281334.434 8       810.955          49.562    19334491.400    80329962.711 8       630.743          50.812    19334491.760    80329963.713 8       630.743          51.312
R22  21011071.740   112158523.442 7       -58.769          44.875    21011070.060   112158523.435 7       -58.769          46.250    21011079.080    87234440.342 8       -45.709          49.250    21011078.980    87234440.341 8       -45.709          48.500
R11  23046061.360   123151170.412 6     -1984.970          40.500    23046060.460   123151170.413 6     -1984.970          39.625    23046082.280    95784326.434 7     -1543.865          47.125    23046082.280    95784324.438 7     -1543.865          46.875
G23  23593043.520   123982279.752 7       396.596          42.125    23593042.060   123982279.757 5       396.596          30.625    23593051.620    96609582.976 5       309.036          30.437    23593052.120    96609603.969 7       309.036          45.687
G26  22739957.020   119499275.725 7      -672.930          43.375    22739955.960   119499275.730 7      -672.930          42.062    22739969.940    93116368.900 6      -524.361          41.500    22739970.460    93116375.895 7      -524.361          45.812
G02  22457043.640   118012561.990 7      4405.772          44.812    22457041.840   118012561.993 5      4405.772          34.562    22457048.040    91957859.058 5      3433.069          34.687
G07  24083160.360   126557872.555 7      3626.498          43.125    24083158.600   126557872.554 4      3626.498          26.625    24083165.660    98616504.919 4      2825.843          26.562    24083166.960    98616556.922 6      2825.843          38.812
G08  21203573.880   111425534.093 7      3392.744          47.062    21203572.860   111425534.090 6      3392.744          38.625    21203580.000    86825117.554 6      2643.697          38.125    21203580.540    86825121.557 8      2643.697          49.500
> 2024 05 10 12 20 11.0000000  0 13
G27  20873229.720   109689563.374 8      1805.904          48.500    20873228.600   109689563.384 8      1805.904          49.062    20873234.840    85472409.388 8      1407.198          48.875    20873235.520    85472420.389 8      1407.198          49.312
G21  20899879.420   109829610.134 8      3715.226          48.937    20899878.220   109829610.137 6      3715.226          37.625    20899882.780    85581527.967 6      2894.982          37.625
G10  22044898.540   115846719.822 8      2280.471          48.187    22044897.560   115846719.824 7      2280.471          45.562    22044906.120    90270210.987 7      1776.990          45.500    22044906.420    90270209.994 7      1776.990          46.875
R23  20199859.720   108055636.827 7      2375.563          45.812    20199860.280   108055636.847 7      2375.563          44.750
G16  20662931.280   108584437.476 7       968.624          46.187    20662929.420   108584437.483 6       968.624          39.687    20662934.540    84611261.097 6       754.772          39.500
R12  19334330.000   103280523.903 8       809.987          48.500    19334329.280   103280523.904 8       809.987          49.375    19334339.740    80329332.292 8       629.990          51.250    19334339.740    80329333.292 8       629.990          51.437
R22  21011082.580   112158582.233 7       -58.853          46.500    21011081.260   112158582.226 7       -58.853          45.687    21011090.120    87234486.064 8       -45.775          49.125    21011090.160    87234486.065 8       -45.775          48.500
R11  23046432.940   123153155.446 6     -1985.167          40.937    23046432.060   123153155.455 6     -1985.167          40.250    23046453.760    95785870.354 7     -1544.018          47.062    23046453.460    95785868.355 7     -1544.018          47.562
G23  23592967.680   123981883.152 6       396.307          41.500    23592966.580   123981883.157 5       396.307          30.625    23592976.240    96609273.937 5       308.810          30.437    23592976.320    96609294.925 7       308.810          46.000
G26  22740085.260   119499948.640 7      -673.269          43.937    22740084.080   119499948.648 6      -673.269          41.875    22740098.120    93116893.240 6      -524.625          41.375    22740098.580    93116900.236 7      -524.625          46.375
G02  22456205.540   118008156.353 7      4405.263          44.625    22456203.400   118008156.363 5      4405.263          34.500    22456209.560    91954426.103 5      3432.672          34.437
G07  24082470.180   126554246.302 7      3625.930          43.062    24082468.600   126554246.304 4      3625.930          26.500    24082475.780    98613679.268 4      2825.400          26.562    24082476.100    98613731.264 6      2825.400          38.812
G08  21202928.320   111422141.247 7      3392.748          46.687    21202927.180   111422141.247 6      3392.748          38.062    21202934.400    86822473.781 6      2643.700          37.625    21202935.080    86822477.786 8      2643.700          49.562
> 2024 05 10 12 20 12.0000000  0 13
G27  20872886.060   109687757.386 8      1805.999          48.312    20872885.020   109687757.391 8      1805.999          48.937    20872891.180    85471002.123 8      1407.272          49.125    20872891.800    85471013.120 8      1407.272          49.625
G21  20899172.580   109825895.016 8      3714.978          48.125    20899171.160   109825895.021 6      3714.978          37.625    20899175.680    85578633.072 6      2894.788          37.625
G10  22044464.560   115844439.549 7      2280.031          47.687    22044463.700   115844439.554 7      2280.031          45.875    22044472.120    90268434.153 7      1776.647          45.875    22044472.280    90268433.164 7      1776.647          46.812
R23  20199415.720   108053261.202 7      2375.527          45.250    20199416.100   108053261.217 7      2375.527          44.625
G16  20662747.080   108583468.973 7       968.379          46.687    20662745.180   108583468.978 6       968.379          39.687    20662750.260    84610506.415 6       754.581          39.375
R12  19334178.440   103279714.160 8       809.427          48.750    19334177.740   103279714.161 8       809.427          49.312    19334188.080    80328702.490 8       629.554          51.250    19334188.120    80328703.492 8       629.554          51.375
R22  21011093.520   112158641.107 7       -58.743          46.062    21011092.300   112158641.086 7       -58.743          46.375    21011101.180    87234531.840 8       -45.689          48.750    21011101.220    87234531.839 8       -45.689          48.250
R11  23046804.260   123155140.680 6     -1985.223          40.937    23046803.360   123155140.684 6     -1985.223          40.250    23046825.260    95787414.410 7     -1544.063          47.000    23046825.180    95787412.414 7     -1544.063          47.437
G23  23592892.540   123981487.072 6       395.989          41.125    23592891.140   123981487.080 5       395.989          30.500    23592900.720    96608965.297 5       308.563          30.500    23592901.100    96608986.292 7       308.563          45.437
G26  22740213.620   119500621.787 7      -673.037          43.375    22740212.240   119500621.789 6      -673.037          41.500    22740226.260    93117417.751 6      -524.444          41.312    22740226.700    93117424.747 7      -524.444          46.000
G02  22455367.020   118003751.070 7      4405.156          44.937    22455365.120   118003751.077 5      4405.156          34.500    22455371.160    91950993.417 5      3432.589          34.250
G07  24081780.460   126550620.530 7      3625.600          43.187    24081778.640   126550620.535 4      3625.600          26.500    24081785.800    98610853.988 4      2825.143          26.562    24081786.540    98610906.014 6      2825.143          38.812
G08  21202282.680   111418748.546 7      3392.823          47.062    21202281.600   111418748.549 6      3392.823          37.812    21202288.840    86819830.118 6      2643.758          37.750    21202289.580    86819834.123 8      2643.758          49.187
> 2024 05 10 12 20 13.0000000  0 13
G27  20872542.420   109685951.433 7      1805.835          47.937    20872541.340   109685951.435 8      1805.835          49.125    20872547.500    85469594.884 8      1407.144          49.187    20872548.220    85469605.885 8      1407.144          50.125
G21  20898465.580   109822180.284 7      3714.431          47.250    20898464.200   109822180.289 6      3714.431          37.500    20898468.800    85575738.479 6      2894.362          38.125
G10  22044030.780   115842159.728 7      2279.502          47.062    22044029.900   115842159.730 7      2279.502          45.312    22044038.280    90266657.669 7      1776.236          45.562    22044038.140    90266656.678 7      1776.236          46.500
R23  20198971.880   108050885.802 7      2375.353          45.250    20198972.000   108050885.817 7      2375.353          44.875
G16  20662562.820   108582500.838 7       967.829          46.062    20662560.760   108582500.848 6       967.829          39.625    20662566.080    84609752.024 6       754.152          39.437
R12  19334026.940   103278905.128 8       808.601          49.187    19334026.380   103278905.132 8       808.601          49.250    19334036.540    80328073.239 8       628.912          51.375    19334036.640    80328074.243 8       628.912          51.812
R22  21011104.520   112158699.892 7       -58.838          46.000    21011103.140   112158699.882 7       -58.838          46.812    21011112.300    87234577.568 8       -45.763          49.187    21011112.000    87234577.563 8       -45.763          48.687
R11  23047175.420   123157125.906 6     -1985.301          40.687    23047175.420   123157125.915 6     -1985.301          40.250    23047196.660    95788958.475 7     -1544.123          46.750    23047196.640    95788956.478 7     -1544.123          46.750
G23  23592817.460   123981091.400 6       395.257          41.750    23592815.840   123981091.405 5       395.257          30.500    23592825.440    96608656.979 5       307.993          30.500    23592826.100    96608677.967 7       307.993          45.812
G26  22740341.760   119501295.104 7      -673.450          43.625    22740340.460   119501295.106 7      -673.450          42.000    22740354.180    93117942.403 6      -524.767          41.500    22740354.820    93117949.398 7      -524.767          45.875
G02  22454528.800   117999346.039 7      4404.785          44.500    22454526.800   117999346.041 5      4404.785          34.562    22454532.980    91947560.928 5      3432.300          34.250
G07  24081090.400   126546995.138 7      3625.201          43.812    24081088.640   126546995.141 4      3625.201          26.500    24081095.980    98608029.006 4      2824.832          26.562    24081096.820    98608081.013 6      2824.832          38.750
G08  21201637.080   111415355.838 7      3392.601          47.937    21201635.900   111415355.843 6      3392.601          37.750    21201643.220    86817186.451 6      2643.585          37.625    21201643.920    86817190.451 8      2643.585          49.750
> 2024 05 10 12 20 14.0000000  0 13
G27  20872198.840   109684145.479 8      1805.972          48.250    20872197.640   109684145.484 8      1805.972          48.562    20872203.780    85468187.652 8      1407.251          49.125    20872204.440    85468198.651 8      1407.251          49.812
G21  20897758.560   109818465.899 7      3714.253          47.875    20897757.360   109818465.901 6      3714.253          37.562    20897761.920    85572844.153 6      2894.223          37.812
G10  22043597.040   115839880.356 7      2279.184          47.375    22043596.260   115839880.358 7      2279.184          45.937    22043604.500    90264881.537 7      1775.987          45.937    22043604.220    90264880.547 7      1775.987          47.250
R23  20198527.860   108048510.640 7      2375.097          45.437    20198527.540   108048510.655 7      2375.097          44.937
G16  20662378.800   108581533.036 7       967.689          45.937    20662376.700   108581533.044 6       967.689          39.375    20662381.780    84608997.891 6       754.043          38.750
R12  19333875.420   103278096.742 8       808.146          49.312    19333875.140   103278096.741 8       808.146          49.250    19333885.260    80327444.490 8       628.558          50.562    19333885.520    80327445.492 8       628.558          51.062
R22  21011115.680   112158758.611 7       -58.661          44.500    21011114.240   112158758.596 7       -58.661          46.312    21011123.120    87234623.232 8       -45.625          48.687    21011123.020    87234623.227 8       -45.625          48.937
R11  23047546.900   123159111.129 6     -1985.038          40.687    23047546.560   123159111.146 6     -1985.038          39.937    23047568.160    95790502.542 7     -1543.919          46.562    23047568.240    95790500.543 7     -1543.919          46.437
G23  23592742.240   123980696.029 6       395.178          41.500    23592740.720   123980696.037 5       395.178          30.500    23592750.220    96608348.896 5       307.931          30.500    23592750.800    96608369.886 7       307.931          46.000
G26  22740469.660   119501968.518 7      -673.413          43.875    22740468.500   119501968.521 7      -673.413          42.000    22740482.340    93118467.128 6      -524.737          41.562    22740482.780    93118474.128 7      -524.737          46.062
G02  22453690.520   117994941.244 7      4404.561          44.375    22453688.420   117994941.241 5      4404.561          34.562    22453694.800    91944128.622 5      3432.125          34.375
G07  24080400.560   126543370.128 7      3624.782          42.562    24080399.000   126543370.131 4      3624.782          26.500    24080406.340    98605204.323 4      2824.506          26.937    24080407.660    98605256.332 6      2824.506          38.750
G08  21200991.340   111411963.092 7      3392.785          46.812    21200990.380   111411963.094 6      3392.785          37.812    21200997.600    86814542.753 6      2643.728          37.812    21200998.420    86814546.754 8      2643.728          49.875
> 2024 05 10 12 20 15.0000000  0 13
G27  20871855.040   109682339.673 8      1805.806          48.812    20871854.080   109682339.683 8      1805.806          48.437    20871860.140    85466780.530 8      1407.121          48.437    20871860.980    85466791.529 8      1407.121          50.062
G21  20897051.660   109814752.016 7      3713.665          47.562    20897050.580   109814752.015 6      3713.665          37.187    20897055.200    85569950.218 6      2893.765          37.812
G10  22043163.400   115837601.557 7      2278.612          47.187    22043162.680   115837601.562 7      2278.612          45.625    22043170.960    90263105.850 7      1775.542          45.812    22043170.720    90263104.857 7      1775.542          47.000
R23  20198084.160   108046135.820 7      2374.648          44.375    20198083.480   108046135.835 7      2374.648          44.125
G16  20662194.540   108580565.731 7       967.113          45.937    20662192.520   108580565.739 6       967.113          39.500    20662197.720    84608244.147 6       753.595          39.500
R12  19333724.360   103277289.174 8       807.231          48.937    19333724.060   103277289.167 8       807.231          49.750    19333734.180    80326816.373 8       627.847          50.812    19333734.240    80326817.373 8       627.847          50.625
R22  21011126.560   112158817.383 7       -58.866          45.875    21011125.380   112158817.379 7       -58.866          46.375    21011134.060    87234668.950 8       -45.784          48.875    21011134.360    87234668.947 8       -45.784          48.687
R11  23047918.500   123161096.537 6     -1985.396          40.625    23047917.680   123161096.538 6     -1985.396          39.937    23047939.660    95792046.725 7     -1544.197          46.500    23047939.580    95792044.728 7     -1544.197          46.687
G23  23592667.160   123980301.161 6       394.737          41.250    23592665.740   123980301.163 5       394.737          30.750    23592675.140    96608041.206 5       307.587          30.500    23592675.740    96608062.192 7       307.587          45.562
G26  22740598.000   119502642.211 7      -673.876          43.812    22740596.840   119502642.219 6      -673.876          41.437    22740610.540    93118992.077 6      -525.098          41.000    22740611.260    93118999.073 7      -525.098          45.937
G02  22452852.580   117990536.810 7      4404.146          45.125    22452850.340   117990536.812 5      4404.146          34.625    22452856.800    91940696.600 5      3431.802          34.375
G07  24079710.940   126539745.586 7      3624.266          43.500    24079709.280   126539745.588 4      3624.266          26.500    24079716.700    98602380.004 4      2824.103          26.937    24079717.940    98602432.013 6      2824.103          38.750
G08  21200345.900   111408570.449 7      3392.664          47.125    21200344.840   111408570.449 6      3392.664          37.500    21200352.040    86811899.135 6      2643.634          37.375    21200352.880    86811903.134 8      2643.634          49.375
> 2024 05 10 12 20 16.0000000  0 13
G27  20871511.520   109680534.085 8      1805.631          48.500    20871510.540   109680534.090 8      1805.631          49.125    20871516.580    85465373.574 8      1406.985          49.375    20871517.480    85465384.571 8      1406.985          50.000
G21  20896345.200   109811038.681 7      3713.107          47.812    20896344.000   109811038.684 6      3713.107          37.250    20896348.660    85567056.713 6      2893.330          37.687
G10  22042729.920   115835323.418 7      2277.900          47.937    22042729.200   115835323.420 7      2277.900          45.750    22042737.400    90261330.674 7      1774.987          45.937    22042737.720    90261329.682 7      1774.987          46.812
R23  20197640.440   108043761.393 7      2374.267          44.750    20197639.940   108043761.400 7      2374.267          44.562
G16  20662010.560   108579598.970 7       966.534          46.875    20662008.540   108579598.978 6       966.534          39.500    20662013.880    84607490.816 6       753.144          39.250
R12  19333573.320   103276482.482 8       806.319          49.000    19333573.100   103276482.475 8       806.319          49.062    19333583.100    80326188.942 8       627.137          51.562    19333583.320    80326189.944 8       627.137          51.437
R22  21011137.560   112158876.262 7       -58.927          45.375    21011136.240   112158876.258 7       -58.927          45.937    21011145.220    87234714.738 8       -45.832          48.562    21011145.040    87234714.731 8       -45.832          48.625
R11  23048290.300   123163082.135 6     -1985.839          40.625    23048289.040   123163082.136 6     -1985.839          39.750    23048311.240    95793591.068 7     -1544.542          46.875    23048311.400    95793589.074 7     -1544.542          46.375
G23  23592592.160   123979906.857 7       394.102          42.687    23592590.600   123979906.857 5       394.102          30.750    23592600.060    96607733.950 5       307.093          30.625    23592600.220    96607754.941 7       307.093          45.812
G26  22740726.180   119503316.175 7      -673.976          43.500    22740725.020   119503316.174 6      -673.976          41.687    22740738.900    93119517.223 6      -525.176          41.250    22740739.240    93119524.219 7      -525.176          45.937
G02  22452014.320   117986132.772 7      4403.931          44.500    22452012.140   117986132.774 5      4403.931          34.312    22452018.720    91937264.886 5      3431.634          34.250
G07  24079021.340   126536121.577 7      3623.877          43.500    24079019.820   126536121.582 4      3623.877          27.000    24079027.220    98599556.103 4      2823.800          26.937    24079028.460    98599608.124 6      2823.800          39.125
G08  21199700.280   111405177.985 7      3392.400          47.062    21199699.220   111405177.985 6      3392.400          37.687    21199706.460    86809255.652 6      2643.429          37.500    21199707.460    86809259.655 8      2643.429          49.375
> 2024 05 10 12 20 17.0000000  0 13
G27  20871167.960   109678728.657 8      1805.411          48.312    20871166.920   109678728.662 8      1805.411          48.625    20871173.020    85463966.745 8      1406.813          48.750    20871173.960    85463977.748 8      1406.813          50.125
G21  20895638.700   109807325.844 7      3712.606          47.562    20895637.460   109807325.846 6      3712.606          37.312    20895642.080    85564163.597 6      2892.940          37.562
G10  22042296.460   115833045.844 8      2277.353          48.187    22042295.860   115833045.846 7      2277.353          45.312    22042303.780    90259555.945 7      1774.560          46.062    22042304.220    90259554.950 7      1774.560          47.062
R23  20197196.460   108041387.309 7      2373.921          45.125    20197195.720   108041387.327 7      2373.921          44.812
G16  20661826.660   108578632.672 7       966.099          46.000    20661824.780   108578632.679 6       966.099          39.687    20661830.080    84606737.858 6       752.805          39.500
R12  19333422.420   103275676.615 8       805.571          49.500    19333422.280   103275676.613 8       805.571          49.500    19333432.300    80325562.154 8       626.555          51.500    19333432.520    80325563.158 8       626.555          51.750
R22  21011148.720   112158935.218 7       -59.020          45.187    21011147.040   112158935.214 7       -59.020          46.625    21011156.260    87234760.585 8       -45.904          48.312    21011156.100    87234760.582 8       -45.904          48.875
R11  23048661.800   123165067.812 6     -1985.708          40.625    23048661.100   123165067.808 6     -1985.708          39.750    23048683.000    95795135.484 7     -1544.439          46.937    23048682.960    95795133.488 7     -1544.439          46.812
G23  23592517.320   123979513.031 7       393.640          42.312    23592515.680   123979513.039 5       393.640          30.750    23592525.140    96607427.073 5       306.733          30.625    23592525.280    96607448.064 7       306.733          45.937
G26  22740854.560   119503990.412 7      -674.312          43.562    22740853.420   119503990.417 6      -674.312          41.875    22740867.060    93120042.594 6      -525.438          41.750    22740867.760    93120049.590 7      -525.438          46.187
G02  22451176.420   117981729.131 7      4403.609          43.562    22451174.200   117981729.134 5      4403.609          34.312    22451180.600    91933833.480 5      3431.383          34.250
G07  24078331.700   126532498.083 7      3623.390          44.125    24078330.420   126532498.082 4      3623.390          27.000    24078337.660    98596732.603 4      2823.421          26.937    24078338.700    98596784.608 6      2823.421          39.125
G08  21199054.700   111401785.618 7      3392.249          47.250    21199053.560   111401785.617 6      3392.249          37.437    21199060.960    86806612.251 6      2643.311          37.187    21199061.880    86806616.256 8      2643.311          49.625
> 2024 05 10 12 20 18.0000000  0 13
G27  20870824.380   109676923.366 7      1805.123          47.687    20870823.500   109676923.371 8      1805.123          48.875    20870829.540    85462560.025 8      1406.589          48.875    20870830.440    85462571.026 8      1406.589          49.687
G21  20894932.380   109803613.495 7      3711.972          47.437    20894931.040   109803613.503 6      3711.972          37.312    20894935.500    85561270.860 6      2892.445          37.562
G10  22041863.400   115830768.860 8      2276.604          48.062    22041862.500   115830768.863 7      2276.604          45.500    22041870.560    90257781.673 7      1773.977          45.562    22041870.520    90257780.680 7      1773.977          46.937
R23  20196752.760   108039013.581 7      2373.445          45.625    20196751.840   108039013.593 7      2373.445          44.625
G16  20661642.660   108577666.883 7       965.416          46.312    20661640.700   108577666.888 6       965.416          39.812    20661646.320    84605985.289 6       752.273          39.187
R12  19333271.860   103274871.591 8       804.464          49.000    19333271.720   103274871.590 8       804.464          49.750    19333281.580    80324936.023 8       625.694          51.562    19333281.680    80324937.025 8       625.694          51.937
R22  21011159.740   112158994.217 7       -59.167          45.687    21011158.160   112158994.218 7       -59.167          45.750    21011167.240    87234806.475 8       -46.019          48.687    21011167.140    87234806.470 8       -46.019          48.500
R11  23049033.940   123167053.674 6     -1986.095          40.062    23049032.640   123167053.689 6     -1986.095          39.750    23049054.480    95796680.048 7     -1544.740          46.687    23049054.500    95796678.055 7     -1544.740          47.250
G23  23592442.600   123979119.726 7       392.899          42.500    23592440.800   123979119.731 5       392.899          30.625    23592450.080    96607120.602 5       306.155          30.625    23592450.520    96607141.596 7       306.155          46.000
G26  22740982.760   119504664.919 7      -674.706          43.375    22740981.760   119504664.919 6      -674.706          41.562    22740995.520    93120568.164 6      -525.745          41.437    22740995.980    93120575.162 7      -525.745          46.312
G02  22450338.660   117977325.892 7      4402.871          43.125    22450336.200   117977325.895 5      4402.871          34.375    22450342.700    91930402.388 5      3430.809          34.187
G07  24077642.200   126528875.101 7      3622.697          43.312    24077640.980   126528875.098 4      3622.697          27.000    24077648.320    98593909.492 4      2822.880          26.937    24077649.300    98593961.497 6      2822.880          39.125
G08  21198409.300   111398393.374 7      3392.013          46.312    21198408.020   111398393.374 6      3392.013          37.625    21198415.480    86803968.944 6      2643.127          37.562    21198416.180    86803972.941 8      2643.127          49.437
> 2024 05 10 12 20 19.0000000  0 13
G27  20870480.780   109675118.248 7      1805.055          47.812    20870479.860   109675118.255 8      1805.055          48.750    20870486.000    85461153.440 8      1406.536          49.500    20870486.880    85461164.443 8      1406.536          49.687
G21  20894225.880   109799901.666 7      3711.607          47.437    20894224.460   109799901.671 6      3711.607          37.500    20894229.080    85558378.526 6      2892.161          37.812
G10  22041430.180   115828492.474 7      2276.142          47.750    22041429.540   115828492.481 7      2276.142          46.000    22041437.440    90256007.869 7      1773.617          45.875    22041437.420    90256006.876 7      1773.617          46.750
R23  20196309.040   108036640.221 7      2373.259          45.250    20196308.020   108036640.228 7      2373.259          44.312
G16  20661459.100   108576701.575 7       965.108          46.500    20661457.120   108576701.577 6       965.108          39.500    20661462.480    84605233.097 6       752.032          39.062
R12  19333121.340   103274067.380 8       803.796          49.250    19333121.140   103274067.384 8       803.796          49.875    19333131.100    80324310.528 8       625.175          50.937    19333131.220    80324311.528 8       625.175          51.687
R22  21011170.740   112159053.315 7       -59.128          45.500    21011169.320   112159053.308 7       -59.128          46.562    21011178.260    87234852.434 8       -45.989          48.875    21011178.400    87234852.433 8       -45.989          49.125
R11  23049405.620   123169039.707 6     -1986.123          40.062    23049405.060   123169039.714 6     -1986.123          39.937    23049426.340    95798224.732 7     -1544.762          47.000    23049426.260    95798222.735 7     -1544.762          46.812
G23  23592368.100   123978726.920 7       392.557          42.500    23592366.160   123978726.925 5       392.557          30.625    23592375.340    96606814.515 5       305.889          30.375    23592375.860    96606835.514 7       305.889          45.562
G26  22741111.020   119505339.681 7      -674.823          43.312    22741110.100   119505339.681 6      -674.823          41.625    22741124.100    93121093.940 6      -525.836          41.687    22741124.680    93121100.943 7      -525.836          46.000
G02  22449500.760   117972923.016 7      4402.569          44.687    22449498.280   117972923.021 5      4402.569          34.375    22449504.840    91926971.586 5      3430.573          34.187
G07  24076953.160   126525252.618 7      3622.250          44.062    24076951.620   126525252.618 4      3622.250          27.000    24076959.160    98591086.779 4      2822.532          27.312    24076960.320    98591138.779 6      2822.532          38.937
G08  21197763.540   111395001.233 7      3392.202          46.625    21197762.460   111395001.227 6      3392.202          38.125    21197769.920    86801325.713 6      2643.275          37.500    21197770.740    86801329.712 8      2643.275          49.187
> 2024 05 10 12 20 20.0000000  0 13
G27  20870137.360   109673313.406 8      1804.780          48.562    20870136.500   109673313.414 8      1804.780          48.812    20870142.480    85459747.069 8      1406.322          49.125    20870143.240    85459758.068 8      1406.322          49.812
G21  20893519.820   109796190.468 8      3710.914          48.062    20893518.040   109796190.473 6      3710.914          37.625    20893523.020    85555486.687 6      2891.621          37.250
G10  22040997.220   115826216.812 7      2275.416          47.937    22040996.360   115826216.812 7      2275.416          45.750    22041004.400    90254234.624 7      1773.052          45.625    22041004.540    90254233.631 7      1773.052          46.937
R23  20195864.980   108034267.378 7      2372.660          45.125    20195864.620   108034267.388 7      2372.660          44.062
G16  20661275.540   108575736.890 7       964.464          46.000    20661273.600   108575736.897 6       964.464          39.437    20661278.900    84604481.392 6       751.530          38.937
R12  19332970.780   103273264.117 8       802.888          50.375    19332970.920   103273264.119 8       802.888          49.375    19332980.720    80323685.761 8       624.469          50.875    19332980.960    80323686.763 8       624.469          51.812
R22  21011181.840   112159112.592 7       -59.261          46.125    21011180.840   112159112.593 7       -59.261          45.937    21011189.360    87234898.536 8       -46.092          48.812    21011189.440    87234898.530 8       -46.092          48.375
R11  23049777.580   123171026.010 6     -1986.471          40.437    23049776.100   123171026.017 6     -1986.471          39.937    23049797.720    95799769.640 7     -1545.033          46.875    23049797.720    95799767.637 7     -1545.033          46.750
G23  23592293.120   123978334.753 7       391.882          42.875    23592291.500   123978334.760 5       391.882          30.625    23592300.880    96606508.930 5       305.362          30.375    23592301.300    96606529.929 7       305.362          45.812
G26  22741239.540   119506014.848 7      -675.368          43.437    22741238.700   119506014.853 6      -675.368          41.750    22741252.540    93121620.040 6      -526.261          41.250    22741253.100    93121627.041 7      -526.261          45.750
G02  22448663.100   117968520.621 7      4402.297          44.187    22448660.560   117968520.623 5      4402.297          34.000    22448666.940    91923541.150 5      3430.361          34.125
G07  24076264.020   126521630.756 7      3621.662          44.187    24076262.520   126521630.756 4      3621.662          27.000    24076269.980    98588264.548 4      2822.074          27.312    24076270.440    98588316.553 6      2822.074          38.937
G08  21197118.140   111391609.357 7      3391.909          46.687    21197116.960   111391609.357 6      3391.909          37.687    21197124.440    86798682.697 6      2643.046          37.062    21197125.180    86798686.698 8      2643.046          49.187
> 2024 05 10 12 20 21.0000000  0 13
G27  20869794.040   109671508.698 8      1804.783          48.375    20869793.140   109671508.703 8      1804.783          49.000    20869799.180    85458340.801 8      1406.325          49.062    20869799.760    85458351.804 8      1406.325          50.250
G21  20892813.720   109792479.751 7      3710.481          47.250    20892812.020   109792479.761 6      3710.481          37.250    20892816.920    85552595.221 6      2891.284          37.312
G10  22040564.060   115823941.715 7      2274.971          47.750    22040563.460   115823941.715 7      2274.971          45.750    22040571.460    90252461.821 7      1772.705          45.750    22040571.540    90252460.827 7      1772.705          47.000
R23  20195421.660   108031894.877 7      2372.388          44.625    20195420.860   108031894.887 7      2372.388          44.250
G16  20661091.940   108574772.680 7       964.027          46.812    20661090.100   108574772.687 6       964.027          39.062    20661095.380    84603730.060 6       751.190          38.875
R12  19332820.880   103272461.677 8       802.098          50.062    19332820.660   103272461.673 8       802.098          49.312    19332830.460    80323061.633 8       623.854          51.250    19332830.740    80323062.633 8       623.854          51.625
R22  21011193.060   112159171.938 7       -59.350          45.875    21011191.700   112159171.941 7       -59.350          45.812    21011200.600    87234944.696 7       -46.161          47.875    21011200.420    87234944.693 8       -46.161          49.062
R11  23050149.100   123173012.439 6     -1986.415          40.437    23050147.760   123173012.437 6     -1986.415          39.937    23050169.300    95801314.640 7     -1544.990          46.500    23050169.520    95801312.639 7     -1544.990          46.125
G23  23592218.560   123977943.066 7       391.375          42.562    23592217.000   123977943.068 5       391.375          30.437    23592226.180    96606203.718 5       304.967          30.375    23592226.740    96606224.714 7       304.967          45.562
G26  22741367.880   119506690.239 7      -675.434          43.312    22741367.140   119506690.241 6      -675.434          41.687    22741381.060    93122146.304 6      -526.312          41.125    22741381.580    93122153.305 7      -526.312          45.937
G02  22447825.080   117964118.625 7      4401.792          44.687    22447822.960   117964118.627 5      4401.792          34.000    22447829.200    91920111.027 5      3429.968          34.187
G07  24075574.660   126518009.401 7      3621.168          44.125    24075573.320   126518009.403 4      3621.168          27.500    24075580.880    98585442.707 4      2821.689          27.312    24075581.560    98585494.705 6      2821.689          38.937
G08  21196472.740   111388217.579 7      3391.858          46.625    21196471.720   111388217.576 6      3391.858          37.687    21196479.180    86796039.749 6      2643.007          37.937    21196479.600    86796043.754 8      2643.007          49.437
> 2024 05 10 12 20 22.0000000  0 13
G27  20869450.700   109669704.122 8      1804.481          48.687    20869449.720   109669704.126 8      1804.481          48.937    20869455.780    85456934.638 8      1406.089          49.312    20869456.380    85456945.643 8      1406.089          49.437
G21  20892107.600   109788769.465 7      3710.056          47.687    20892106.080   109788769.470 6      3710.056          36.937    20892110.920    85549704.089 6      2890.953          37.562
G10  22040131.180   115821667.157 7      2274.306          47.937    22040130.760   115821667.160 7      2274.306          45.437    22040138.620    90250689.441 7      1772.186          45.750    22040138.800    90250688.448 7      1772.186          47.000
R23  20194978.040   108029522.708 7      2371.898          43.562    20194977.320   108029522.720 7      2371.898          44.062
G16  20660908.740   108573808.906 7       963.556          45.750    20660906.760   108573808.914 6       963.556          39.125    20660912.040    84602979.064 6       750.823          38.875
R12  19332670.440   103271660.009 8       801.271          48.687    19332670.720   103271660.007 8       801.271          49.500    19332680.480    80322438.113 8       623.211          51.062    19332680.740    80322439.113 8       623.211          52.187
R22  21011204.100   112159231.273 7       -59.306          46.687    21011203.040   112159231.274 7       -59.306          46.625    21011211.660    87234990.839 8       -46.127          48.625    21011211.540    87234990.834 8       -46.127          49.062
R11  23050520.700   123174999.009 6     -1986.625          40.437    23050519.360   123174998.996 6     -1986.625          39.687    23050541.060    95802859.725 7     -1545.153          46.937    23050541.340    95802857.729 7     -1545.153          46.500
G23  23592144.260   123977551.797 7       391.031          43.312    23592142.560   123977551.799 5       391.031          30.437    23592151.700    96605898.831 5       304.699          30.375    23592152.060    96605919.825 7       304.699          45.625
G26  22741496.620   119507365.850 7      -675.776          43.687    22741495.860   119507365.855 6      -675.776          41.562    22741509.600    93122672.736 6      -526.579          41.437    22741509.980    93122679.730 7      -526.579          46.187
G02  22446987.540   117959716.920 7      4401.501          44.000    22446985.300   117959716.922 5      4401.501          34.062    22446991.420    91916681.132 5      3429.741          34.187
