     3.05           OBSERVATION DATA    MIXED               RINEX VERSION / TYPE
TPS2RIN 1.0.29.3920 TPS-USER            20240511 200041 UTC PGM / RUN BY / DATE
Win64 build Feb 23, 2024 (c) Topcon Positioning Systems     COMMENT
SRC: 20240510_MI07.tps                                      COMMENT
OPT: -S -v 3.05                                             COMMENT
Observer            Agency                                  OBSERVER / AGENCY
O0M3X53SBGM         TPS HIPER_SR        4.8 HSR Jul,08,2022 REC # / TYPE / VERS
FW: 4.8 HSR Jul,08,2022 p3                                  COMMENT
SN: HiPer SR 1212-12575                                     COMMENT
000                 TPSHIPER_SR     NONE                    ANT # / TYPE
        1.8000        0.0000        0.0000                  ANTENNA: DELTA H/E/N
MI07                                                        MARKER NAME
  5384233.9029 -1590347.4600  3018190.4927                  APPROX POSITION XYZ
  2024     5    10    12    51   33.0000000     GPS         TIME OF FIRST OBS
  2024     5    10    13     6   33.0000000     GPS         TIME OF LAST OBS
     1.000                                                  INTERVAL
   900 EPOCHS                                               COMMENT
G   16 C1C L1C D1C S1C C1W L1W D1W S1W C2W L2W D2W S2W C2X  SYS / # / OBS TYPES
       L2X D2X S2X                                          SYS / # / OBS TYPES
R   16 C1C L1C D1C S1C C1P L1P D1P S1P C2P L2P D2P S2P C2C  SYS / # / OBS TYPES
       L2C D2C S2C                                          SYS / # / OBS TYPES
    17                                                      # OF SATELLITES
   G02   900   900   900   900   900   900   900   900   900PRN / # OF OBS
         900   900   900     0     0     0     0            PRN / # OF OBS
   G07   900   900   900   900   900   900   900   900   900PRN / # OF OBS
         900   900   900   900   900   900   900            PRN / # OF OBS
   G08   900   900   900   900   900   900   900   900   900PRN / # OF OBS
         900   900   900   900   900   900   900            PRN / # OF OBS
   G10   900   900   900   900   900   900   900   900   900PRN / # OF OBS
         900   900   900   900   900   900   900            PRN / # OF OBS
   G16   900   900   900   900   900   900   900   900   900PRN / # OF OBS
         900   900   900     0     0     0     0            PRN / # OF OBS
   G21   900   900   900   900   900   900   900   900   900PRN / # OF OBS
         900   900   900     0     0     0     0            PRN / # OF OBS
   G26   508   508   508   508   508   508   508   508   508PRN / # OF OBS
         508   508   508   508   508   508   508            PRN / # OF OBS
   G27   900   900   900   900   900   900   900   900   900PRN / # OF OBS
         900   900   900   900   900   900   900            PRN / # OF OBS
   G30   105   105   105   105   105   105   105   105   105PRN / # OF OBS
         105   105   105   105   105   105   105            PRN / # OF OBS
   R07   900   900   900   900   900   900   900   900   900PRN / # OF OBS
         900   900   900   900   900   900   900            PRN / # OF OBS
   R08   675   675   675   675   670   670   670   670   670PRN / # OF OBS
         670   670   670   669   669   669   669            PRN / # OF OBS
   R12   900   900   900   900   900   900   900   900   900PRN / # OF OBS
         900   900   900   900   900   900   900            PRN / # OF OBS
   R13   780   780   780   780   774   774   774   774   774PRN / # OF OBS
         774   774   774   773   773   773   773            PRN / # OF OBS
   R14   900   900   900   900   900   900   900   900   900PRN / # OF OBS
         900   900   900   900   900   900   900            PRN / # OF OBS
   R22   900   900   900   900   900   900   900   900   900PRN / # OF OBS
         900   900   900   900   900   900   900            PRN / # OF OBS
   R23   900   900   900   900   900   900   900   900     0PRN / # OF OBS
           0     0     0     0     0     0     0            PRN / # OF OBS
   R24   900   900   900   900   900   900   900   900   900PRN / # OF OBS
         900   900   900   900   900   900   900            PRN / # OF OBS
G L1C                                                       SYS / PHASE SHIFT
G L1W -0.25000                                              SYS / PHASE SHIFT
G L2W  0.00000                                              SYS / PHASE SHIFT
G L2X  0.25000                                              SYS / PHASE SHIFT
R L1C                                                       SYS / PHASE SHIFT
R L1P -0.25000                                              SYS / PHASE SHIFT
R L2P -0.25000                                              SYS / PHASE SHIFT
R L2C                                                       SYS / PHASE SHIFT
  8 R07  5 R08  6 R12 -1 R13 -2 R14 -7 R22 -3 R23  3 R24  2 GLONASS SLOT / FRQ #
                                                            GLONASS COD/PHS/BIS
    18    18  1929     7GPS                                 LEAP SECONDS
                                                            END OF HEADER
> 2024 05 10 12 51 33.0000000  0 14
R07  22801549.280   122058480.182 6      3689.912          41.000    22801549.340   122058480.210 6      3689.912          39.875    22801568.440    94934448.986 7      2869.931          43.750    22801567.880    94934450.974 7      2869.931          43.937
R24  22577746.240   120733355.883 7      4215.761          43.250    22577743.960   120733355.895 7      4215.761          43.375    22577760.020    93903781.684 7      3278.925          44.750    22577760.020    93903779.684 7      3278.925          45.562
G16  21371480.300   112307881.535 7       111.244          46.312    21371479.120   112307881.540 6       111.244          38.875    21371485.340    87512661.157 6        86.684          38.875
G08  20926160.140   109967713.465 8      3169.331          49.250    20926159.020   109967713.470 8      3169.331          48.500    20926166.720    85689154.690 8      2469.608          48.562    20926167.420    85689158.691 8      2469.608          50.125
G26  23949439.480   125855160.699 6     -1023.894          37.687    23949439.280   125855160.714 5     -1023.894          35.375    23949460.160    98069035.495 5      -797.840          34.187    23949460.560    98069034.486 7      -797.840          44.625
R14  23557907.340   125576895.345 7      6280.574          46.500    23557906.860   125576895.346 7      6280.574          45.812    23557918.960    97670972.615 7      4884.891          42.187    23557920.080    97670974.614 7      4884.891          43.000
G10  22323267.920   117309566.489 7      1197.700          46.562    22323267.200   117309566.488 7      1197.700          45.312    22323276.040    91410082.969 7       933.273          45.312    22323276.160    91410084.974 7       933.273          47.312
G27  21177663.080   111289368.596 7      1512.947          47.937    21177661.880   111289368.598 8      1512.947          48.250    21177669.660    86719017.258 8      1178.920          48.312    21177669.960    86719019.258 8      1178.920          49.750
G07  23851559.100   125340788.489 7      2685.935          43.812    23851558.920   125340788.489 5      2685.935          30.125    23851566.300    97668155.953 5      2092.936          30.062    23851566.940    97668180.950 6      2092.936          41.625
R12  20198878.800   107898783.556 8      -556.679          48.562    20198878.300   107898783.541 8      -556.679          49.125    20198891.060    83921324.884 8      -432.972          50.500    20198891.060    83921326.889 8      -432.972          51.125
R22  21935971.540   117095698.773 7       -41.200          44.000    21935971.800   117095698.776 7       -41.200          44.812    21935982.040    91074482.794 7       -32.045          47.000    21935981.960    91074480.795 7       -32.045          46.937
G21  20628972.800   108405985.118 8      2835.215          48.750    20628970.920   108405985.123 6      2835.215          40.375    20628976.240    84472208.517 6      2209.259          40.812
R23  20364317.860   108935372.991 7      1850.778          44.250    20364316.960   108935372.998 7      1850.778          44.375
G02  21900580.560   115088311.334 7      3717.936          45.437    21900578.140   115088311.345 6      3717.936          37.750    21900583.420    89679227.242 6      2897.093          37.750
> 2024 05 10 12 51 34.0000000  0 14
R07  22800859.580   122054790.540 6      3689.327          41.000    22800860.060   122054790.587 6      3689.327          39.875    22800879.280    94931579.281 7      2869.477          43.500    22800878.820    94931581.276 7      2869.477          44.312
R24  22576958.020   120729140.189 7      4215.653          43.250    22576955.240   120729140.204 7      4215.653          43.375    22576971.640    93900502.814 7      3278.841          44.875    22576971.640    93900500.816 7      3278.841          45.000
G16  21371459.220   112307770.394 7       110.997          47.125    21371458.000   112307770.399 6       110.997          38.187    21371464.120    87512574.547 6        86.491          38.375
G08  20925557.160   109964544.082 8      3169.329          48.375    20925555.920   109964544.082 8      3169.329          48.500    20925563.620    85686685.037 8      2469.607          48.687    20925564.220    85686689.040 8      2469.607          50.750
G26  23949634.580   125856184.593 6     -1024.008          37.812    23949634.260   125856184.608 5     -1024.008          35.375    23949655.140    98069833.320 5      -797.928          34.812    23949655.160    98069832.317 7      -797.928          44.562
R14  23556729.180   125570614.820 7      6280.447          46.937    23556728.680   125570614.818 7      6280.447          45.875    23556740.620    97666087.762 7      4884.792          42.187    23556742.000    97666089.757 7      4884.792          43.000
G10  22323040.160   117308368.995 7      1197.236          46.500    22323039.340   117308369.000 7      1197.236          45.062    22323048.200    91409149.857 7       932.911          45.125    22323048.440    91409151.859 7       932.911          47.000
G27  21177375.240   111287855.650 8      1512.812          48.062    21177373.960   111287855.652 8      1512.812          48.375    21177381.740    86717838.339 8      1178.815          48.750    21177382.080    86717840.338 8      1178.815          49.812
G07  23851048.080   125338102.732 7      2685.478          44.125    23851047.840   125338102.732 5      2685.478          30.125    23851054.980    97666063.153 5      2092.580          30.187    23851056.060    97666088.154 7      2092.580          42.000
R12  20198983.320   107899340.497 8      -557.240          49.000    20198982.700   107899340.490 8      -557.240          48.625    20198995.340    83921758.056 8      -433.409          50.187    20198995.500    83921760.067 8      -433.409          50.937
R22  21935979.180   117095739.854 7       -40.975          44.250    21935979.180   117095739.853 7       -40.975          44.812    21935989.820    91074514.736 7       -31.869          46.937    21935989.640    91074512.735 7       -31.869          46.562
G21  20628433.320   108403150.074 8      2834.820          48.375    20628431.440   108403150.079 6      2834.820          40.687    20628436.660    84469999.394 6      2208.951          40.812
R23  20363972.020   108933522.226 7      1850.669          45.000    20363970.940   108933522.241 7      1850.669          44.375
G02  21899872.840   115084593.555 7      3717.556          46.250    21899870.760   115084593.567 6      3717.556          38.125    21899875.820    89676330.271 6      2896.797          37.875
> 2024 05 10 12 51 36.0000000  0 14
R07  22799481.240   122047413.083 6      3688.299          40.250    22799482.220   122047413.109 6      3688.299          39.625    22799500.780    94925841.261 7      2868.677          43.375    22799500.740    94925843.264 7      2868.677          44.125
R24  22575381.440   120720709.588 7      4215.310          43.750    22575378.540   120720709.602 7      4215.310          43.875    22575395.400    93893945.694 7      3278.575          45.250    22575394.700    93893943.685 7      3278.575          45.062
G16  21371417.460   112307549.388 7       110.335          47.000    21371415.980   112307549.390 6       110.335          37.937    21371422.240    87512402.325 6        85.976          37.625
G08  20924351.140   109958205.729 8      3169.297          48.687    20924349.760   109958205.729 8      3169.297          48.500    20924357.460    85681746.056 8      2469.582          48.625    20924358.380    85681750.061 8      2469.582          50.062
G26  23950023.980   125858232.690 6     -1023.898          38.000    23950024.100   125858232.708 5     -1023.898          35.500    23950044.820    98071429.217 5      -797.842          35.000    23950044.920    98071428.206 7      -797.842          44.625
R14  23554372.580   125558054.621 7      6280.032          46.375    23554372.680   125558054.621 7      6280.032          45.812    23554384.480    97656318.716 6      4884.470          41.875    23554385.460    97656320.707 7      4884.470          42.812
G10  22322584.740   117305975.686 7      1196.305          47.625    22322583.960   117305975.691 7      1196.305          45.125    22322592.660    91407284.937 7       932.185          44.937    22322592.860    91407286.946 7       932.185          47.250
G27  21176799.360   111284830.234 7      1512.802          47.437    21176798.300   111284830.236 8      1512.802          48.562    21176806.000    86715480.864 8      1178.807          48.937    21176806.360    86715482.862 8      1178.807          49.812
G07  23850026.640   125332732.680 7      2684.775          43.375    23850025.780   125332732.682 5      2684.775          30.125    23850033.160    97661878.695 5      2092.032          30.187    23850034.100    97661903.688 6      2092.032          41.750
R12  20199191.940   107900456.248 8      -558.202          48.937    20199190.960   107900456.249 8      -558.202          48.562    20199204.640    83922625.850 8      -434.157          50.250    20199204.520    83922627.863 8      -434.157          51.062
R22  21935994.700   117095821.804 7       -40.669          43.625    21935994.560   117095821.821 7       -40.669          44.937    21936004.960    91074578.460 7       -31.631          46.875    21936005.040    91074576.460 7       -31.631          46.562
G21  20627354.820   108397481.252 8      2834.275          48.625    20627352.720   108397481.254 6      2834.275          40.562    20627358.060    84465582.130 6      2208.526          40.062
R23  20363279.840   108929821.308 7      1850.526          44.750    20363279.360   108929821.315 7      1850.526          44.375
G02  21898458.040   115077159.027 7      3717.182          46.812    21898456.000   115077159.030 6      3717.182          37.875    21898460.980    89670537.132 6      2896.505          37.750
> 2024 05 10 12 51 37.0000000  0 14
R07  22798792.400   122043725.173 6      3687.564          40.250    22798793.400   122043725.196 6      3687.564          39.625    22798811.820    94922972.893 7      2868.105          43.375    22798811.780    94922974.892 7      2868.105          44.625
R24  22574593.400   120716494.560 7      4214.876          43.125    22574590.480   120716494.566 7      4214.876          43.062    22574607.240    93890667.336 7      3278.237          45.000    22574606.460    93890665.328 7      3278.237          45.062
G16  21371396.340   112307439.445 8       109.729          48.062    21371395.080   112307439.450 6       109.729          37.875    21371401.320    87512316.648 6        85.503          38.000
G08  20923747.920   109955036.698 8      3168.873          48.437    20923746.700   109955036.701 8      3168.873          48.437    20923754.380    85679276.684 8      2469.252          48.312    20923755.300    85679280.687 8      2469.252          49.937
G26  23950219.360   125859256.860 6     -1024.195          37.750    23950218.900   125859256.878 6     -1024.195          36.062    23950239.680    98072227.259 5      -798.074          35.625    23950240.220    98072226.246 7      -798.074          44.875
R14  23553194.600   125551774.901 7      6279.571          46.125    23553194.480   125551774.901 7      6279.571          46.187    23553206.320    97651434.487 7      4884.111          42.312    23553207.360    97651436.480 7      4884.111          42.750
G10  22322357.140   117304779.774 7      1195.601          46.937    22322356.440   117304779.776 7      1195.601          45.000    22322365.160    91406353.053 7       931.637          44.937    22322365.620    91406355.060 7       931.637          47.125
G27  21176511.460   111283317.725 7      1512.392          47.562    21176510.480   111283317.724 8      1512.392          48.812    21176518.100    86714302.283 8      1178.488          48.500    21176518.600    86714304.284 8      1178.488          50.125
G07  23849515.740   125330048.339 7      2684.102          43.812    23849514.980   125330048.342 5      2684.102          30.437    23849522.500    97659786.995 5      2091.508          30.562    23849523.600    97659811.988 6      2091.508          41.750
R12  20199296.600   107901015.003 8      -559.104          48.375    20199295.720   107901014.993 8      -559.104          48.250    20199309.460    83923060.422 8      -434.859          51.187    20199309.340    83923062.432 8      -434.859          51.187
R22  21936001.900   117095862.651 7       -40.924          43.875    21936002.220   117095862.666 7       -40.924          44.562    21936012.800    91074610.222 7       -31.830          46.812    21936012.740    91074608.221 7       -31.830          46.500
G21  20626815.380   108394647.435 7      2833.527          47.937    20626813.440   108394647.439 6      2833.527          40.937    20626818.860    84463373.961 6      2207.943          40.812
R23  20362933.920   108927971.073 7      1850.060          44.750    20362933.540   108927971.090 7      1850.060          44.562
G02  21897750.920   115073442.230 7      3716.545          46.375    21897748.860   115073442.238 6      3716.545          37.687    21897753.660    89667640.931 6      2896.009          37.625
> 2024 05 10 12 51 38.0000000  0 14
R07  22798103.880   122040037.986 6      3686.758          40.250    22798104.140   122040038.015 6      3686.758          39.625    22798122.900    94920105.090 7      2867.479          43.375    22798123.120    94920107.092 7      2867.479          44.062
R24  22573805.260   120712279.799 7      4214.544          43.625    22573801.760   120712279.800 7      4214.544          43.062    22573818.920    93887389.191 7      3277.979          44.812    22573818.160    93887387.183 7      3277.979          44.875
G16  21371375.560   112307330.001 7       109.161          47.437    21371374.180   112307330.011 6       109.161          38.312    21371380.460    87512231.365 6        85.060          38.250
G08  20923144.900   109951867.862 8      3168.624          48.437    20923143.660   109951867.864 8      3168.624          48.187    20923151.420    85676807.461 7      2469.058          47.687    20923152.380    85676811.466 8      2469.058          49.375
G26  23950414.000   125860281.232 6     -1024.352          38.062    23950413.840   125860281.244 6     -1024.352          36.062    23950434.660    98073025.455 5      -798.197          35.625    23950435.000    98073024.435 7      -798.197          44.937
R14  23552016.980   125545495.586 7      6279.057          46.562    23552016.440   125545495.583 7      6279.057          45.812    23552027.840    97646550.573 7      4883.711          42.312    23552029.160    97646552.564 7      4883.711          42.437
G10  22322129.800   117303584.511 7      1194.839          47.250    22322128.920   117303584.518 7      1194.839          44.500    22322137.720    91405421.686 7       931.043          44.500    22322138.160    91405423.692 7       931.043          46.375
G27  21176223.880   111281805.454 7      1512.033          47.437    21176222.720   111281805.459 8      1512.033          48.375    21176230.340    86713123.895 8      1178.207          48.062    21176230.980    86713125.893 8      1178.207          49.562
G07  23849005.300   125327364.551 7      2683.515          43.875    23849004.300   125327364.550 5      2683.515          30.437    23849011.760    97657695.723 5      2091.051          30.562    23849012.720    97657720.720 7      2091.051          42.000
R12  20199401.580   107901574.422 8      -559.724          48.437    20199400.240   107901574.415 8      -559.724          48.500    20199414.240    83923495.518 8      -435.341          49.500    20199413.960    83923497.529 8      -435.341          50.687
R22  21936009.360   117095903.469 7       -40.865          43.500    21936009.580   117095903.478 7       -40.865          45.312    21936020.360    91074641.962 7       -31.784          46.312    21936020.400    91074639.964 7       -31.784          46.187
G21  20626276.380   108391814.109 7      2832.977          47.875    20626274.240   108391814.116 6      2832.977          40.312    20626279.540    84461166.180 6      2207.514          40.375
R23  20362588.040   108926121.110 7      1849.810          44.625    20362587.960   108926121.130 7      1849.810          44.375
G02  21897043.420   115069725.864 7      3716.006          46.187    21897041.600   115069725.874 6      3716.006          37.687    21897046.460    89664745.065 6      2895.589          37.812
> 2024 05 10 12 51 39.0000000  0 14
R07  22797415.320   122036351.436 6      3686.181          40.250    22797415.700   122036351.457 6      3686.181          39.625    22797434.120    94917237.771 7      2867.030          43.500    22797434.440    94917239.776 7      2867.030          43.437
R24  22573017.080   120708065.311 7      4214.303          43.000    22573014.100   120708065.320 7      4214.303          43.500    22573030.840    93884111.258 7      3277.791          44.687    22573029.980    93884109.250 7      3277.791          45.062
G16  21371354.800   112307220.990 7       108.775          47.500    21371353.500   112307220.998 6       108.775          38.187    21371359.660    87512146.414 6        84.760          38.312
G08  20922541.840   109948699.181 8      3168.517          48.625    20922540.740   109948699.180 8      3168.517          48.625    20922548.400    85674338.358 8      2468.974          48.250    20922549.180    85674342.359 8      2468.974          50.312
G26  23950608.980   125861305.730 6     -1024.538          38.125    23950608.840   125861305.735 5     -1024.538          35.812    23950629.540    98073823.747 5      -798.341          35.312    23950630.120    98073822.739 7      -798.341          44.500
R14  23550838.960   125539216.572 7      6278.900          46.687    23550838.540   125539216.570 7      6278.900          45.687    23550850.240    97641666.890 6      4883.589          41.437    23550851.000    97641668.881 7      4883.589          42.562
G10  22321902.300   117302389.794 7      1194.439          47.187    22321901.500   117302389.797 7      1194.439          45.187    22321910.360    91404490.731 7       930.732          45.062    22321910.700    91404492.738 7       930.732          46.875
G27  21175936.200   111280293.339 7      1512.073          47.750    21175934.980   111280293.346 8      1512.073          48.937    21175942.580    86711945.617 8      1178.239          48.937    21175943.020    86711947.615 8      1178.239          49.937
G07  23848494.640   125324681.272 7      2683.054          45.187    23848493.820   125324681.269 5      2683.054          30.437    23848501.280    97655604.848 5      2090.691          30.562    23848502.240    97655629.853 7      2090.691          42.000
R12  20199506.200   107902134.475 8      -560.365          48.312    20199505.020   107902134.468 8      -560.365          48.375    20199519.160    83923931.102 8      -435.840          50.875    20199519.080    83923933.113 8      -435.840          51.875
R22  21936017.140   117095944.230 7       -40.669          44.312    21936017.480   117095944.237 7       -40.669          45.000    21936028.160    91074673.659 7       -31.632          46.750    21936028.140    91074671.661 7       -31.632          47.000
G21  20625737.240   108388981.219 7      2832.704          47.937    20625735.240   108388981.224 6      2832.704          40.750    20625740.500    84458958.730 6      2207.302          40.875
R23  20362242.400   108924271.388 7      1849.579          43.750    20362242.000   108924271.398 7      1849.579          44.312
G02  21896336.320   115066009.860 7      3715.769          47.062    21896334.520   115066009.867 6      3715.769          37.812    21896339.400    89661849.474 6      2895.405          37.812
> 2024 05 10 12 51 40.0000000  0 14
R07  22796726.600   122032665.518 6      3685.712          40.250    22796727.040   122032665.541 6      3685.712          39.875    22796745.620    94914370.952 7      2866.665          43.250    22796745.840    94914372.961 7      2866.665          44.062
R24  22572229.100   120703851.141 7      4214.118          44.312    22572226.100   120703851.140 7      4214.118          43.312    22572242.620    93880833.571 7      3277.647          45.062    22572242.400    93880831.564 7      3277.647          45.000
G16  21371334.120   112307112.434 7       108.310          47.875    21371332.780   112307112.442 6       108.310          37.937    21371339.000    87512061.819 6        84.397          38.125
G08  20921939.060   109945530.657 8      3168.433          48.750    20921937.760   109945530.659 8      3168.433          48.187    20921945.500    85671869.381 8      2468.909          48.000    20921946.440    85671873.384 8      2468.909          49.750
G26  23950804.620   125862330.378 6     -1024.688          38.125    23950803.900   125862330.382 6     -1024.688          36.062    23950824.500    98074622.163 5      -798.458          35.687    23950824.740    98074621.158 7      -798.458          44.562
R14  23549661.000   125532937.963 7      6278.438          46.437    23549660.780   125532937.956 7      6278.438          46.250    23549672.340    97636783.523 7      4883.229          42.000    23549673.100    97636785.517 7      4883.229          42.375
G10  22321675.080   117301195.672 7      1193.862          47.687    22321674.340   117301195.677 7      1193.862          45.187    22321683.160    91403560.246 7       930.282          45.000    22321683.460    91403562.251 7       930.282          46.437
G27  21175648.740   111278781.457 8      1511.804          48.000    21175647.320   111278781.462 8      1511.804          48.812    21175654.900    86710767.525 8      1178.029          48.500    21175655.320    86710769.521 8      1178.029          49.312
G07  23847983.780   125321998.539 7      2682.471          44.750    23847983.200   125321998.536 5      2682.471          30.437    23847990.840    97653514.405 5      2090.237          30.562    23847991.680    97653539.410 6      2090.237          41.750
R12  20199611.440   107902695.166 8      -561.042          48.625    20199610.120   107902695.161 8      -561.042          48.687    20199624.400    83924367.188 8      -436.366          50.250    20199623.880    83924369.198 8      -436.366          52.000
R22  21936024.900   117095984.971 7       -40.663          44.187    21936025.140   117095984.982 7       -40.663          44.937    21936035.620    91074705.342 7       -31.626          47.000    21936035.920    91074703.344 7       -31.626          46.500
G21  20625198.220   108386148.802 8      2832.246          48.000    20625196.260   108386148.809 6      2832.246          40.312    20625201.500    84456751.656 6      2206.945          40.125
R23  20361896.840   108922421.899 7      1849.307          44.812    20361896.260   108922421.909 7      1849.307          45.000
G02  21895629.580   115062294.227 7      3715.495          46.625    21895627.480   115062294.234 6      3715.495          37.687    21895632.360    89658954.181 6      2895.191          38.000
> 2024 05 10 12 51 41.0000000  0 14
R07  22796038.120   122028980.307 6      3684.916          40.250    22796038.200   122028980.340 6      3684.916          39.875    22796057.220    94911504.691 7      2866.046          42.875    22796057.280    94911506.698 7      2866.046          43.312
R24  22571440.820   120699637.300 7      4213.765          44.312    22571438.520   120699637.307 7      4213.765          42.937    22571454.620    93877556.151 7      3277.373          44.500    22571454.660    93877554.141 7      3277.373          44.687
G16  21371313.520   112307004.393 7       107.787          47.562    21371312.260   112307004.401 6       107.787          38.437    21371318.480    87511977.627 6        83.990          37.812
G08  20921336.180   109942362.365 8      3168.313          49.250    20921334.900   109942362.367 7      3168.313          47.312    20921342.580    85669400.580 7      2468.815          47.375    20921343.340    85669404.583 8      2468.815          49.250
G26  23950999.180   125863355.236 6     -1024.946          38.250    23950999.180   125863355.248 6     -1024.946          36.312    23951019.600    98075420.752 5      -798.659          35.562    23951019.600    98075419.751 7      -798.659          44.687
R14  23548483.340   125526659.728 7      6278.093          46.875    23548482.880   125526659.726 7      6278.093          45.562    23548494.440    97631900.451 6      4882.961          41.437    23548495.100    97631902.449 7      4882.961          42.375
G10  22321447.960   117300002.211 7      1193.218          47.375    22321447.120   117300002.208 7      1193.218          44.625    22321455.940    91402630.269 7       929.780          44.562    22321456.060    91402632.269 7       929.780          46.437
G27  21175360.900   111277269.823 8      1511.621          48.750    21175359.720   111277269.830 8      1511.621          48.062    21175367.280    86709589.628 7      1177.886          47.500    21175367.960    86709591.626 8      1177.886          49.250
G07  23847473.520   125319316.372 7      2681.924          44.500    23847472.720   125319316.369 5      2681.924          30.687    23847480.500    97651424.398 5      2089.811          30.562    23847480.960    97651449.399 6      2089.811          41.687
R12  20199716.240   107903256.564 8      -561.637          49.187    20199715.360   107903256.565 8      -561.637          48.500    20199729.440    83924803.825 8      -436.829          49.062    20199729.260    83924805.831 8      -436.829          49.375
R22  21936032.580   117096025.759 7       -40.701          44.000    21936032.660   117096025.768 7       -40.701          44.937    21936043.440    91074737.062 7       -31.656          45.625    21936043.580    91074735.064 7       -31.656          45.125
G21  20624659.220   108383316.921 8      2831.723          48.062    20624657.320   108383316.923 6      2831.723          40.375    20624662.600    84454544.989 6      2206.537          40.250
R23  20361551.120   108920572.680 7      1849.255          44.562    20361550.500   108920572.697 7      1849.255          44.875
G02  21894922.580   115058579.072 7      3715.016          46.375    21894920.600   115058579.082 6      3715.016          37.875    21894925.240    89656059.257 6      2894.818          37.687
> 2024 05 10 12 51 42.0000000  0 14
R07  22795350.360   122025295.678 6      3684.115          40.750    22795350.680   122025295.709 6      3684.115          39.875    22795368.920    94908638.877 7      2865.423          42.187    22795368.900    94908640.882 7      2865.423          42.875
R24  22570653.000   120695423.670 7      4213.318          44.187    22570650.440   120695423.680 7      4213.318          42.937    22570666.420    93874278.882 7      3277.025          43.687    22570666.820    93874276.877 7      3277.025          44.375
G16  21371293.000   112306896.760 7       107.231          46.437    21371291.720   112306896.762 6       107.231          37.750    21371298.000    87511893.751 6        83.556          37.562
G08  20920733.320   109939194.212 8      3167.942          49.062    20920732.000   109939194.216 7      3167.942          47.125    20920739.760    85666931.891 7      2468.527          47.000    20920740.520    85666935.894 8      2468.527          48.187
G26  23951194.640   125864380.214 6     -1025.274          38.500    23951194.160   125864380.225 6     -1025.274          36.125    23951214.560    98076219.428 5      -798.915          35.812    23951214.620    98076218.421 7      -798.915          44.312
R14  23547305.500   125520381.743 7      6277.741          46.687    23547305.320   125520381.743 7      6277.741          46.000    23547316.840    97627017.578 6      4882.687          41.437    23547317.580    97627019.576 6      4882.687          41.375
G10  22321220.920   117298809.268 7      1192.545          47.375    22321220.120   117298809.273 7      1192.545          43.750    22321229.020    91401700.709 7       929.256          43.750    22321228.740    91401702.705 7       929.256          45.625
G27  21175073.080   111275758.372 7      1511.155          47.312    21175071.940   111275758.379 7      1511.155          46.250    21175079.600    86708411.870 7      1177.523          46.000    21175080.360    86708413.869 7      1177.523          47.875
G07  23846963.200   125316634.696 7      2681.250          44.062    23846962.440   125316634.695 5      2681.250          30.687    23846970.000    97649334.780 5      2089.286          30.562    23846970.740    97649359.788 6      2089.286          41.687
R12  20199821.360   107903818.620 8      -562.579          48.125    20199820.660   107903818.618 7      -562.579          47.812    20199834.740    83925240.967 7      -437.561          47.125    20199834.400    83925242.973 7      -437.561          47.500
R22  21936040.040   117096066.467 7       -40.828          44.375    21936040.300   117096066.473 7       -40.828          45.187    21936050.920    91074768.724 7       -31.755          44.500    21936051.040    91074766.726 7       -31.755          44.500
G21  20624120.380   108380485.440 7      2831.156          47.375    20624118.520   108380485.445 6      2831.156          39.312    20624123.900    84452338.644 6      2206.095          39.437
R23  20361205.380   108918723.699 7      1848.831          43.937    20361204.980   108918723.714 7      1848.831          44.750
G02  21894215.420   115054864.248 7      3714.527          47.062    21894213.680   115054864.253 6      3714.527          37.812    21894218.440    89653164.591 6      2894.437          37.625
> 2024 05 10 12 51 43.0000000  0 14
R07  22794662.320   122021611.513 6      3683.970          40.750    22794661.460   122021611.539 6      3683.970          39.625    22794680.640    94905773.415 7      2865.310          42.187    22794680.680    94905775.412 7      2865.310          42.562
R24  22569865.080   120691210.113 7      4213.465          44.187    22569862.480   120691210.117 7      4213.465          43.500    22569878.460    93871001.670 7      3277.139          43.625    22569878.940    93870999.670 7      3277.139          45.437
G16  21371272.720   112306789.399 7       107.240          47.562    21371271.420   112306789.404 6       107.240          38.375    21371277.500    87511810.085 6        83.563          37.812
G08  20920130.440   109936026.050 8      3168.171          48.625    20920129.100   109936026.053 7      3168.171          47.250    20920136.820    85664463.192 7      2468.704          47.000    20920137.680    85664467.193 8      2468.704          49.750
G26  23951389.740   125865405.151 6     -1024.928          39.250    23951389.040   125865405.159 6     -1024.928          36.250    23951409.620    98077018.070 5      -798.645          35.500    23951409.800    98077017.059 7      -798.645          43.937
R14  23546127.900   125514103.923 7      6277.727          47.125    23546127.440   125514103.924 7      6277.727          46.125    23546139.100    97622134.823 6      4882.677          40.937    23546139.920    97622136.819 6      4882.677          41.250
G10  22320994.360   117297616.767 7      1192.281          46.750    22320993.260   117297616.771 7      1192.281          44.187    22321002.140    91400771.483 7       929.050          44.312    22321002.280    91400773.485 7       929.050          45.875
G27  21174785.540   111274246.940 8      1511.338          48.375    21174784.360   111274246.942 7      1511.338          47.625    21174792.060    86707234.125 7      1177.666          47.375    21174792.880    86707236.123 8      1177.666          48.937
G07  23846452.900   125313953.374 7      2681.129          44.937    23846452.300   125313953.371 5      2681.129          30.687    23846459.860    97647245.433 5      2089.191          30.562    23846460.280    97647270.440 6      2089.191          41.312
R12  20199926.980   107904381.108 8      -562.662          48.062    20199926.160   107904381.107 8      -562.662          48.875    20199939.940    83925678.446 8      -437.626          48.875    20199939.860    83925680.451 8      -437.626          49.812
R22  21936047.940   117096106.953 7       -40.363          44.187    21936047.940   117096106.960 7       -40.363          45.687    21936058.680    91074800.216 7       -31.394          45.687    21936058.480    91074798.213 7       -31.394          45.250
G21  20623581.560   108377654.255 7      2831.078          47.875    20623579.680   108377654.263 6      2831.078          40.437    20623585.000    84450132.528 6      2206.035          39.875
R23  20360859.900   108916874.785 7      1848.945          45.500    20360859.460   108916874.800 7      1848.945          44.125
G02  21893508.580   115051149.639 7      3714.517          46.500    21893506.720   115051149.644 6      3714.517          37.687    21893511.520    89650270.089 6      2894.429          37.875
> 2024 05 10 12 51 44.0000000  0 14
R07  22793974.720   122017927.969 6      3683.206          41.062    22793973.740   122017927.997 6      3683.206          39.625    22793992.540    94902908.441 7      2864.716          42.875    22793992.600    94902910.441 7      2864.716          43.125
R24  22569077.360   120686996.796 7      4213.207          44.562    22569075.160   120686996.789 7      4213.207          43.312    22569090.200    93867724.644 7      3276.939          44.187    22569090.820    93867722.648 7      3276.939          45.250
G16  21371252.380   112306682.449 7       106.714          46.875    21371250.920   112306682.456 6       106.714          38.750    21371257.180    87511726.741 6        83.154          38.437
G08  20919527.660   109932858.000 8      3168.023          48.250    20919526.280   109932858.002 8      3168.023          48.375    20919533.860    85661994.581 8      2468.589          48.062    20919534.820    85661998.580 8      2468.589          49.937
G26  23951585.180   125866430.191 6     -1025.081          38.812    23951584.160   125866430.196 6     -1025.081          36.687    23951604.740    98077816.792 5      -798.765          35.937    23951604.960    98077815.777 7      -798.765          44.937
R14  23544950.540   125507826.346 7      6277.464          46.750    23544950.020   125507826.354 7      6277.464          46.250    23544961.300    97617252.263 6      4882.472          40.937    23544962.200    97617254.257 6      4882.472          41.250
G10  22320767.380   117296424.783 7      1191.765          47.562    22320766.480   117296424.782 7      1191.765          45.250    22320775.260    91399842.660 7       928.648          45.437    22320775.600    91399844.659 7       928.648          46.562
G27  21174498.000   111272735.639 7      1511.208          47.000    21174496.620   111272735.644 8      1511.208          48.500    21174504.400    86706056.487 8      1177.564          48.437    21174505.240    86706058.486 8      1177.564          50.187
G07  23845942.480   125311272.515 7      2680.584          44.937    23845942.220   125311272.515 5      2680.584          30.062    23845949.920    97645156.450 5      2088.767          30.000    23845949.860    97645181.461 6      2088.767          41.312
R12  20200032.380   107904944.203 8      -563.354          48.250    20200031.700   107904944.207 8      -563.354          48.500    20200045.340    83926116.402 8      -438.164          51.000    20200045.100    83926118.405 8      -438.164          51.000
R22  21936055.280   117096147.363 7       -40.417          43.875    21936055.680   117096147.377 7       -40.417          44.937    21936066.040    91074831.641 7       -31.435          46.375    21936066.180    91074829.640 7       -31.435          46.312
G21  20623042.980   108374823.486 7      2830.558          47.937    20623041.220   108374823.493 6      2830.558          40.437    20623046.200    84447926.734 6      2205.629          40.250
R23  20360514.440   108915026.039 7      1848.750          45.437    20360513.600   108915026.051 7      1848.750          44.750
G02  21892801.720   115047435.364 7      3714.108          46.812    21892800.000   115047435.372 6      3714.108          37.937    21892804.640    89647375.851 6      2894.110          38.000
> 2024 05 10 12 51 45.0000000  0 14
R07  22793286.660   122014245.188 6      3682.384          41.062    22793286.000   122014245.208 6      3682.384          39.625    22793304.600    94900044.053 7      2864.077          43.437    22793304.460    94900046.048 7      2864.077          43.500
R24  22568289.620   120682783.883 7      4212.713          44.437    22568286.860   120682783.879 7      4212.713          43.625    22568302.500    93864447.934 7      3276.554          44.875    22568303.060    93864445.944 7      3276.554          45.375
G16  21371231.960   112306576.040 7       106.128          47.187    21371230.660   112306576.045 6       106.128          38.625    21371236.820    87511643.816 6        82.697          38.187
G08  20918924.760   109929690.228 8      3167.507          48.375    20918923.420   109929690.230 8      3167.507          48.562    20918931.120    85659526.183 8      2468.187          48.500    20918932.020    85659530.184 8      2468.187          50.625
G26  23951780.460   125867455.480 6     -1025.487          38.687    23951779.120   125867455.487 6     -1025.487          36.812    23951799.980    98078615.706 6      -799.081          36.500    23951800.340    98078614.699 7      -799.081          44.875
R14  23543772.940   125501549.249 7      6276.869          47.500    23543772.440   125501549.254 7      6276.869          45.812    23543783.880    97612370.062 6      4882.009          41.125    23543784.460    97612372.061 6      4882.009          41.625
G10  22320540.640   117295233.484 7      1190.887          46.812    22320539.640   117295233.487 7      1190.887          44.812    22320548.580    91398914.372 7       927.964          44.750    22320548.800    91398916.378 7       927.964          47.250
G27  21174210.700   111271224.637 7      1510.761          47.750    21174209.180   111271224.645 8      1510.761          48.750    21174216.880    86704879.084 8      1177.216          48.875    21174217.480    86704881.082 8      1177.216          50.125
G07  23845432.480   125308592.282 7      2679.860          45.312    23845432.320   125308592.276 5      2679.860          30.062    23845439.880    97643067.950 5      2088.203          30.000    23845440.040    97643092.961 6      2088.203          41.500
R12  20200137.760   107905508.053 8      -564.280          49.062    20200137.740   107905508.057 8      -564.280          49.000    20200150.780    83926554.944 8      -438.885          51.125    20200150.760    83926556.948 8      -438.885          51.750
R22  21936062.700   117096187.836 7       -40.524          44.875    21936063.100   117096187.845 7       -40.524          44.625    21936073.580    91074863.105 7       -31.519          46.500    21936073.960    91074861.105 7       -31.519          46.812
G21  20622504.460   108371993.266 8      2829.880          48.125    20622502.640   108371993.273 6      2829.880          40.687    20622507.800    84445721.370 6      2205.101          40.375
R23  20360168.480   108913177.630 7      1848.157          45.250    20360168.020   108913177.648 7      1848.157          44.750
G02  21892094.960   115043721.560 7      3713.537          47.125    21892093.380   115043721.570 6      3713.537          38.000    21892097.960    89644481.979 6      2893.666          38.000
> 2024 05 10 12 51 46.0000000  0 14
R07  22792599.080   122010563.035 6      3681.801          41.062    22792598.300   122010563.050 6      3681.801          40.312    22792616.860    94897180.157 7      2863.623          43.500    22792616.620    94897182.153 7      2863.623          43.312
R24  22567501.700   120678571.186 7      4212.431          44.062    22567499.080   120678571.193 7      4212.431          43.625    22567514.280    93861171.400 7      3276.335          45.000    22567514.940    93861169.413 7      3276.335          45.125
G16  21371211.880   112306470.027 7       105.754          47.437    21371210.340   112306470.029 6       105.754          38.562    21371216.740    87511561.201 6        82.406          38.187
G08  20918321.940   109926522.540 8      3167.590          48.187    20918320.620   109926522.544 8      3167.590          48.812    20918328.380    85657057.857 8      2468.252          48.812    20918329.400    85657061.858 8      2468.252          50.375
G26  23951975.280   125868480.858 6     -1025.503          38.687    23951974.300   125868480.865 6     -1025.503          37.125    23951995.200    98079414.690 6      -799.093          36.437    23951995.260    98079413.681 7      -799.093          45.062
R14  23542595.440   125495272.407 7      6276.607          46.062    23542594.820   125495272.407 7      6276.607          45.062    23542606.360    97607488.061 6      4881.805          41.750    23542606.860    97607490.061 6      4881.805          41.562
G10  22320313.980   117294042.709 7      1190.418          46.500    22320313.040   117294042.717 7      1190.418          44.937    22320321.920    91397986.495 7       927.599          44.812    22320322.160    91397988.498 7       927.599          47.187
G27  21173923.140   111269713.786 7      1510.659          47.625    21173921.680   111269713.793 8      1510.659          48.562    21173929.380    86703701.793 8      1177.137          48.312    21173929.840    86703703.793 8      1177.137          49.750
G07  23844922.440   125305912.521 7      2679.414          44.437    23844922.500   125305912.518 5      2679.414          30.062    23844929.880    97640979.821 5      2087.855          30.000    23844929.480    97641004.832 6      2087.855          41.500
R12  20200243.720   107906072.476 8      -564.802          48.875    20200243.680   107906072.482 8      -564.802          48.437    20200256.340    83926993.931 8      -439.290          51.062    20200256.520    83926995.932 8      -439.290          52.187
R22  21936070.340   117096228.245 7       -40.488          43.437    21936070.660   117096228.254 7       -40.488          45.250    21936081.360    91074894.522 7       -31.491          46.562    21936081.580    91074892.524 7       -31.491          46.750
G21  20621965.980   108369163.463 7      2829.466          47.500    20621964.060   108369163.465 6      2829.466          40.875    20621969.300    84443516.325 6      2204.779          41.062
R23  20359823.180   108911329.385 7      1848.106          45.187    20359822.800   108911329.392 7      1848.106          44.250
G02  21891388.360   115040008.102 7      3713.199          47.750    21891386.780   115040008.104 6      3713.199          37.937    21891391.340    89641588.376 6      2893.402          38.250
> 2024 05 10 12 51 47.0000000  0 14
R07  22791911.640   122006881.531 6      3680.867          40.187    22791910.900   122006881.556 6      3680.867          40.312    22791929.200    94894316.777 7      2862.897          43.437    22791928.940    94894318.773 7      2862.897          43.875
R24  22566714.080   120674358.677 7      4212.129          44.375    22566711.520   120674358.670 7      4212.129          43.625    22566726.340    93857895.004 7      3276.100          44.875    22566727.260    93857893.016 7      3276.100          44.312
G16  21371191.820   112306364.456 7       105.175          47.500    21371190.320   112306364.461 6       105.175          38.312    21371196.760    87511478.934 6        81.955          38.062
G08  20917719.160   109923355.030 8      3167.259          48.500    20917717.920   109923355.027 7      3167.259          47.562    20917725.580    85654589.661 7      2467.994          47.562    20917726.320    85654593.662 8      2467.994          49.687
G26  23952170.080   125869506.404 6     -1025.986          38.625    23952169.300   125869506.412 6     -1025.986          36.625    23952190.400    98080213.807 6      -799.470          36.562    23952190.220    98080212.798 7      -799.470          45.062
R14  23541417.820   125488995.864 7      6276.205          46.125    23541417.180   125488995.872 7      6276.205          45.250    23541428.400    97602606.308 7      4881.493          42.062    23541429.360    97602608.310 7      4881.493          42.062
G10  22320087.520   117292852.520 7      1189.591          47.000    22320086.600   117292852.527 7      1189.591          45.187    22320095.480    91397059.075 7       926.954          44.937    22320095.760    91397061.077 7       926.954          46.312
G27  21173635.620   111268203.134 7      1510.369          47.125    21173634.140   111268203.136 8      1510.369          48.062    21173641.960    86702524.653 8      1176.911          48.437    21173642.420    86702526.654 8      1176.911          49.750
G07  23844412.640   125303233.270 7      2678.737          44.562    23844412.540   125303233.270 5      2678.737          30.375    23844419.920    97638892.091 5      2087.327          30.375    23844420.320    97638917.098 6      2087.327          41.937
R12  20200349.400   107906637.533 8      -565.628          48.937    20200349.600   107906637.542 8      -565.628          48.562    20200362.040    83927433.412 8      -439.933          50.000    20200362.000    83927435.415 8      -439.933          51.500
R22  21936077.900   117096268.577 7       -40.421          44.125    21936078.140   117096268.567 7       -40.421          44.562    21936088.780    91074925.881 7       -31.438          46.562    21936089.020    91074923.883 7       -31.438          46.500
G21  20621427.460   108366334.097 7      2828.921          47.625    20621425.700   108366334.104 6      2828.921          40.500    20621430.720    84441311.628 6      2204.354          40.562
R23  20359477.260   108909481.372 7      1847.644          45.562    20359477.160   108909481.382 7      1847.644          44.375
G02  21890681.740   115036295.012 7      3712.657          46.125    21890680.220   115036295.020 6      3712.657          37.937    21890684.740    89638695.065 6      2892.979          38.125
> 2024 05 10 12 51 48.0000000  0 14
R07  22791223.240   122003200.816 6      3680.503          40.187    22791222.600   122003200.847 6      3680.503          40.312    22791241.560    94891454.013 7      2862.614          43.000    22791241.300    94891456.016 7      2862.614          43.937
R24  22565926.380   120670146.579 7      4212.272          44.250    22565923.660   120670146.575 7      4212.272          43.187    22565938.780    93854618.924 7      3276.211          43.937    22565939.400    93854616.938 7      3276.211          44.937
G16  21371172.080   112306259.518 7       104.959          47.437    21371170.480   112306259.526 6       104.959          38.250    21371176.860    87511397.162 6        81.787          38.187
G08  20917116.580   109920187.857 8      3167.369          48.375    20917115.100   109920187.857 8      3167.369          48.750    20917122.820    85652121.738 8      2468.080          48.437    20917123.560    85652125.737 8      2468.080          50.062
G26  23952365.260   125870532.206 6     -1025.633          38.312    23952364.540   125870532.211 6     -1025.633          36.625    23952385.440    98081013.120 6      -799.194          36.125    23952385.580    98081012.123 7      -799.194          44.437
R14  23540240.500   125482719.843 7      6276.047          46.437    23540240.000   125482719.849 7      6276.047          45.687    23540251.560    97597724.979 7      4881.370          42.000    23540251.900    97597726.979 7      4881.370          42.000
G10  22319861.200   117291663.082 7      1189.305          47.250    22319860.260   117291663.087 7      1189.305          44.187    22319868.980    91396132.240 7       926.731          44.312    22319869.400    91396134.249 7       926.731          46.812
G27  21173348.060   111266692.842 7      1510.445          47.750    21173346.860   111266692.847 8      1510.445          49.187    21173354.520    86701347.806 8      1176.970          48.687    21173355.340    86701349.803 8      1176.970          49.875
G07  23843903.080   125300554.716 7      2678.601          44.875    23843902.880   125300554.718 5      2678.601          30.375    23843910.240    97636804.901 5      2087.221          30.375    23843910.520    97636829.902 6      2087.221          41.812
R12  20200454.960   107907203.398 8      -565.919          49.750    20200455.660   107907203.404 8      -565.919          48.937    20200467.760    83927873.520 8      -440.159          50.062    20200467.900    83927875.520 8      -440.159          51.500
R22  21936085.560   117096309.063 7       -40.197          44.062    21936085.840   117096309.067 7       -40.197          44.687    21936096.520    91074957.369 7       -31.264          46.625    21936096.580    91074955.377 7       -31.264          46.250
G21  20620889.340   108363505.372 7      2828.717          47.687    20620887.420   108363505.374 6      2828.717          40.937    20620892.460    84439107.429 6      2204.195          40.687
R23  20359131.920   108907633.763 7      1847.611          45.625    20359131.800   108907633.781 7      1847.611          44.625
G02  21889975.360   115032582.469 7      3712.594          46.750    21889973.800   115032582.476 6      3712.594          38.062    21889978.340    89635802.174 6      2892.930          37.625
> 2024 05 10 12 51 49.0000000  0 14
R07  22790535.420   121999520.542 6      3679.843          40.187    22790535.540   121999520.573 6      3679.843          40.000    22790553.960    94888591.578 7      2862.100          43.312    22790553.800    94888593.577 7      2862.100          43.812
R24  22565138.540   120665934.610 7      4211.595          44.062    22565135.920   120665934.622 7      4211.595          42.937    22565151.020    93851342.966 7      3275.685          44.500    22565151.780    93851340.985 7      3275.685          44.187
G16  21371151.980   112306154.856 7       104.282          46.750    21371150.520   112306154.867 6       104.282          38.375    21371157.000    87511315.601 6        81.259          38.062
G08  20916513.840   109917020.689 8      3166.989          48.312    20916512.520   109917020.689 8      3166.989          48.500    20916520.180    85649653.811 8      2467.784          48.437    20916520.620    85649657.812 8      2467.784          50.125
G26  23952560.180   125871558.070 6     -1026.343          39.562    23952559.900   125871558.075 6     -1026.343          36.687    23952580.700    98081812.487 6      -799.748          36.250    23952580.840    98081811.498 7      -799.748          44.437
R14  23539062.960   125476443.977 7      6275.698          47.062    23539062.740   125476443.970 7      6275.698          45.937    23539074.100    97592843.733 7      4881.098          42.000    23539074.600    97592845.733 7      4881.098          42.000
G10  22319634.900   117290474.059 7      1188.573          46.812    22319633.920   117290474.062 7      1188.573          44.812    22319642.840    91395205.723 7       926.160          44.937    22319643.200    91395207.723 7       926.160          47.250
G27  21173060.480   111265182.602 7      1509.943          47.437    21173059.440   111265182.610 8      1509.943          48.437    21173067.200    86700170.994 8      1176.579          48.562    21173067.840    86700172.995 8      1176.579          49.937
G07  23843393.380   125297876.531 7      2677.778          43.875    23843393.120   125297876.531 5      2677.778          30.375    23843400.580    97634718.002 5      2086.580          30.375    23843401.080    97634743.010 6      2086.580          41.812
R12  20200560.860   107907769.754 8      -566.875          49.000    20200561.760   107907769.760 8      -566.875          48.687    20200573.720    83928314.015 8      -440.902          51.125    20200573.820    83928316.016 8      -440.902          51.437
R22  21936093.520   117096349.350 7       -40.437          44.625    21936093.540   117096349.353 7       -40.437          44.187    21936103.960    91074988.707 7       -31.451          46.000    21936103.860    91074986.713 7       -31.451          45.937
G21  20620351.140   108360676.941 8      2828.061          48.500    20620349.100   108360676.943 6      2828.061          40.500    20620354.380    84436903.450 6      2203.684          40.312
R23  20358786.340   108905786.210 7      1847.199          44.562    20358786.580   108905786.222 7      1847.199          44.250
G02  21889268.760   115028870.162 7      3711.938          46.812    21889267.400   115028870.167 6      3711.938          38.187    21889271.960    89632909.472 6      2892.419          38.062
> 2024 05 10 12 51 50.0000000  0 14
R07  22789848.320   121995840.970 6      3679.392          39.750    22789847.860   121995840.998 6      3679.392          40.000    22789866.480    94885729.695 7      2861.749          43.062    22789866.560    94885731.695 7      2861.749          44.125
R24  22564350.920   120661722.980 7      4211.599          44.187    22564348.340   120661722.982 7      4211.599          43.437    22564363.180    93848067.248 7      3275.688          44.625    22564363.940    93848065.254 7      3275.688          43.687
G16  21371132.340   112306050.657 7       104.022          46.875    21371130.740   112306050.667 6       104.022          38.000    21371137.140    87511234.398 6        81.056          38.187
G08  20915911.060   109913853.716 8      3166.931          48.437    20915909.820   109913853.718 7      3166.931          47.625    20915917.620    85647186.046 7      2467.738          47.687    20915918.240    85647190.047 8      2467.738          50.000
G26  23952755.660   125872584.000 6     -1026.334          38.750    23952755.000   125872584.013 6     -1026.334          36.937    23952775.840    98082611.929 6      -799.740          36.625    23952775.600    98082610.955 7      -799.740          42.250
