     3.05           OBSERVATION DATA    MIXED               RINEX VERSION / TYPE
TPS2RIN 1.0.28.3459 TPS-USER            20250407 105201 UTC PGM / RUN BY / DATE
Win64 build Jun 01, 2022 (c) Topcon Positioning Systems     COMMENT
SRC: 20250404_grav_20250404_194416.tps                      COMMENT
Observer            Agency                                  OBSERVER / AGENCY
O0M3X53SBGM         TPS HIPER_SR        4.8 HSR Jul,08,2022 REC # / TYPE / VERS
FW: 4.8 HSR Jul,08,2022 p3                                  COMMENT
SN: HiPer SR 1212-12575                                     COMMENT
000                 TPSHIPER_SR     NONE                    ANT # / TYPE
        1.8000        0.0000        0.0000                  ANTENNA: DELTA H/E/N
DELTA H stands for **SLANT** height here!                   COMMENT
Oro02                                                       MARKER NAME
  5383160.1199 -1596004.6131  3016159.8665                  APPROX POSITION XYZ
  2025     4     4    17    44   39.0000000     GPS         TIME OF FIRST OBS
  2025     4     4    18     0   25.0000000     GPS         TIME OF LAST OBS
     1.000                                                  INTERVAL
   947 EPOCHS                                               COMMENT
G   12 C1C L1C D1C C1W L1W D1W C2W L2W D2W C2X L2X D2X      SYS / # / OBS TYPES
R   12 C1C L1C D1C C1P L1P D1P C2P L2P D2P C2C L2C D2C      SYS / # / OBS TYPES
    15                                                      # OF SATELLITES
   G01   947   947   947   947   947   947   947   947   947PRN / # OF OBS
         947   947   947                                    PRN / # OF OBS
   G02   947   947   947   947   947   947   947   947   947PRN / # OF OBS
           0     0     0                                    PRN / # OF OBS
   G03   947   947   947   947   947   947   947   947   947PRN / # OF OBS
         947   947   947                                    PRN / # OF OBS
   G04   947   947   947   947   947   947   947   947   947PRN / # OF OBS
         947   947   947                                    PRN / # OF OBS
   G08   947   947   947   947   947   947   947   947   947PRN / # OF OBS
         947   947   947                                    PRN / # OF OBS
   G09   947   947   947   947   947   947   947   947   947PRN / # OF OBS
         947   947   947                                    PRN / # OF OBS
   G14   947   947   947   947   947   947   947   947   947PRN / # OF OBS
         947   947   947                                    PRN / # OF OBS
   G17   947   947   947   947   947   947   947   947   947PRN / # OF OBS
         947   947   947                                    PRN / # OF OBS
   R02   841   841   841   841   841   841   841   841   841PRN / # OF OBS
         841   841   841                                    PRN / # OF OBS
   R03   947   947   947   947   947   947   947   947   947PRN / # OF OBS
         947   947   947                                    PRN / # OF OBS
   R04   947   947   947   947   947   947   947   947   947PRN / # OF OBS
         947   947   947                                    PRN / # OF OBS
   R05   624   624   624   620   620   620   620   620   620PRN / # OF OBS
         619   619   619                                    PRN / # OF OBS
   R16   788   788   788   788   788   788   788   788   788PRN / # OF OBS
         788   788   788                                    PRN / # OF OBS
   R17   947   947   947   947   947   947   947   947   947PRN / # OF OBS
         947   947   947                                    PRN / # OF OBS
   R18   947   947   947   947   947   947   947   947   947PRN / # OF OBS
         947   947   947                                    PRN / # OF OBS
G L1C                                                       SYS / PHASE SHIFT
G L1W -0.25000                                              SYS / PHASE SHIFT
G L2W  0.00000                                              SYS / PHASE SHIFT
G L2X  0.25000                                              SYS / PHASE SHIFT
R L1C                                                       SYS / PHASE SHIFT
R L1P -0.25000                                              SYS / PHASE SHIFT
R L2P -0.25000                                              SYS / PHASE SHIFT
R L2C                                                       SYS / PHASE SHIFT
  7 R02 -4 R03  5 R04  6 R05  1 R16 -1 R17  4 R18 -3        GLONASS SLOT / FRQ #
                                                            GLONASS COD/PHS/BIS
    18                  GPS                                 LEAP SECONDS
                                                            END OF HEADER
> 2025 04 04 17 44 39.0000000  0 14
G02  22828432.560   119964218.228 7      1513.180    22828430.780   119964218.230 5      1513.180    22828436.060    93478630.385 5      1179.101
G03  20057098.080   105400760.625 8      1890.194    20057097.720   105400760.627 8      1890.194    20057104.100    82130486.132 8      1472.878    20057105.020    82130491.134 8      1472.878
G14  22269223.740   117025545.795 6      2148.544    22269223.080   117025545.805 2      2148.544    22269231.320    91188756.720 2      1674.190    22269231.380    91188785.755 6      1674.190
R03  19904835.220   106552142.125 7      1713.412    19904835.740   106552142.154 7      1713.412    19904845.980    82873932.626 8      1332.654    19904845.960    82873931.627 8      1332.654
G01  21286950.540   111863677.512 7      2041.182    21286949.980   111863677.514 6      2041.182    21286954.860    87166520.317 6      1590.531    21286955.480    87166521.322 8      1590.531
R04  20129759.180   107793948.463 7      5663.234    20129760.240   107793948.497 7      5663.234    20129773.380    83839796.896 8      4404.738    20129773.300    83839796.899 8      4404.738
R18  20476756.220   109306310.831 7      3038.280    20476756.820   109306310.829 7      3038.280    20476766.780    85016064.409 8      2363.107    20476766.700    85016066.415 8      2363.107
G17  22509615.840   118288832.808 7      5372.092    22509614.400   118288832.813 5      5372.092    22509620.460    92173133.103 5      4186.046    22509620.720    92173135.103 7      4186.046
G08  22780027.620   119709849.300 7      -181.582    22780026.380   119709849.310 7      -181.582    22780042.040    93280452.243 7      -141.492    22780043.000    93280457.255 7      -141.492
R17  22413638.260   119939902.793 7      1072.234    22413637.160   119939902.803 7      1072.234    22413656.380    93286664.519 7       833.960    22413655.660    93286662.515 7       833.960
R02  23641204.320   126154006.722 7     -1124.495    23641204.780   126154006.712 6     -1124.495    23641217.000    98119829.879 6      -874.607    23641217.960    98119831.878 6      -874.607
G04  22490223.360   118186920.158 7      5628.940    22490222.080   118186920.170 5      5628.940    22490234.540    92093751.267 5      4386.187    22490235.340    92093759.283 8      4386.187
R16  23403810.860   125018949.944 6      -415.898    23403807.980   125018949.945 6      -415.898    23403833.100    97237045.242 7      -323.476    23403833.500    97237046.240 7      -323.476
G09  24289508.420   127642234.171 6      6253.692    24289507.360   127642234.170 6      6253.692    24289535.700    99461558.335 6      4873.007    24289535.780    99461598.348 7      4873.007
> 2025 04 04 17 44 40.0000000  0 14
G02  22828144.520   119962705.529 7      1512.571    22828143.000   119962705.534 5      1512.571    22828148.000    93477451.661 5      1178.627
G03  20056738.620   105398871.098 8      1889.208    20056738.080   105398871.103 8      1889.208    20056744.720    82129013.778 8      1472.110    20056745.460    82129018.780 8      1472.110
G14  22268815.040   117023397.999 6      2147.437    22268814.560   117023398.011 2      2147.437    22268822.540    91187083.121 2      1673.328    22268822.440    91187112.172 6      1673.328
R03  19904515.280   106550429.542 7      1711.958    19904515.540   106550429.573 7      1711.958    19904525.980    82872600.622 8      1331.523    19904526.080    82872599.625 8      1331.523
G01  21286562.200   111861636.753 7      2040.583    21286561.500   111861636.761 6      2040.583    21286566.460    87164930.123 6      1590.065    21286567.060    87164931.129 8      1590.065
R04  20128702.060   107788285.917 8      5662.183    20128702.660   107788285.948 7      5662.183    20128715.860    83835392.700 8      4403.920    20128715.900    83835392.707 8      4403.920
R18  20476187.120   109303273.054 7      3037.588    20476187.860   109303273.060 7      3037.588    20476197.720    85013701.702 8      2362.569    20476197.500    85013703.712 8      2362.569
G17  22508593.600   118283461.097 7      5371.548    22508592.200   118283461.100 5      5371.548    22508598.180    92168947.367 5      4185.622    22508598.640    92168949.369 7      4185.622
G08  22780062.340   119710031.400 7      -182.217    22780061.080   119710031.405 7      -182.217    22780076.820    93280594.131 7      -141.988    22780077.580    93280599.137 7      -141.988
R17  22413437.840   119938831.108 7      1071.498    22413436.960   119938831.115 7      1071.498    22413456.000    93285830.984 7       833.387    22413455.140    93285828.982 7       833.387
R02  23641415.060   126155131.844 7     -1125.228    23641415.740   126155131.834 6     -1125.228    23641427.580    98120704.974 6      -875.177    23641428.740    98120706.984 6      -875.177
G04  22489152.120   118181291.752 7      5628.387    22489151.120   118181291.762 5      5628.387    22489163.460    92089365.507 5      4385.756    22489164.260    92089373.516 8      4385.756
R16  23403888.640   125019366.240 6      -416.480    23403886.020   125019366.252 6      -416.480    23403911.060    97237369.011 7      -323.929    23403911.380    97237370.009 7      -323.929
G09  24288318.460   127635980.818 6      6253.280    24288317.500   127635980.820 6      6253.280    24288345.360    99456685.627 6      4872.686    24288345.960    99456725.632 7      4872.686
> 2025 04 04 17 44 41.0000000  0 14
G02  22827856.720   119961192.670 7      1512.969    22827855.100   119961192.673 5      1512.969    22827860.260    93476272.812 5      1178.937
G03  20056379.020   105396981.849 8      1889.163    20056378.700   105396981.854 8      1889.163    20056385.080    82127541.644 8      1472.075    20056385.940    82127546.644 8      1472.075
G14  22268406.260   117021250.542 6      2147.328    22268405.880   117021250.554 2      2147.328    22268413.860    91185409.784 2      1673.243    22268413.060    91185438.837 6      1673.243
R03  19904195.600   106548717.593 7      1711.632    19904196.040   106548717.621 7      1711.632    19904206.300    82871269.115 8      1331.269    19904206.180    82871268.118 8      1331.269
G01  21286173.840   111859595.889 7      2040.953    21286173.140   111859595.894 6      2040.953    21286177.960    87163339.842 6      1590.353    21286178.540    87163340.849 8      1590.353
R04  20127644.720   107782623.877 8      5661.881    20127645.220   107782623.909 7      5661.881    20127658.600    83830988.906 8      4403.686    20127658.500    83830988.908 8      4403.686
R18  20475618.140   109300235.290 7      3037.825    20475618.820   109300235.286 7      3037.825    20475628.680    85011338.999 8      2362.753    20475628.420    85011341.007 8      2362.753
G17  22507571.360   118278089.379 7      5371.744    22507570.060   118278089.381 6      5371.744    22507576.080    92164761.622 5      4185.775    22507576.400    92164763.629 7      4185.775
G08  22780097.020   119710213.550 7      -182.049    22780095.760   119710213.555 7      -182.049    22780111.400    93280736.064 7      -141.856    22780112.420    93280741.076 7      -141.856
R17  22413237.320   119937759.471 7      1071.551    22413236.600   119937759.491 7      1071.551    22413255.840    93284997.503 7       833.429    22413255.300    93284995.503 7       833.429
R02  23641626.320   126156257.100 7     -1125.250    23641626.720   126156257.093 6     -1125.250    23641638.480    98121580.188 6      -875.195    23641639.220    98121582.196 6      -875.195
G04  22488081.180   118175663.362 7      5628.553    22488080.140   118175663.369 5      5628.553    22488092.540    92084979.760 5      4385.886    22488092.960    92084987.770 8      4385.886
R16  23403966.540   125019782.403 6      -416.074    23403963.980   125019782.417 6      -416.074    23403988.800    97237692.668 7      -323.613    23403989.720    97237693.664 7      -323.613
G09  24287128.400   127629727.186 6      6253.826    24287127.400   127629727.183 6      6253.826    24287155.300    99451812.686 6      4873.111    24287155.740    99451852.682 7      4873.111
> 2025 04 04 17 44 42.0000000  0 14
G02  22827568.820   119959679.798 7      1512.794    22827567.220   119959679.803 5      1512.794    22827572.300    93475093.952 5      1178.801
G03  20056019.760   105395093.024 8      1888.497    20056019.220   105395093.029 8      1888.497    20056025.660    82126069.837 8      1471.556    20056026.400    82126074.839 8      1471.556
G14  22267997.660   117019103.557 6      2146.696    22267997.180   117019103.573 2      2146.696    22268005.260    91183736.815 2      1672.750    22268005.340    91183765.848 6      1672.750
R03  19903876.060   106547006.438 7      1710.660    19903876.240   106547006.459 7      1710.660    19903886.620    82869938.211 8      1330.513    19903886.760    82869937.214 8      1330.513
G01  21285785.440   111857555.075 7      2040.668    21285784.840   111857555.075 6      2040.668    21285789.500    87161749.601 6      1590.131    21285790.120    87161750.602 8      1590.131
R04  20126587.500   107776962.432 7      5660.995    20126587.880   107776962.460 7      5660.995    20126601.340    83826585.564 8      4402.996    20126601.320    83826585.566 8      4402.996
R18  20475049.020   109297197.671 7      3037.350    20475049.540   109297197.666 7      3037.350    20475059.640    85008976.412 8      2362.383    20475059.460    85008978.421 8      2362.383
G17  22506549.280   118272717.763 7      5371.430    22506547.820   118272717.765 6      5371.430    22506554.020    92160575.958 6      4185.530    22506554.240    92160577.958 7      4185.530
G08  22780131.920   119710395.934 7      -182.681    22780130.520   119710395.942 7      -182.681    22780146.100    93280878.183 7      -142.349    22780146.900    93280883.201 7      -142.349
R17  22413037.440   119936688.018 7      1071.223    22413036.840   119936688.036 7      1071.223    22413055.480    93284164.137 7       833.173    22413054.860    93284162.133 7       833.173
R02  23641837.360   126157382.594 7     -1125.754    23641837.240   126157382.589 6     -1125.754    23641849.300    98122455.564 6      -875.586    23641850.480    98122457.582 6      -875.586
G04  22487010.040   118170035.122 7      5628.058    22487009.020   118170035.129 5      5628.058    22487021.440    92080594.135 5      4385.500    22487021.840    92080602.151 8      4385.500
R16  23404044.920   125020198.578 6      -416.321    23404041.940   125020198.582 6      -416.321    23404066.260    97238016.342 7      -323.805    23404067.340    97238017.338 7      -323.805
G09  24285938.620   127623473.384 6      6253.737    24285937.420   127623473.378 6      6253.737    24285965.340    99446939.614 6      4873.042    24285965.580    99446979.606 6      4873.042
> 2025 04 04 17 44 43.0000000  0 14
G02  22827280.980   119958166.955 7      1512.952    22827279.200   119958166.962 5      1512.952    22827284.500    93473915.120 5      1178.923
G03  20055660.360   105393204.625 7      1888.315    20055659.880   105393204.629 8      1888.315    20055666.300    82124598.360 8      1471.414    20055667.120    82124603.358 8      1471.414
G14  22267589.540   117016957.091 6      2146.361    22267588.640   117016957.106 2      2146.361    22267596.760    91182064.246 2      1672.489    22267597.120    91182093.279 6      1672.489
R03  19903556.400   106545296.084 8      1710.075    19903556.880   106545296.105 7      1710.075    19903567.260    82868607.941 8      1330.059    19903567.140    82868606.942 8      1330.059
G01  21285397.200   111855514.311 7      2040.866    21285396.500   111855514.311 6      2040.866    21285401.380    87160159.397 6      1590.285    21285401.720    87160160.401 8      1590.285
R04  20125530.440   107771301.565 7      5660.659    20125530.740   107771301.601 7      5660.659    20125543.940    83822182.684 8      4402.735    20125544.180    83822182.684 8      4402.735
R18  20474480.180   109294160.211 7      3037.371    20474480.460   109294160.209 7      3037.371    20474490.740    85006613.944 8      2362.400    20474490.580    85006615.950 8      2362.400
G17  22505527.380   118267346.263 7      5371.627    22505525.800   118267346.268 6      5371.627    22505531.800    92156390.384 5      4185.683    22505531.960    92156392.382 7      4185.683
G08  22780166.860   119710578.534 7      -182.643    22780165.280   119710578.541 7      -182.643    22780181.020    93281020.458 7      -142.319    22780181.640    93281025.472 7      -142.319
R17  22412837.260   119935616.785 7      1071.237    22412836.680   119935616.800 7      1071.237    22412855.180    93283330.947 7       833.184    22412854.560    93283328.945 7       833.184
R02  23642048.240   126158508.312 7     -1125.696    23642048.320   126158508.304 6     -1125.696    23642060.280    98123331.151 6      -875.541    23642061.120    98123333.154 6      -875.541
G04  22485939.120   118164407.044 7      5628.167    22485938.000   118164407.052 5      5628.167    22485950.380    92076208.633 5      4385.585    22485951.040    92076216.636 8      4385.585
R16  23404122.720   125020614.797 6      -415.992    23404119.920   125020614.793 6      -415.992    23404144.320    97238340.028 7      -323.549    23404145.120    97238341.013 7      -323.549
G09  24284747.880   127617219.521 6      6254.015    24284747.460   127617219.521 6      6254.015    24284775.560    99442066.505 6      4873.259    24284775.180    99442106.511 7      4873.259
> 2025 04 04 17 44 44.0000000  0 14
G02  22826993.160   119956654.146 7      1512.748    22826991.320   119956654.153 5      1512.748    22826996.620    93472736.305 5      1178.765
G03  20055301.180   105391316.685 7      1887.693    20055300.560   105391316.692 8      1887.693    20055307.020    82123127.247 8      1470.929    20055307.800    82123132.247 8      1470.929
G14  22267182.260   117014811.155 6      2145.498    22267180.220   117014811.170 2      2145.498    22267188.360    91180392.090 2      1671.817    22267188.180    91180421.113 6      1671.817
R03  19903237.080   106543586.547 8      1709.079    19903237.440   106543586.572 7      1709.079    19903247.760    82867278.311 8      1329.283    19903247.740    82867277.319 8      1329.283
G01  21285008.900   111853473.621 7      2040.664    21285008.140   111853473.623 6      2040.664    21285013.080    87158569.255 6      1590.128    21285013.400    87158570.260 8      1590.128
R04  20124473.420   107765641.354 8      5659.868    20124473.460   107765641.388 7      5659.868    20124487.040    83817780.302 8      4402.119    20124486.960    83817780.304 8      4402.119
R18  20473911.040   109291122.923 7      3037.170    20473911.500   109291122.915 7      3037.170    20473921.760    85004251.608 8      2362.243    20473921.580    85004253.617 8      2362.243
G17  22504504.900   118261974.926 7      5371.306    22504503.580   118261974.931 6      5371.306    22504509.540    92152204.932 6      4185.434    22504509.940    92152206.933 7      4185.434
G08  22780201.800   119710761.367 7      -182.997    22780200.200   119710761.372 7      -182.997    22780215.540    93281162.921 7      -142.595    22780216.680    93281167.934 7      -142.595
R17  22412637.080   119934545.793 7      1070.854    22412636.700   119934545.819 7      1070.854    22412655.080    93282497.955 7       832.886    22412654.160    93282495.960 7       832.886
R02  23642259.160   126159634.320 7     -1126.092    23642259.600   126159634.321 6     -1126.092    23642271.340    98124206.929 6      -875.849    23642272.340    98124208.937 6      -875.849
G04  22484867.860   118158779.143 7      5627.819    22484867.040   118158779.151 5      5627.819    22484879.480    92071823.267 5      4385.314    22484880.160    92071831.279 8      4385.314
R16  23404200.740   125021031.026 6      -416.280    23404197.320   125021031.038 6      -416.280    23404222.300    97238663.768 7      -323.773    23404222.860    97238664.762 7      -323.773
G09  24283557.860   127610965.477 6      6254.309    24283557.320   127610965.474 6      6254.309    24283585.420    99437193.244 6      4873.487    24283585.340    99437233.251 7      4873.487
> 2025 04 04 17 44 45.0000000  0 14
G02  22826705.140   119955141.147 7      1512.988    22826703.340   119955141.152 5      1512.988    22826708.840    93471557.348 5      1178.952
G03  20054942.060   105389428.989 7      1887.463    20054941.380   105389428.992 8      1887.463    20054947.860    82121656.313 8      1470.751    20054948.660    82121661.313 8      1470.751
G14  22266773.580   117012665.450 6      2145.687    22266772.000   117012665.463 2      2145.687    22266780.300    91178720.115 2      1671.964    22266780.040    91178749.145 6      1671.964
R03  19902918.100   106541877.619 7      1708.537    19902918.040   106541877.645 7      1708.537    19902928.580    82865949.154 8      1328.862    19902928.500    82865948.155 8      1328.862
G01  21284620.560   111851432.785 7      2040.845    21284619.900   111851432.793 6      2040.845    21284624.620    87156979.002 6      1590.269    21284625.260    87156980.009 8      1590.269
R04  20123416.600   107759981.518 7      5659.571    20123416.520   107759981.554 7      5659.571    20123430.140    83813378.221 8      4401.888    20123430.080    83813378.223 8      4401.888
R18  20473342.060   109288085.615 7      3037.234    20473342.440   109288085.614 7      3037.234    20473352.680    85001889.271 8      2362.293    20473352.520    85001891.275 8      2362.293
G17  22503483.020   118256603.531 7      5371.336    22503481.500   118256603.533 6      5371.336    22503487.540    92148019.433 6      4185.457    22503487.920    92148021.430 7      4185.457
G08  22780236.500   119710944.234 7      -182.989    22780234.980   119710944.242 7      -182.989    22780250.360    93281305.407 7      -142.589    22780251.420    93281310.417 7      -142.589
R17  22412436.820   119933474.825 7      1070.887    22412436.660   119933474.848 7      1070.887    22412454.480    93281664.974 7       832.912    22412454.340    93281662.974 7       832.912
R02  23642470.000   126160760.352 7     -1126.153    23642470.740   126160760.345 6     -1126.153    23642481.760    98125082.751 6      -875.897    23642483.080    98125084.754 6      -875.897
G04  22483796.860   118153151.202 7      5627.919    22483796.120   118153151.207 5      5627.919    22483808.580    92067437.877 5      4385.391    22483808.960    92067445.887 8      4385.391
R16  23404278.440   125021447.085 6      -416.148    23404275.140   125021447.091 6      -416.148    23404300.620    97238987.340 7      -323.671    23404300.600    97238988.330 7      -323.671
G09  24282367.580   127604711.210 6      6254.395    24282367.020   127604711.215 6      6254.395    24282395.220    99432319.828 6      4873.554    24282395.560    99432359.843 7      4873.554
> 2025 04 04 17 44 46.0000000  0 14
G02  22826417.260   119953628.349 7      1512.755    22826415.500   119953628.356 5      1512.755    22826420.860    93470378.548 5      1178.770
G03  20054582.920   105387541.914 8      1886.806    20054582.260   105387541.921 8      1886.806    20054588.780    82120185.879 8      1470.238    20054589.660    82120190.877 8      1470.238
G14  22266365.300   117010520.511 6      2144.811    22266363.780   117010520.529 2      2144.811    22266371.900    91177048.733 2      1671.281    22266371.860    91177077.776 6      1671.281
R03  19902598.800   106540169.690 7      1707.530    19902598.960   106540169.721 7      1707.530    19902609.500    82864620.773 8      1328.079    19902609.500    82864619.778 8      1328.079
G01  21284232.300   111849392.232 7      2040.465    21284231.540   111849392.236 6      2040.465    21284236.380    87155388.962 6      1589.973    21284237.020    87155389.963 8      1589.973
R04  20122359.660   107754322.495 7      5658.732    20122359.860   107754322.529 7      5658.732    20122373.320    83808976.770 8      4401.236    20122373.240    83808976.770 8      4401.236
R18  20472773.180   109285048.668 7      3036.877    20472773.600   109285048.669 7      3036.877    20472783.960    84999527.207 8      2362.015    20472783.660    84999529.213 8      2362.015
G17  22502460.780   118251232.456 7      5370.939    22502459.520   118251232.461 6      5370.939    22502465.360    92143834.185 6      4185.148    22502465.600    92143836.183 7      4185.148
G08  22780271.140   119711127.512 7      -183.321    22780269.900   119711127.519 7      -183.321    22780285.320    93281448.214 7      -142.848    22780286.080    93281453.221 7      -142.848
R17  22412236.840   119932404.290 7      1070.255    22412236.700   119932404.310 7      1070.255    22412254.680    93280832.333 7       832.420    22412253.880    93280830.328 7       832.420
R02  23642681.060   126161886.796 7     -1126.622    23642682.000   126161886.781 6     -1126.622    23642692.780    98125958.861 6      -876.261    23642694.000    98125960.867 6      -876.261
G04  22482725.900   118147523.648 7      5627.441    22482725.380   118147523.655 5      5627.441    22482737.700    92063052.782 5      4385.019    22482737.960    92063060.790 8      4385.019
R16  23404356.400   125021863.386 6      -416.390    23404352.800   125021863.398 6      -416.390    23404378.380    97239311.111 6      -323.859    23404378.540    97239312.109 6      -323.859
G09  24281177.660   127598456.961 6      6254.374    24281176.600   127598456.963 6      6254.374    24281204.580    99427446.412 6      4873.538    24281204.500    99427486.443 7      4873.538
> 2025 04 04 17 44 47.0000000  0 14
G02  22826129.700   119952115.330 7      1512.908    22826127.800   119952115.337 5      1512.908    22826132.960    93469199.576 5      1178.889
G03  20054223.860   105385655.044 8      1886.582    20054223.140   105385655.048 8      1886.582    20054229.660    82118715.590 8      1470.064    20054230.560    82118720.586 8      1470.064
G14  22265956.980   117008375.836 6      2144.248    22265955.680   117008375.857 2      2144.248    22265963.780    91175377.560 2      1670.843    22265964.620    91175406.611 6      1670.843
R03  19902279.720   106538462.304 7      1706.931    19902280.160   106538462.335 7      1706.931    19902290.580    82863292.813 8      1327.613    19902290.520    82863291.812 8      1327.613
G01  21283843.960   111847351.475 7      2040.601    21283843.240   111847351.480 6      2040.601    21283847.960    87153798.764 6      1590.079    21283848.480    87153799.770 8      1590.079
R04  20121303.040   107748663.845 7      5658.287    20121303.080   107748663.876 7      5658.287    20121316.360    83804575.608 8      4400.890    20121316.440    83804575.608 8      4400.890
R18  20472204.200   109282011.628 7      3036.911    20472204.540   109282011.624 7      3036.911    20472214.920    84997165.067 8      2362.042    20472214.600    84997167.073 8      2362.042
G17  22501438.620   118245861.245 7      5371.111    22501437.280   118245861.250 6      5371.111    22501443.280    92139648.829 6      4185.281    22501443.320    92139650.830 7      4185.281
G08  22780306.380   119711310.797 7      -183.524    22780304.900   119711310.807 7      -183.524    22780320.040    93281591.032 7      -143.006    22780320.620    93281596.040 7      -143.006
R17  22412036.780   119931333.680 7      1070.446    22412036.620   119931333.695 7      1070.446    22412054.640    93279999.639 7       832.569    22412053.860    93279997.637 7       832.569
R02  23642892.260   126163013.194 7     -1126.519    23642893.100   126163013.195 6     -1126.519    23642904.000    98126834.959 6      -876.181    23642904.980    98126836.960 6      -876.181
G04  22481654.940   118141895.986 7      5627.582    22481654.560   118141895.988 5      5627.582    22481666.800    92058667.610 5      4385.129    22481666.980    92058675.619 8      4385.129
R16  23404434.240   125022279.458 6      -416.025    23404431.540   125022279.462 6      -416.025    23404456.580    97239634.692 7      -323.575    23404456.780    97239635.683 7      -323.575
G09  24279987.520   127592202.381 6      6254.519    24279986.320   127592202.388 6      6254.519    24280014.040    99422572.738 6      4873.651    24280014.260    99422612.751 6      4873.651
> 2025 04 04 17 44 48.0000000  0 14
G02  22825841.700   119950602.229 7      1513.045    22825839.700   119950602.236 5      1513.045    22825845.000    93468020.538 5      1178.996
G03  20053864.780   105383768.512 8      1886.288    20053864.180   105383768.514 8      1886.288    20053870.620    82117245.570 8      1469.834    20053871.540    82117250.570 8      1469.834
G14  22265548.820   117006231.514 6      2144.027    22265547.600   117006231.537 2      2144.027    22265555.560    91173706.663 2      1670.670    22265555.200    91173735.706 6      1670.670
R03  19901960.960   106536755.623 7      1706.227    19901961.040   106536755.651 7      1706.227    19901971.800    82861965.398 8      1327.065    19901971.660    82861964.399 8      1327.065
G01  21283455.580   111845310.682 7      2040.661    21283454.900   111845310.690 6      2040.661    21283459.680    87152208.540 6      1590.125    21283460.080    87152209.546 8      1590.125
R04  20120246.480   107743005.739 8      5657.699    20120246.500   107743005.772 7      5657.699    20120259.860    83800174.873 8      4400.432    20120259.780    83800174.877 8      4400.432
R18  20471635.480   109278974.676 7      3036.770    20471635.600   109278974.671 7      3036.770    20471646.040    84994802.993 8      2361.932    20471645.820    84994804.995 8      2361.932
G17  22500416.240   118240490.078 7      5371.107    22500415.220   118240490.081 6      5371.107    22500421.020    92135463.515 6      4185.278    22500421.240    92135465.514 7      4185.278
G08  22780341.120   119711494.189 7      -183.527    22780339.800   119711494.194 7      -183.527    22780354.840    93281733.925 7      -143.008    22780355.500    93281738.933 7      -143.008
R17  22411836.500   119930263.226 7      1070.261    22411836.520   119930263.241 7      1070.261    22411854.600    93279167.061 7       832.425    22411853.780    93279165.064 7       832.425
R02  23643103.420   126164139.832 7     -1126.858    23643104.520   126164139.817 6     -1126.858    23643115.080    98127711.233 6      -876.445    23643115.700    98127713.226 6      -876.445
G04  22480584.140   118136268.431 7      5627.396    22480583.640   118136268.434 5      5627.396    22480596.040    92054282.519 5      4384.984    22480596.460    92054290.524 8      4384.984
R16  23404512.100   125022695.447 6      -415.869    23404509.940   125022695.445 6      -415.869    23404534.400    97239958.214 7      -323.454    23404534.260    97239959.201 7      -323.454
G09  24278796.800   127585947.588 6      6254.795    24278796.080   127585947.590 6      6254.795    24278823.660    99417698.892 6      4873.866    24278823.600    99417738.907 6      4873.866
> 2025 04 04 17 44 49.0000000  0 14
G02  22825553.620   119949089.262 7      1513.069    22825551.680   119949089.270 5      1513.069    22825557.140    93466841.609 5      1179.015
G03  20053505.900   105381882.559 8      1885.786    20053505.280   105381882.561 8      1885.786    20053511.760    82115776.000 8      1469.443    20053512.600    82115780.998 8      1469.443
G14  22265141.640   117004087.879 6      2143.466    22265139.740   117004087.903 2      2143.466    22265147.620    91172036.301 2      1670.234    22265147.200    91172065.340 6      1670.234
R03  19901642.460   106535049.875 8      1705.431    19901642.580   106535049.895 7      1705.431    19901653.280    82860638.703 8      1326.447    19901653.040    82860637.704 8      1326.447
G01  21283067.480   111843270.071 7      2040.675    21283066.500   111843270.075 6      2040.675    21283071.380    87150618.457 6      1590.136    21283071.960    87150619.467 8      1590.136
R04  20119189.980   107737348.398 8      5657.076    20119189.920   107737348.413 7      5657.076    20119203.420    83795774.715 8      4399.948    20119203.280    83795774.717 8      4399.948
R18  20471066.780   109275938.012 7      3036.708    20471066.520   109275938.010 7      3036.708    20471077.160    84992441.149 8      2361.884    20471076.980    84992443.151 8      2361.884
G17  22499394.400   118235119.177 7      5370.934    22499393.280   118235119.180 6      5370.934    22499399.080    92131278.404 5      4185.143    22499399.320    92131280.404 7      4185.143
G08  22780376.060   119711677.945 7      -183.715    22780374.680   119711677.950 7      -183.715    22780389.920    93281877.109 7      -143.155    22780390.520    93281882.113 7      -143.155
R17  22411636.540   119929193.106 7      1070.090    22411636.960   119929193.116 7      1070.090    22411654.480    93278334.740 7       832.292    22411654.020    93278332.734 7       832.292
R02  23643314.540   126165266.828 7     -1127.075    23643315.300   126165266.812 6     -1127.075    23643325.940    98128587.797 6      -876.614    23643327.180    98128589.803 6      -876.614
G04  22479513.300   118130641.132 7      5627.346    22479512.700   118130641.137 5      5627.346    22479525.240    92049897.628 5      4384.945    22479525.200    92049905.636 8      4384.945
R16  23404589.840   125023111.607 6      -416.004    23404587.640   125023111.613 6      -416.004    23404612.300    97240281.877 7      -323.559    23404612.220    97240282.862 7      -323.559
G09  24277607.060   127579692.801 6      6254.912    24277605.960   127579692.800 6      6254.912    24277633.520    99412825.056 6      4873.958    24277633.960    99412865.060 6      4873.958
> 2025 04 04 17 44 50.0000000  0 14
G02  22825265.600   119947576.414 7      1512.733    22825263.580   119947576.424 5      1512.733    22825269.180    93465662.768 5      1178.753
G03  20053147.000   105379997.133 8      1885.002    20053146.500   105379997.133 8      1885.002    20053153.000    82114306.844 8      1468.832    20053153.840    82114311.844 8      1468.832
G14  22264733.620   117001944.829 6      2142.567    22264731.840   117001944.852 2      2142.567    22264739.900    91170366.394 2      1669.533    22264739.300    91170395.422 6      1669.533
R03  19901323.720   106533345.040 7      1704.219    19901324.240   106533345.060 7      1704.219    19901334.780    82859312.724 8      1325.504    19901334.460    82859311.723 8      1325.504
G01  21282679.200   111841229.645 7      2040.101    21282678.160   111841229.653 6      2040.101    21282683.200    87149028.517 6      1589.689    21282683.660    87149029.523 8      1589.689
R04  20118133.580   107731691.777 7      5656.050    20118133.720   107731691.800 7      5656.050    20118147.240    83791375.136 8      4399.150    20118147.020    83791375.138 8      4399.150
R18  20470497.940   109272901.623 7      3036.126    20470497.580   109272901.621 7      3036.126    20470508.360    84990079.517 8      2361.431    20470508.280    84990081.521 8      2361.431
G17  22498372.600   118229748.497 7      5370.469    22498371.260   118229748.494 5      5370.469    22498377.060    92127093.462 5      4184.781    22498377.660    92127095.458 7      4184.781
G08  22780411.000   119711862.042 7      -184.373    22780409.900   119711862.044 7      -184.373    22780424.880    93282020.553 7      -143.667    22780425.440    93282025.564 7      -143.667
R17  22411436.440   119928123.320 7      1069.462    22411437.040   119928123.330 7      1069.462    22411454.940    93277502.676 7       831.804    22411454.040    93277500.674 7       831.804
R02  23643525.980   126166394.168 7     -1127.671    23643526.360   126166394.152 6     -1127.671    23643537.220    98129464.626 6      -877.078    23643538.120    98129466.629 6      -877.078
G04  22478442.680   118125014.124 7      5626.778    22478441.820   118125014.131 5      5626.778    22478454.540    92045512.965 5      4384.502    22478454.720    92045520.973 8      4384.502
R16  23404668.060   125023527.919 6      -416.453    23404665.280   125023527.923 6      -416.453    23404689.600    97240605.652 7      -323.908    23404690.200    97240606.638 7      -323.908
G09  24276416.880   127573437.989 6      6254.718    24276415.780   127573437.984 6      6254.718    24276443.500    99407951.193 6      4873.806    24276443.920    99407991.206 6      4873.806
> 2025 04 04 17 44 51.0000000  0 14
G02  22824977.620   119946063.623 7      1513.050    22824975.560   119946063.633 5      1513.050    22824981.460    93464483.970 5      1179.000
G03  20052788.440   105378112.181 8      1884.937    20052787.820   105378112.186 8      1884.937    20052794.320    82112838.058 8      1468.782    20052795.260    82112843.056 8      1468.782
G14  22264326.120   116999802.272 6      2142.573    22264324.220   116999802.293 2      2142.573    22264332.220    91168696.871 2      1669.538    22264332.020    91168725.908 6      1669.538
R03  19901005.660   106531641.029 8      1703.845    19901005.880   106531641.058 7      1703.845    19901016.480    82857987.397 8      1325.213    19901016.380    82857986.394 8      1325.213
G01  21282290.900   111839189.278 7      2040.548    21282290.100   111839189.285 6      2040.548    21282295.000    87147438.625 6      1590.037    21282295.280    87147439.632 8      1590.037
R04  20117077.480   107726035.799 7      5655.852    20117077.640   107726035.830 7      5655.852    20117090.960    83786976.056 8      4398.996    20117090.720    83786976.060 8      4398.996
R18  20469929.140   109269865.420 7      3036.336    20469928.600   109269865.413 7      3036.336    20469939.640    84987718.025 8      2361.594    20469939.480    84987720.031 8      2361.594
G17  22497350.520   118224377.972 7      5370.659    22497349.300   118224377.971 6      5370.659    22497355.160    92122908.647 6      4184.929    22497355.440    92122910.652 7      4184.929
G08  22780446.000   119712046.394 7      -184.340    22780445.060   119712046.404 7      -184.340    22780459.760    93282164.204 7      -143.641    22780460.760    93282169.210 7      -143.641
R17  22411236.920   119927053.781 7      1069.663    22411237.040   119927053.788 7      1069.663    22411254.880    93276670.806 7       831.960    22411254.220    93276668.804 7       831.960
R02  23643737.480   126167521.782 7     -1127.574    23643738.160   126167521.772 6     -1127.574    23643748.400    98130341.672 6      -877.002    23643749.420    98130343.686 6      -877.002
G04  22477371.860   118119387.329 7      5626.945    22477370.900   118119387.334 5      5626.945    22477383.640    92041128.462 5      4384.632    22477383.700    92041136.461 8      4384.632
R16  23404746.100   125023944.300 6      -416.163    23404743.140   125023944.301 6      -416.163    23404767.600    97240929.494 7      -323.682    23404768.120    97240930.480 7      -323.682
G09  24275226.700   127567183.097 6      6255.165    24275225.500   127567183.099 6      6255.165    24275253.280    99403077.275 6      4874.155    24275253.400    99403117.288 6      4874.155
> 2025 04 04 17 44 52.0000000  0 14
G02  22824689.780   119944550.730 7      1512.859    22824687.820   119944550.732 5      1512.859    22824693.700    93463305.090 5      1178.851
G03  20052429.980   105376227.560 8      1884.347    20052429.160   105376227.562 8      1884.347    20052435.640    82111369.524 8      1468.322    20052436.480    82111374.522 8      1468.322
G14  22263918.360   116997660.157 6      2141.782    22263916.660   116997660.177 2      2141.782    22263924.600    91167027.696 2      1668.921    22263924.300    91167056.735 6      1668.921
R03  19900687.280   106529937.744 8      1702.843    19900687.820   106529937.772 7      1702.843    19900698.280    82856662.622 8      1324.434    19900698.040    82856661.621 8      1324.434
G01  21281902.640   111837148.887 7      2040.269    21281901.720   111837148.894 6      2040.269    21281906.680    87145848.716 6      1589.820    21281907.260    87145849.721 8      1589.820
R04  20116021.540   107720380.343 7      5655.113    20116021.620   107720380.374 7      5655.113    20116034.820    83782577.377 8      4398.421    20116034.740    83782577.379 8      4398.421
R18  20469360.520   109266829.279 7      3035.965    20469360.120   109266829.278 7      3035.965    20469370.780    84985356.592 8      2361.306    20469370.700    84985358.596 8      2361.306
G17  22496328.540   118219007.465 7      5370.390    22496327.260   118219007.469 6      5370.390    22496333.000    92118723.843 6      4184.720    22496333.320    92118725.845 7      4184.720
G08  22780481.160   119712230.840 7      -184.549    22780480.140   119712230.845 7      -184.549    22780495.020    93282307.918 7      -143.804    22780495.900    93282312.927 7      -143.804
R17  22411036.740   119925984.327 7      1069.314    22411037.280   119925984.337 7      1069.314    22411054.940    93275839.004 7       831.689    22411054.500    93275837.007 7       831.689
R02  23643949.060   126168649.501 7     -1127.880    23643948.900   126168649.480 6     -1127.880    23643959.780    98131218.780 6      -877.240    23643960.680    98131220.792 6      -877.240
G04  22476301.360   118113760.568 7      5626.655    22476300.120   118113760.575 5      5626.655    22476312.800    92036743.987 5      4384.407    22476313.040    92036751.993 8      4384.407
R16  23404824.120   125024360.602 6      -416.314    23404820.920   125024360.627 6      -416.314    23404845.920    97241253.266 7      -323.800    23404846.040    97241254.259 7      -323.800
G09  24274035.900   127560927.960 6      6255.301    24274034.920   127560927.967 6      6255.301    24274062.880    99398203.167 6      4874.260    24274063.500    99398243.182 7      4874.260
> 2025 04 04 17 44 53.0000000  0 14
G02  22824402.000   119943037.815 7      1512.986    22824399.860   119943037.820 5      1512.986    22824405.780    93462126.202 5      1178.950
G03  20052071.300   105374343.338 8      1884.145    20052070.660   105374343.340 8      1884.145    20052077.120    82109901.303 8      1468.165    20052077.720    82109906.299 8      1468.165
G14  22263510.740   116995518.496 6      2141.418    22263509.140   116995518.519 2      2141.418    22263517.180    91165358.870 2      1668.637    22263517.140    91165387.919 6      1668.637
R03  19900369.420   106528235.235 8      1702.175    19900369.700   106528235.255 7      1702.175    19900380.340    82855338.444 8      1323.914    19900380.020    82855337.441 8      1323.914
G01  21281514.380   111835108.506 7      2040.367    21281513.600   111835108.514 6      2040.367    21281518.420    87144258.815 6      1589.896    21281518.900    87144259.819 8      1589.896
R04  20114965.260   107714725.476 7      5654.640    20114965.560   107714725.507 7      5654.640    20114978.720    83778179.163 8      4398.053    20114978.360    83778179.170 8      4398.053
R18  20468791.520   109263793.301 7      3035.893    20468791.160   109263793.294 7      3035.893    20468802.020    84982995.276 8      2361.250    20468801.820    84982997.280 8      2361.250
G17  22495306.600   118213637.068 7      5370.340    22495305.260   118213637.070 6      5370.340    22495310.960    92114539.126 6      4184.680    22495311.160    92114541.123 7      4184.680
G08  22780516.420   119712415.508 7      -184.720    22780515.220   119712415.512 7      -184.720    22780530.140    93282451.811 7      -143.938    22780530.920    93282456.815 7      -143.938
R17  22410836.900   119924915.050 7      1069.199    22410837.600   119924915.060 7      1069.199    22410855.240    93275007.346 7       831.600    22410854.600    93275005.344 7       831.600
R02  23644160.260   126169777.414 7     -1127.990    23644160.220   126169777.399 6     -1127.990    23644171.440    98132096.048 6      -877.325    23644172.380    98132098.052 6      -877.325
G04  22475230.520   118108133.938 7      5626.732    22475229.300   118108133.946 5      5626.732    22475242.060    92032359.615 5      4384.466    22475242.300    92032367.622 8      4384.466
R16  23404902.220   125024776.941 6      -416.295    23404898.860   125024776.960 6      -416.295    23404923.920    97241577.058 7      -323.785    23404923.780    97241578.045 7      -323.785
G09  24272845.520   127554672.725 6      6255.289    24272844.480   127554672.730 6      6255.289    24272872.640    99393328.977 6      4874.251    24272872.760    99393368.988 7      4874.251
> 2025 04 04 17 44 54.0000000  0 14
G02  22824114.200   119941524.977 7      1512.880    22824112.060   119941524.980 5      1512.880    22824117.960    93460947.366 5      1178.868
G03  20051712.860   105372459.621 8      1883.581    20051712.080   105372459.625 8      1883.581    20051718.680    82108433.475 8      1467.726    20051719.300    82108438.473 8      1467.726
G14  22263102.740   116993377.395 6      2140.861    22263101.660   116993377.418 2      2140.861    22263109.540    91163690.481 2      1668.203    22263109.220    91163719.516 6      1668.203
R03  19900051.660   106526533.542 7      1701.460    19900051.900   106526533.560 7      1701.460    19900062.480    82854014.907 8      1323.357    19900062.160    82854013.902 8      1323.357
G01  21281126.120   111833068.234 7      2040.391    21281125.300   111833068.236 6      2040.391    21281130.160    87142668.992 6      1589.915    21281130.720    87142669.994 8      1589.915
R04  20113909.240   107709071.281 7      5654.033    20113909.720   107709071.310 7      5654.033    20113922.940    83773781.463 8      4397.581    20113922.720    83773781.463 8      4397.581
R18  20468223.160   109260757.529 7      3035.783    20468222.420   109260757.527 7      3035.783    20468233.300    84980634.121 8      2361.165    20468233.360    84980636.128 8      2361.165
G17  22494284.520   118208266.837 7      5370.229    22494283.360   118208266.836 6      5370.229    22494289.260    92110354.533 6      4184.594    22494289.520    92110356.533 7      4184.594
G08  22780551.540   119712600.432 7      -184.931    22780550.440   119712600.445 7      -184.931    22780565.480    93282595.906 7      -144.102    22780566.140    93282600.912 7      -144.102
R17  22410637.520   119923846.041 7      1069.061    22410637.760   119923846.039 7      1069.061    22410655.600    93274175.880 7       831.492    22410655.120    93274173.884 7       831.492
R02  23644371.880   126170905.621 7     -1128.183    23644371.500   126170905.609 6     -1128.183    23644382.440    98132973.557 6      -877.476    23644383.800    98132975.565 6      -877.476
G04  22474160.060   118102507.548 7      5626.498    22474158.500   118102507.555 5      5626.498    22474171.500    92027975.431 5      4384.284    22474171.620    92027983.439 8      4384.284
R16  23404979.940   125025193.338 6      -416.293    23404977.420   125025193.358 6      -416.293    23405001.600    97241900.891 7      -323.783    23405001.900    97241901.891 7      -323.783
G09  24271655.020   127548417.368 6      6255.501    24271654.080   127548417.372 6      6255.501    24271682.420    99388454.707 6      4874.417    24271682.500    99388494.722 7      4874.417
> 2025 04 04 17 44 55.0000000  0 14
G02  22823826.040   119940012.037 7      1512.948    22823824.080   119940012.039 5      1512.948    22823830.140    93459768.451 5      1178.921
G03  20051354.260   105370576.229 8      1883.132    20051353.800   105370576.234 8      1883.132    20051360.140    82106965.904 8      1467.376    20051361.040    82106970.900 8      1467.376
G14  22262695.000   116991236.685 6      2140.354    22262694.300   116991236.703 2      2140.354    22262702.260    91162022.396 2      1667.808    22262701.920    91162051.428 6      1667.808
R03  19899733.900   106524832.551 8      1700.535    19899734.100   106524832.576 7      1700.535    19899744.580    82852691.924 8      1322.638    19899744.140    82852690.925 8      1322.638
G01  21280737.660   111831027.937 7      2040.231    21280736.920   111831027.940 6      2040.231    21280742.020    87141079.151 6      1589.791    21280742.260    87141080.152 8      1589.791
R04  20112853.420   107703417.590 7      5653.379    20112853.860   107703417.627 7      5653.379    20112867.060    83769384.162 8      4397.073    20112866.700    83769384.162 8      4397.073
R18  20467654.300   109257721.794 7      3035.642    20467653.840   109257721.792 7      3035.642    20467664.520    84978272.998 8      2361.055    20467664.580    84978274.998 8      2361.055
G17  22493262.660   118202896.621 7      5370.152    22493261.480   118202896.621 6      5370.152    22493267.320    92106169.957 5      4184.534    22493267.560    92106171.958 7      4184.534
G08  22780586.640   119712785.507 7      -185.317    22780585.680   119712785.519 7      -185.317    22780600.460    93282740.116 7      -144.403    22780601.040    93282745.120 7      -144.403
R17  22410437.620   119922777.189 7      1068.741    22410437.880   119922777.198 7      1068.741    22410455.440    93273344.553 7       831.243    22410455.380    93273342.557 7       831.243
R02  23644583.480   126172034.026 7     -1128.447    23644583.200   126172034.016 6     -1128.447    23644593.860    98133851.224 6      -877.681    23644595.160    98133853.229 6      -877.681
G04  22473089.200   118096881.226 7      5626.299    22473088.000   118096881.233 5      5626.299    22473100.780    92023591.298 5      4384.129    22473100.960    92023599.306 8      4384.129
R16  23405058.340   125025609.650 6      -416.330    23405055.360   125025609.659 6      -416.330    23405080.080    97242224.679 7      -323.812    23405080.040    97242225.677 7      -323.812
G09  24270464.900   127542161.821 6      6255.603    24270463.780   127542161.823 6      6255.603    24270492.240    99383580.282 6      4874.496    24270492.040    99383620.293 7      4874.496
> 2025 04 04 17 44 56.0000000  0 14
G02  22823538.380   119938499.102 7      1513.026    22823536.320   119938499.109 5      1513.026    22823542.200    93458589.546 5      1178.981
G03  20050996.180   105368693.255 8      1882.864    20050995.400   105368693.263 8      1882.864    20051001.900    82105498.662 8      1467.167    20051002.640    82105503.660 8      1467.167
G14  22262287.500   116989096.451 6      2140.161    22262287.100   116989096.464 2      2140.161    22262294.840    91160354.685 2      1667.658    22262295.380    91160383.707 6      1667.658
R03  19899416.280   106523132.354 7      1699.945    19899416.560   106523132.380 7      1699.945    19899426.880    82851369.555 8      1322.179    19899426.760    82851368.554 8      1322.179
G01  21280349.440   111828987.659 7      2040.489    21280348.560   111828987.664 6      2040.489    21280353.720    87139489.328 6      1589.991    21280354.220    87139490.336 8      1589.991
R04  20111797.680   107697764.501 7      5652.899    20111798.340   107697764.532 7      5652.899    20111811.280    83764987.323 8      4396.700    20111811.280    83764987.325 8      4396.700
R18  20467085.360   109254686.213 7      3035.586    20467084.780   109254686.211 7      3035.586    20467095.800    84975911.999 8      2361.011    20467095.780    84975914.001 8      2361.011
G17  22492240.640   118197526.540 7      5370.165    22492239.660   118197526.540 6      5370.165    22492245.440    92101985.480 6      4184.544    22492245.580    92101987.479 7      4184.544
G08  22780621.960   119712970.760 7      -185.214    22780620.880   119712970.770 7      -185.214    22780635.560    93282884.463 7      -144.322    22780636.200    93282889.475 7      -144.322
R17  22410238.380   119921708.551 7      1068.679    22410238.160   119921708.563 7      1068.679    22410255.840    93272513.398 7       831.194    22410255.460    93272511.405 7       831.194
R02  23644794.540   126173162.692 7     -1128.591    23644793.920   126173162.676 6     -1128.591    23644806.000    98134729.060 6      -877.793    23644806.600    98134731.074 6      -877.793
G04  22472018.500   118091255.067 7      5626.189    22472017.340   118091255.069 5      5626.189    22472030.220    92019207.286 5      4384.044    22472030.060    92019215.300 8      4384.044
R16  23405135.880   125026025.954 6      -416.211    23405133.600   125026025.969 6      -416.211    23405157.800    97242548.453 7      -323.720    23405157.860    97242549.446 7      -323.720
G09  24269274.380   127535906.134 6      6255.788    24269273.380   127535906.145 6      6255.788    24269302.040    99378705.758 6      4874.640    24269302.160    99378745.783 7      4874.640
> 2025 04 04 17 44 57.0000000  0 14
G02  22823250.260   119936986.082 7      1513.061    22823248.380   119936986.082 5      1513.061    22823254.400    93457410.570 5      1179.009
G03  20050638.080   105366810.599 8      1882.577    20050637.120   105366810.604 8      1882.577    20050643.560    82104031.659 8      1466.943    20050644.480    82104036.659 8      1466.943
G14  22261880.320   116986956.614 6      2139.665    22261879.900   116986956.626 2      2139.665    22261887.640    91158687.279 2      1667.272    22261887.360    91158716.304 6      1667.272
R03  19899098.900   106521432.864 7      1699.153    19899099.360   106521432.893 7      1699.153    19899109.360    82850047.734 8      1321.563    19899109.160    82850046.735 8      1321.563
G01  21279961.320   111826947.355 7      2040.320    21279960.420   111826947.360 6      2040.320    21279965.360    87137899.487 6      1589.860    21279965.960    87137900.496 8      1589.860
R04  20110742.620   107692111.878 8      5652.417    20110742.580   107692111.906 7      5652.417    20110755.800    83760590.845 8      4396.324    20110755.640    83760590.851 8      4396.324
R18  20466516.880   109251650.697 7      3035.469    20466516.380   109251650.695 7      3035.469    20466526.960    84973551.046 8      2360.920    20466527.240    84973553.048 8      2360.920
G17  22491218.920   118192156.448 7      5370.117    22491217.760   118192156.443 6      5370.117    22491223.440    92097800.999 6      4184.506    22491223.760    92097803.000 7      4184.506
G08  22780657.240   119713156.158 7      -185.498    22780656.260   119713156.168 7      -185.498    22780670.860    93283028.924 7      -144.544    22780671.620    93283033.928 7      -144.544
R17  22410038.400   119920639.988 7      1068.598    22410038.560   119920640.000 7      1068.598    22410056.500    93271682.292 7       831.132    22410056.100    93271680.292 7       831.132
R02  23645006.020   126174291.454 7     -1128.855    23645006.140   126174291.449 6     -1128.855    23645017.400    98135606.982 6      -877.998    23645018.100    98135608.994 6      -877.998
G04  22470947.760   118085628.955 7      5625.983    22470946.620   118085628.962 5      5625.983    22470959.580    92014823.321 5      4383.883    22470959.480    92014831.335 8      4383.883
R16  23405214.060   125026442.152 6      -416.214    23405211.180   125026442.163 6      -416.214    23405235.840    97242872.137 7      -323.722    23405236.060    97242873.132 7      -323.722
G09  24268084.060   127529650.207 6      6256.160    24268082.900   127529650.209 6      6256.160    24268111.680    99373831.033 6      4874.930    24268111.320    99373871.052 7      4874.930
> 2025 04 04 17 44 58.0000000  0 14
G02  22822962.440   119935473.071 7      1512.867    22822960.640   119935473.065 5      1512.867    22822966.320    93456231.600 5      1178.857
G03  20050279.880   105364928.406 8      1881.959    20050278.920   105364928.408 8      1881.959    20050285.440    82102565.021 8      1466.461    20050286.180    82102570.019 8      1466.461
G14  22261473.680   116984817.283 6      2138.895    22261472.820   116984817.299 2      2138.895    22261480.420    91157020.273 2      1666.672    22261480.640    91157049.306 6      1666.672
R03  19898781.600   106519734.220 7      1698.127    19898782.180   106519734.246 7      1698.127    19898792.040    82848726.566 8      1320.765    19898792.220    82848725.565 8      1320.765
G01  21279573.060   111824907.116 7      2040.020    21279572.120   111824907.124 6      2040.020    21279577.000    87136309.696 6      1589.626    21279577.740    87136310.698 8      1589.626
R04  20109687.080   107686459.876 8      5651.568    20109687.120   107686459.912 7      5651.568    20109700.340    83756194.858 8      4395.664    20109700.220    83756194.864 8      4395.664
R18  20465948.240   109248615.370 7      3035.134    20465947.580   109248615.371 7      3035.134    20465958.340    84971190.243 8      2360.659    20465958.340    84971192.245 8      2360.659
G17  22490197.040   118186786.504 7      5369.865    22490195.740   118186786.501 6      5369.865    22490201.580    92093616.633 6      4184.310    22490202.100    92093618.634 7      4184.310
G08  22780692.900   119713341.765 7      -185.834    22780691.700   119713341.776 7      -185.834    22780706.220    93283173.548 7      -144.806    22780706.940    93283178.554 7      -144.806
R17  22409838.720   119919571.631 7      1068.119    22409839.040   119919571.654 7      1068.119    22409856.660    93270851.352 7       830.759    22409856.340    93270849.354 7       830.759
R02  23645217.560   126175420.426 7     -1129.183    23645217.540   126175420.422 6     -1129.183    23645229.760    98136485.082 6      -878.253    23645229.640    98136487.096 6      -878.253
G04  22469877.280   118080002.995 7      5625.800    22469875.980   118080003.000 5      5625.800    22469889.000    92010439.473 5      4383.740    22469889.140    92010447.485 8      4383.740
R16  23405291.500   125026858.373 6      -416.368    23405289.160   125026858.382 6      -416.368    23405314.120    97243195.844 7      -323.842    23405314.140    97243196.833 7      -323.842
G09  24266893.580   127523394.210 6      6255.999    24266892.420   127523394.202 6      6255.999    24266921.040    99368956.256 6      4874.805    24266921.100    99368996.265 7      4874.805
> 2025 04 04 17 44 59.0000000  0 14
G02  22822674.720   119933960.167 7      1512.801    22822672.640   119933960.170 5      1512.801    22822678.400    93455052.719 5      1178.806
G03  20049921.940   105363046.756 8      1881.322    20049920.920   105363046.761 8      1881.322    20049927.380    82101098.805 8      1465.965    20049927.920    82101103.805 8      1465.965
G14  22261067.080   116982678.565 6      2138.322    22261065.760   116982678.578 2      2138.322    22261073.260    91155353.744 2      1666.225    22261074.200    91155382.768 6      1666.225
R03  19898464.120   106518036.481 8      1697.191    19898465.120   106518036.506 7      1697.191    19898475.040    82847406.109 8      1320.037    19898474.760    82847405.110 8      1320.037
