     3.05           OBSERVATION DATA    MIXED               RINEX VERSION / TYPE
TPS2RIN 1.0.28.3459 TPS-USER            20250407 105132 UTC PGM / RUN BY / DATE
Win64 build Jun 01, 2022 (c) Topcon Positioning Systems     COMMENT
SRC: 20250404_grav_20250404_212005.tps                      COMMENT
Observer            Agency                                  OBSERVER / AGENCY
O0M3X53SBGM         TPS HIPER_SR        4.8 HSR Jul,08,2022 REC # / TYPE / VERS
FW: 4.8 HSR Jul,08,2022 p3                                  COMMENT
SN: HiPer SR 1212-12575                                     COMMENT
000                 TPSHIPER_SR     NONE                    ANT # / TYPE
        1.8000        0.0000        0.0000                  ANTENNA: DELTA H/E/N
DELTA H stands for **SLANT** height here!                   COMMENT
ORO00                                                       MARKER NAME
  5381859.6207 -1598802.6493  3016694.4524                  APPROX POSITION XYZ
  2025     4     4    19    20   31.0000000     GPS         TIME OF FIRST OBS
  2025     4     4    19    37    4.0000000     GPS         TIME OF LAST OBS
     1.000                                                  INTERVAL
   994 EPOCHS                                               COMMENT
G   12 C1C L1C D1C C1W L1W D1W C2W L2W D2W C2X L2X D2X      SYS / # / OBS TYPES
R   12 C1C L1C D1C C1P L1P D1P C2P L2P D2P C2C L2C D2C      SYS / # / OBS TYPES
    10                                                      # OF SATELLITES
   G01   994   994   994   994   994   994   994   994   994PRN / # OF OBS
         994   994   994                                    PRN / # OF OBS
   G03   994   994   994   994   994   994   994   994   994PRN / # OF OBS
         994   994   994                                    PRN / # OF OBS
   G04   994   994   994   994   994   994   994   994   994PRN / # OF OBS
         994   994   994                                    PRN / # OF OBS
   G06   693   693   693   693   693   693   693   693   693PRN / # OF OBS
         686   686   686                                    PRN / # OF OBS
   G09   994   994   994   994   994   994   994   994   994PRN / # OF OBS
         994   994   994                                    PRN / # OF OBS
   G17   994   994   994   994   994   994   994   994   994PRN / # OF OBS
         994   994   994                                    PRN / # OF OBS
   G19   994   994   994   994   994   994   994   994   994PRN / # OF OBS
           0     0     0                                    PRN / # OF OBS
   R04   994   994   994   994   994   994   994   994   994PRN / # OF OBS
         994   994   994                                    PRN / # OF OBS
   R05   994   994   994   994   994   994   994   994   994PRN / # OF OBS
         994   994   994                                    PRN / # OF OBS
   R18   985   985   985   985   985   985   985   985   985PRN / # OF OBS
         985   985   985                                    PRN / # OF OBS
G L1C                                                       SYS / PHASE SHIFT
G L1W -0.25000                                              SYS / PHASE SHIFT
G L2W  0.00000                                              SYS / PHASE SHIFT
G L2X  0.25000                                              SYS / PHASE SHIFT
R L1C                                                       SYS / PHASE SHIFT
R L1P -0.25000                                              SYS / PHASE SHIFT
R L2P -0.25000                                              SYS / PHASE SHIFT
R L2C                                                       SYS / PHASE SHIFT
  3 R04  6 R05  1 R18 -3                                    GLONASS SLOT / FRQ #
                                                            GLONASS COD/PHS/BIS
    18                  GPS                                 LEAP SECONDS
                                                            END OF HEADER
> 2025 04 04 19 20 31.0000000  0  9
G03  21946353.820   115328863.644 7       216.058    21946353.100   115328863.646 7       216.058    21946360.300    89866674.793 7       168.357    21946359.860    89866674.789 8       168.357
G17  20585960.300   108179950.872 7      2862.217    20585959.260   108179950.871 6      2862.217    20585962.180    84296074.783 6      2230.299    20585962.460    84296075.786 8      2230.299
R04  19434728.860   104072089.989 8       848.372    19434730.580   104072090.031 8       848.372    19434737.600    80944997.614 8       659.845    19434737.840    80945000.613 8       659.845
G04  20515042.860   107807279.963 7      2689.710    20515041.960   107807279.968 6      2689.710    20515047.820    84005691.428 6      2095.878    20515047.720    84005693.431 8      2095.878
G09  20748226.680   109032669.089 7      4780.342    20748225.140   109032669.094 7      4780.342    20748232.860    84960546.601 7      3724.942    20748233.940    84960547.602 8      3724.942
R05  19829583.280   106000484.892 7      4753.067    19829582.420   106000484.890 7      4753.067    19829592.400    82444863.930 8      3696.830    19829592.420    82444862.931 8      3696.830
G19  21112797.680   110948499.921 7      4801.622    21112796.480   110948499.926 6      4801.622    21112799.320    86453384.613 6      3741.524
R18  21177457.160   113046701.657 7       582.150    21177458.160   113046701.655 7       582.150    21177469.860    87925268.585 7       452.783    21177470.180    87925270.581 7       452.783
G01  22384505.620   117631367.354 7       971.497    22384504.720   117631367.351 5       971.497    22384512.360    91660837.780 5       757.011    22384512.600    91660836.788 8       757.011
> 2025 04 04 19 20 32.0000000  0  9
G03  21946312.460   115328647.168 7       216.836    21946311.900   115328647.173 7       216.836    21946319.160    89866506.123 7       168.963    21946318.820    89866506.119 7       168.963
G17  20585415.420   108177088.357 7      2862.585    20585414.420   108177088.361 7      2862.585    20585417.580    84293844.270 7      2230.586    20585418.000    84293845.271 8      2230.586
R04  19434570.440   104071241.395 8       848.702    19434572.040   104071241.434 7       848.702    19434579.040    80944337.607 8       660.102    19434579.580    80944340.604 8       660.102
G04  20514530.980   107804590.026 7      2690.023    20514530.080   107804590.036 6      2690.023    20514535.800    84003595.394 6      2096.122    20514535.980    84003597.400 8      2096.122
G09  20747316.880   109027888.426 7      4780.743    20747315.460   109027888.436 7      4780.743    20747323.120    84956821.433 7      3725.254    20747324.000    84956822.434 7      3725.254
R05  19828694.260   105995731.614 7      4753.312    19828693.620   105995731.610 7      4753.312    19828703.120    82441166.954 8      3697.021    19828703.240    82441165.955 8      3697.021
G19  21111884.060   110943698.112 7      4802.033    21111882.700   110943698.114 6      4802.033    21111885.620    86449642.959 6      3741.844
R18  21177347.860   113046119.159 7       582.616    21177348.960   113046119.159 7       582.616    21177360.980    87924815.544 7       453.146    21177361.280    87924817.540 7       453.146
G01  22384320.520   117630395.477 7       972.120    22384319.760   117630395.471 5       972.120    22384327.520    91660080.486 5       757.496    22384327.520    91660079.495 8       757.496
> 2025 04 04 19 20 33.0000000  0  9
G03  21946271.120   115328429.893 7       217.584    21946270.500   115328429.898 7       217.584    21946277.860    89866336.830 7       169.546    21946277.480    89866336.824 7       169.546
G17  20584870.540   108174225.589 8      2862.798    20584869.760   108174225.589 7      2862.798    20584872.680    84291613.550 6      2230.751    20584873.020    84291614.554 8      2230.751
R04  19434411.760   104070392.602 8       848.766    19434413.880   104070392.639 8       848.766    19434420.500    80943677.448 8       660.151    19434421.100    80943680.447 8       660.151
G04  20514018.840   107801899.881 7      2690.243    20514017.980   107801899.894 6      2690.243    20514023.980    84001499.193 6      2096.293    20514024.160    84001501.198 8      2096.293
G09  20746407.240   109023107.402 7      4781.155    20746405.820   109023107.410 7      4781.155    20746413.320    84953095.977 7      3725.575    20746413.920    84953096.980 7      3725.575
R05  19827804.820   105990978.191 7      4753.373    19827804.040   105990978.190 7      4753.373    19827814.040    82437469.867 8      3697.068    19827813.920    82437468.865 8      3697.068
G19  21110970.400   110938895.997 7      4802.215    21110968.940   110938896.002 6      4802.215    21110971.760    86445901.068 6      3741.986
R18  21177238.520   113045536.306 7       582.927    21177239.760   113045536.312 7       582.927    21177251.820    87924362.226 7       453.388    21177252.040    87924364.224 7       453.388
G01  22384135.340   117629422.954 7       972.756    22384134.680   117629422.945 5       972.756    22384142.480    91659322.686 5       757.992    22384142.680    91659321.697 8       757.992
> 2025 04 04 19 20 34.0000000  0  9
G03  21946229.720   115328211.765 7       218.608    21946229.040   115328211.762 7       218.608    21946236.300    89866166.862 7       170.344    21946236.420    89866166.860 7       170.344
G17  20584325.780   108171362.496 8      2863.190    20584324.960   108171362.496 6      2863.190    20584327.920    84289382.579 6      2231.057    20584328.280    84289383.582 8      2231.057
R04  19434253.420   104069543.523 8       849.188    19434255.080   104069543.557 8       849.188    19434262.140    80943017.068 8       660.479    19434262.700    80943020.069 8       660.479
G04  20513507.040   107799209.463 7      2690.668    20513506.060   107799209.476 6      2690.668    20513512.000    83999402.778 6      2096.625    20513512.220    83999404.785 8      2096.625
G09  20745497.400   109018325.990 7      4781.606    20745495.820   109018325.995 7      4781.606    20745503.460    84949370.221 7      3725.927    20745503.980    84949371.223 8      3725.927
R05  19826915.480   105986224.557 7      4753.700    19826915.020   105986224.564 7      4753.700    19826924.780    82433772.619 8      3697.322    19826924.500    82433771.620 8      3697.322
G19  21110056.640   110934093.491 7      4802.728    21110055.060   110934093.496 6      4802.728    21110057.900    86442158.870 6      3742.385
R18  21177129.580   113044953.063 7       583.411    21177130.360   113044953.069 7       583.411    21177142.300    87923908.595 7       453.764    21177142.800    87923910.593 7       453.764
G01  22383950.160   117628449.753 7       973.497    22383949.560   117628449.742 6       973.497    22383957.200    91658564.364 5       758.569    22383957.400    91658563.377 8       758.569
> 2025 04 04 19 20 35.0000000  0  9
G03  21946188.060   115327992.929 7       219.153    21946187.160   115327992.932 7       219.153    21946194.700    89865996.359 7       170.769    21946194.480    89865996.353 8       170.769
G17  20583781.020   108168499.206 8      2863.349    20583780.040   108168499.203 7      2863.349    20583782.940    84287151.460 7      2231.181    20583783.240    84287152.466 8      2231.181
R04  19434094.880   104068694.329 8       849.230    19434096.840   104068694.363 8       849.230    19434103.400    80942356.592 8       660.512    19434104.180    80942359.591 8       660.512
G04  20512995.360   107796518.945 7      2690.553    20512994.220   107796518.956 6      2690.553    20512999.940    83997306.287 6      2096.535    20513000.200    83997308.294 8      2096.535
G09  20744587.420   109013544.318 8      4781.754    20744585.960   109013544.325 7      4781.754    20744593.540    84945644.263 7      3726.042    20744594.080    84945645.267 7      3726.042
R05  19826026.180   105981470.883 7      4753.685    19826025.620   105981470.882 7      4753.685    19826035.520    82430075.334 8      3697.310    19826035.320    82430074.332 8      3697.310
G19  21109142.660   110929290.762 7      4802.830    21109141.240   110929290.767 6      4802.830    21109143.880    86438416.498 6      3742.465
R18  21177020.240   113044369.529 7       583.608    21177021.360   113044369.533 7       583.608    21177033.300    87923454.744 7       453.917    21177033.300    87923456.746 7       453.917
G01  22383764.900   117627476.005 7       973.931    22383764.120   117627475.999 6       973.931    22383771.840    91657805.612 6       758.908    22383772.100    91657804.619 8       758.908
> 2025 04 04 19 20 36.0000000  0  9
G03  21946146.040   115327773.127 7       220.502    21946145.500   115327773.132 7       220.502    21946153.000    89865825.097 7       171.820    21946152.700    89865825.093 7       171.820
G17  20583236.140   108165635.482 8      2864.081    20583235.060   108165635.487 7      2864.081    20583238.020    84284920.005 6      2231.752    20583238.320    84284921.013 8      2231.752
R04  19433936.200   104067844.774 8       849.933    19433937.960   104067844.813 8       849.933    19433944.800    80941695.849 8       661.059    19433945.400    80941698.848 8       661.059
G04  20512483.240   107793828.018 7      2691.316    20512482.000   107793828.025 6      2691.316    20512487.880    83995209.475 6      2097.129    20512488.140    83995211.484 8      2097.129
G09  20743677.460   109008762.117 7      4782.685    20743675.880   109008762.120 7      4782.685    20743683.320    84941917.890 8      3726.767    20743684.000    84941918.891 8      3726.767
R05  19825136.720   105976716.889 8      4754.269    19825136.220   105976716.895 7      4754.269    19825146.200    82426377.803 8      3697.764    19825146.200    82426376.804 8      3697.764
G19  21108228.840   110924487.552 7      4803.572    21108227.200   110924487.559 6      4803.572    21108229.960    86434673.753 6      3743.043
R18  21176910.960   113043785.422 7       584.649    21176911.780   113043785.431 7       584.649    21176923.760    87923000.455 7       454.727    21176924.060    87923002.455 7       454.727
G01  22383579.440   117626501.438 7       975.159    22383578.700   117626501.432 6       975.159    22383586.420    91657046.221 5       759.864    22383586.580    91657045.230 8       759.864
> 2025 04 04 19 20 37.0000000  0  9
G03  21946104.260   115327552.421 7       221.038    21946103.460   115327552.423 7       221.038    21946110.840    89865653.126 7       172.237    21946110.700    89865653.124 8       172.237
G17  20582691.060   108162771.351 8      2864.285    20582690.060   108162771.354 6      2864.285    20582693.000    84282688.229 6      2231.910    20582693.260    84282689.235 8      2231.910
R04  19433777.540   104066994.929 8       849.972    19433779.360   104066994.968 8       849.972    19433786.100    80941034.869 8       661.089    19433786.840    80941037.870 8       661.089
G04  20511970.860   107791136.759 7      2691.317    20511969.940   107791136.769 6      2691.317    20511975.740    83993112.411 6      2097.130    20511976.120    83993114.413 8      2097.130
G09  20742767.300   109003979.473 7      4782.792    20742765.720   109003979.478 7      4782.792    20742773.320    84938191.170 8      3726.851    20742773.860    84938192.169 7      3726.851
R05  19824247.600   105971962.611 7      4754.296    19824246.920   105971962.615 7      4754.296    19824256.680    82422680.050 8      3697.786    19824256.780    82422679.051 8      3697.786
G19  21107314.680   110919683.892 7      4803.711    21107313.080   110919683.902 6      4803.711    21107315.620    86430930.658 6      3743.152
R18  21176801.440   113043200.847 7       584.804    21176802.160   113043200.843 7       584.804    21176814.180    87922545.786 7       454.847    21176814.620    87922547.786 7       454.847
G01  22383394.000   117625526.129 7       975.563    22383393.080   117625526.124 5       975.563    22383400.840    91656286.255 5       760.179    22383400.920    91656285.264 8       760.179
> 2025 04 04 19 20 38.0000000  0  9
G03  21946062.100   115327330.947 7       221.748    21946061.420   115327330.952 7       221.748    21946068.720    89865480.566 7       172.791    21946068.480    89865480.564 7       172.791
G17  20582146.000   108159907.029 8      2864.310    20582144.940   108159907.028 6      2864.310    20582147.820    84280456.306 6      2231.930    20582148.400    84280457.309 8      2231.930
R04  19433619.040   104066144.975 8       849.973    19433620.520   104066145.009 8       849.973    19433627.360    80940373.804 8       661.090    19433627.920    80940376.805 8       661.090
G04  20511458.840   107788445.359 7      2691.237    20511457.620   107788445.369 6      2691.237    20511463.540    83991015.228 6      2097.068    20511463.900    83991017.238 8      2097.068
G09  20741857.200   108999196.526 7      4782.956    20741855.620   108999196.533 7      4782.956    20741863.080    84934464.219 7      3726.979    20741863.620    84934465.222 7      3726.979
R05  19823358.100   105967208.240 7      4754.292    19823357.480   105967208.241 7      4754.292    19823367.440    82418982.220 8      3697.783    19823367.520    82418981.219 8      3697.783
G19  21106400.360   110914879.965 7      4803.924    21106398.880   110914879.970 6      4803.924    21106401.560    86427187.352 6      3743.317
R18  21176691.500   113042615.969 7       584.844    21176692.500   113042615.970 7       584.844    21176704.600    87922090.893 7       454.878    21176705.000    87922092.893 7       454.878
G01  22383208.260   117624550.246 7       976.070    22383207.360   117624550.237 5       976.070    22383215.320    91655525.838 5       760.574    22383215.580    91655524.852 8       760.574
> 2025 04 04 19 20 39.0000000  0  9
G03  21946019.600   115327108.662 7       222.826    21946019.040   115327108.664 7       222.826    21946026.360    89865307.367 7       173.630    21946026.200    89865307.367 7       173.630
G17  20581600.920   108157042.388 8      2864.924    20581599.920   108157042.390 6      2864.924    20581602.800    84278224.129 6      2232.408    20581603.160    84278225.132 8      2232.408
R04  19433460.040   104065294.798 8       850.378    19433461.640   104065294.832 8       850.378    19433468.680    80939712.570 8       661.405    19433469.440    80939715.569 8       661.405
G04  20510946.540   107785753.679 7      2691.868    20510945.520   107785753.690 6      2691.868    20510951.380    83988917.830 6      2097.559    20510951.700    83988919.838 8      2097.559
G09  20740946.840   108994413.204 7      4783.516    20740945.400   108994413.211 7      4783.516    20740952.960    84930736.975 7      3727.415    20740953.580    84930737.977 8      3727.415
R05  19822468.440   105962453.654 7      4754.819    19822468.040   105962453.661 7      4754.819    19822478.080    82415284.230 8      3698.192    19822478.060    82415283.231 8      3698.192
G19  21105486.260   110910075.696 7      4804.515    21105484.500   110910075.703 6      4804.515    21105487.260    86423443.780 6      3743.778
R18  21176581.840   113042030.682 7       585.603    21176582.900   113042030.682 7       585.603    21176595.400    87921635.680 7       455.469    21176595.340    87921637.680 7       455.469
G01  22383022.480   117623573.689 7       977.030    22383021.420   117623573.684 5       977.030    22383029.580    91654764.898 5       761.322    22383029.860    91654763.913 8       761.322
> 2025 04 04 19 20 40.0000000  0  9
G03  21945977.280   115326885.546 7       223.649    21945976.520   115326885.549 7       223.649    21945984.060    89865133.519 7       174.272    21945983.640    89865133.515 7       174.272
G17  20581055.460   108154177.456 8      2865.146    20581054.760   108154177.458 6      2865.146    20581057.760    84275991.728 6      2232.581    20581058.160    84275992.734 8      2232.581
R04  19433301.040   104064444.386 8       850.563    19433302.880   104064444.428 8       850.563    19433310.060    80939051.157 8       661.549    19433310.420    80939054.158 8       661.549
G04  20510434.360   107783061.766 7      2692.090    20510433.300   107783061.782 6      2692.090    20510439.180    83986820.256 6      2097.732    20510439.320    83986822.264 8      2097.732
G09  20740036.660   108989629.500 7      4783.945    20740035.120   108989629.513 7      4783.945    20740042.620    84927009.434 7      3727.749    20740043.480    84927010.434 7      3727.749
R05  19821579.180   105957698.914 7      4754.932    19821578.720   105957698.913 7      4754.932    19821588.660    82411586.114 8      3698.281    19821588.560    82411585.112 8      3698.281
G19  21104571.940   110905271.064 7      4804.949    21104570.300   110905271.069 6      4804.949    21104572.960    86419699.924 6      3744.116
R18  21176472.300   113041445.040 7       585.957    21176473.580   113041445.043 7       585.957    21176485.400    87921180.186 7       455.745    21176485.900    87921182.191 7       455.745
G01  22382836.620   117622596.479 7       977.645    22382835.460   117622596.476 5       977.645    22382843.720    91654003.449 5       761.802    22382843.920    91654002.460 8       761.802
> 2025 04 04 19 20 41.0000000  0  9
G03  21945934.740   115326661.692 7       224.188    21945934.000   115326661.695 7       224.188    21945941.380    89864959.097 7       174.692    21945941.140    89864959.093 7       174.692
G17  20580510.160   108151312.287 8      2865.240    20580509.500   108151312.289 6      2865.240    20580512.340    84273759.141 6      2232.655    20580512.860    84273760.149 8      2232.655
R04  19433142.220   104063593.818 8       850.620    19433144.160   104063593.857 8       850.620    19433151.040    80938389.621 8       661.593    19433151.480    80938392.620 8       661.593
G04  20509922.440   107780369.693 7      2692.103    20509920.820   107780369.706 6      2692.103    20509926.900    83984722.551 6      2097.743    20509927.140    83984724.555 8      2097.743
G09  20739126.400   108984845.489 7      4784.203    20739124.720   108984845.499 7      4784.203    20739132.160    84923281.650 7      3727.951    20739132.860    84923282.650 8      3727.951
R05  19820689.720   105952944.059 7      4754.897    19820689.100   105952944.060 7      4754.897    19820699.160    82407887.914 8      3698.253    19820698.960    82407886.914 8      3698.253
G19  21103657.520   110900466.175 7      4804.982    21103656.040   110900466.183 6      4804.982    21103658.580    86415955.871 6      3744.142
R18  21176362.680   113040859.064 7       586.125    21176363.640   113040859.059 7       586.125    21176375.880    87920724.436 7       455.875    21176376.180    87920726.436 7       455.875
G01  22382650.520   117621618.690 7       978.023    22382649.520   117621618.684 6       978.023    22382657.460    91653241.548 5       762.096    22382657.740    91653240.561 8       762.096
> 2025 04 04 19 20 42.0000000  0  9
G03  21945891.800   115326437.089 7       225.089    21945891.140   115326437.094 7       225.089    21945898.640    89864784.096 7       175.394    21945898.580    89864784.090 7       175.394
G17  20579965.200   108148446.908 8      2865.622    20579964.300   108148446.907 6      2865.622    20579967.100    84271526.391 6      2232.952    20579967.340    84271527.396 8      2232.952
R04  19432983.340   104062743.135 8       850.829    19432985.420   104062743.177 8       850.829    19432992.020    80937727.993 8       661.756    19432992.480    80937730.992 8       661.756
G04  20509409.940   107777677.444 7      2692.472    20509408.560   107777677.459 6      2692.472    20509414.560    83982624.710 6      2098.030    20509414.720    83982626.721 8      2098.030
G09  20738215.820   108980061.213 7      4784.578    20738214.340   108980061.223 7      4784.578    20738221.780    84919553.661 8      3728.243    20738222.320    84919554.660 7      3728.243
R05  19819800.140   105948189.129 8      4755.150    19819799.580   105948189.130 7      4755.150    19819809.760    82404189.651 8      3698.450    19819809.500    82404188.654 8      3698.450
G19  21102743.160   110895661.010 7      4805.469    21102741.640   110895661.015 6      4805.469    21102744.220    86412211.603 6      3744.521
R18  21176252.860   113040272.746 7       586.717    21176253.800   113040272.742 7       586.717    21176266.040    87920268.424 7       456.336    21176266.320    87920270.426 7       456.336
G01  22382464.280   117620640.305 7       978.852    22382463.280   117620640.299 6       978.852    22382471.200    91652479.184 6       762.742    22382471.420    91652478.192 8       762.742
> 2025 04 04 19 20 43.0000000  0  9
G03  21945848.960   115326211.554 7       226.041    21945848.260   115326211.561 7       226.041    21945855.720    89864608.364 7       176.135    21945855.440    89864608.361 7       176.135
G17  20579419.900   108145581.121 8      2866.149    20579418.840   108145581.121 6      2866.149    20579421.740    84269293.325 6      2233.363    20579422.240    84269294.328 8      2233.363
R04  19432824.520   104061892.129 8       851.318    19432826.440   104061892.171 8       851.318    19432833.140    80937066.108 8       662.136    19432833.400    80937069.107 8       662.136
G04  20508897.620   107774984.864 7      2692.859    20508896.180   107774984.876 6      2692.859    20508902.180    83980526.606 6      2098.332    20508902.240    83980528.615 8      2098.332
G09  20737305.220   108975276.443 8      4785.137    20737303.860   108975276.455 7      4785.137    20737311.280    84915825.289 7      3728.678    20737311.800    84915826.287 8      3728.678
R05  19818910.820   105943433.902 8      4755.505    19818910.080   105943433.901 7      4755.505    19818920.000    82400491.154 8      3698.726    19818920.060    82400490.155 8      3698.726
G19  21101828.820   110890855.396 8      4805.972    21101827.180   110890855.401 6      4805.972    21101829.680    86408466.983 6      3744.913
R18  21176142.840   113039685.954 7       587.215    21176143.760   113039685.950 7       587.215    21176156.080    87919812.036 7       456.723    21176156.500    87919814.040 7       456.723
G01  22382277.920   117619661.184 7       979.481    22382276.960   117619661.184 6       979.481    22382284.800    91651716.245 5       763.232    22382284.860    91651715.259 8       763.232
> 2025 04 04 19 20 44.0000000  0  9
G03  21945805.980   115325985.185 7       226.550    21945805.020   115325985.193 7       226.550    21945812.620    89864431.984 7       176.532    21945812.460    89864431.982 7       176.532
G17  20578874.540   108142715.033 8      2865.994    20578873.380   108142715.038 6      2865.994    20578876.280    84267060.024 6      2233.242    20578876.600    84267061.031 8      2233.242
R04  19432665.520   104061040.905 8       851.157    19432667.340   104061040.944 8       851.157    19432674.240    80936404.060 8       662.011    19432674.940    80936407.056 8       662.011
G04  20508385.080   107772292.015 7      2692.738    20508383.760   107772292.025 6      2692.738    20508389.740    83978428.303 6      2098.237    20508389.940    83978430.312 8      2098.237
G09  20736394.580   108970491.299 8      4785.087    20736393.280   108970491.307 7      4785.087    20736400.660    84912096.620 7      3728.639    20736401.480    84912097.618 8      3728.639
R05  19818021.100   105938678.464 8      4755.300    19818020.640   105938678.465 7      4755.300    19818030.600    82396792.505 8      3698.567    19818030.340    82396791.504 8      3698.567
G19  21100914.300   110886049.427 7      4805.920    21100912.540   110886049.432 6      4805.920    21100915.040    86404722.086 6      3744.873
R18  21176032.600   113039098.766 7       587.145    21176034.000   113039098.762 7       587.145    21176046.220    87919355.343 7       456.669    21176046.560    87919357.349 7       456.669
G01  22382091.360   117618681.359 7       979.880    22382090.580   117618681.359 6       979.880    22382098.420    91650952.760 5       763.543    22382098.720    91650951.767 8       763.543
> 2025 04 04 19 20 45.0000000  0  9
G03  21945762.900   115325758.063 7       227.696    21945761.820   115325758.068 7       227.696    21945769.460    89864255.015 7       177.425    21945769.020    89864255.011 7       177.425
G17  20578329.100   108139848.721 8      2866.594    20578328.100   108139848.718 6      2866.594    20578330.960    84264826.540 6      2233.709    20578331.520    84264827.545 8      2233.709
R04  19432506.580   104060189.548 8       851.488    19432508.480   104060189.595 8       851.488    19432515.140    80935741.916 8       662.268    19432515.780    80935744.912 8       662.268
G04  20507872.600   107769599.017 7      2693.178    20507871.320   107769599.027 6      2693.178    20507877.220    83976329.875 6      2098.580    20507877.340    83976331.882 8      2098.580
G09  20735483.840   108965705.849 8      4785.723    20735482.700   108965705.856 8      4785.723    20735490.020    84908367.716 8      3729.135    20735490.860    84908368.713 7      3729.135
R05  19817131.360   105933922.919 8      4755.770    19817130.860   105933922.923 7      4755.770    19817141.020    82393093.767 8      3698.932    19817140.880    82393092.767 8      3698.932
G19  21099999.720   110881243.184 8      4806.457    21099997.840   110881243.189 6      4806.457    21100000.540    86400976.978 6      3745.291
R18  21175922.700   113038511.264 7       587.815    21175923.820   113038511.265 7       587.815    21175936.160    87918898.413 7       457.190    21175936.320    87918900.415 7       457.190
G01  22381904.860   117617700.959 7       980.835    22381903.980   117617700.956 5       980.835    22381911.860    91650188.824 5       764.287    22381912.260    91650187.831 8       764.287
> 2025 04 04 19 20 46.0000000  0  9
G03  21945719.500   115325530.052 7       228.476    21945718.560   115325530.052 7       228.476    21945725.960    89864077.353 7       178.033    21945725.680    89864077.349 7       178.033
G17  20577783.560   108136982.028 8      2866.889    20577782.400   108136982.031 6      2866.889    20577785.360    84262592.772 6      2233.939    20577785.800    84262593.779 8      2233.939
R04  19432347.380   104059337.856 8       851.844    19432349.420   104059337.900 8       851.844    19432356.100    80935079.499 8       662.545    19432356.940    80935082.498 8       662.545
G04  20507360.000   107766905.680 7      2693.493    20507358.860   107766905.688 6      2693.493    20507364.700    83974231.186 6      2098.825    20507364.940    83974233.192 8      2098.825
G09  20734573.100   108960919.946 8      4786.179    20734571.920   108960919.953 8      4786.179    20734579.300    84904638.460 7      3729.490    20734579.880    84904639.457 7      3729.490
R05  19816241.340   105929167.118 8      4755.962    19816241.200   105929167.119 8      4755.962    19816251.280    82389394.825 8      3699.082    19816251.140    82389393.827 8      3699.082
G19  21099084.840   110876436.503 8      4806.859    21099083.180   110876436.511 6      4806.859    21099085.840    86397231.531 6      3745.605
R18  21175812.140   113037923.281 7       588.224    21175813.760   113037923.279 7       588.224    21175825.960    87918441.101 7       457.507    21175826.120    87918443.105 7       457.507
G01  22381718.160   117616719.822 7       981.530    22381717.340   117616719.817 5       981.530    22381725.120    91649424.310 5       764.829    22381725.540    91649423.321 8       764.829
> 2025 04 04 19 20 47.0000000  0  9
G03  21945676.060   115325301.240 7       229.302    21945674.920   115325301.245 7       229.302    21945682.420    89863899.072 7       178.677    21945682.200    89863899.070 7       178.677
G17  20577238.120   108134115.068 8      2867.182    20577236.860   108134115.075 6      2867.182    20577239.820    84260358.793 6      2234.168    20577240.240    84260359.798 8      2234.168
R04  19432188.240   104058485.995 8       851.998    19432190.480   104058486.039 8       851.998    19432197.060    80934416.955 8       662.665    19432197.580    80934419.954 8       662.665
G04  20506847.620   107764212.130 7      2693.765    20506846.340   107764212.140 6      2693.765    20506852.180    83972132.332 6      2099.038    20506852.560    83972134.339 8      2099.038
G09  20733662.340   108956133.712 8      4786.510    20733661.160   108956133.714 8      4786.510    20733668.360    84900908.941 8      3729.748    20733669.100    84900909.937 7      3729.748
R05  19815351.640   105924411.175 8      4756.115    19815351.580   105924411.179 8      4756.115    19815361.620    82385695.781 8      3699.201    19815361.360    82385694.784 8      3699.201
G19  21098170.160   110871629.512 7      4807.261    21098168.300   110871629.520 6      4807.261    21098171.020    86393485.836 6      3745.917
R18  21175702.280   113037334.927 8       588.544    21175703.400   113037334.934 7       588.544    21175716.120    87917983.505 7       457.756    21175715.960    87917985.507 7       457.756
G01  22381531.300   117615738.053 7       982.230    22381530.540   117615738.050 6       982.230    22381538.160    91648659.307 6       765.374    22381538.800    91648658.317 8       765.374
> 2025 04 04 19 20 48.0000000  0  9
G03  21945632.420   115325071.632 7       230.031    21945631.280   115325071.634 7       230.031    21945638.820    89863720.167 7       179.245    21945638.560    89863720.161 7       179.245
G17  20576692.160   108131247.841 8      2867.348    20576691.360   108131247.844 6      2867.348    20576694.400    84258124.603 6      2234.298    20576694.680    84258125.608 8      2234.298
R04  19432029.300   104057633.941 8       852.182    19432031.460   104057633.980 8       852.182    19432037.960    80933754.253 8       662.808    19432038.520    80933757.256 8       662.808
G04  20506334.920   107761518.373 7      2693.842    20506333.600   107761518.386 6      2693.842    20506339.560    83970033.319 6      2099.098    20506339.900    83970035.325 8      2099.098
G09  20732751.460   108951347.124 7      4786.803    20732750.220   108951347.129 7      4786.803    20732757.600    84897179.155 7      3729.976    20732758.260    84897180.150 8      3729.976
R05  19814462.020   105919655.106 7      4756.146    19814461.760   105919655.108 7      4756.146    19814471.960    82381996.635 8      3699.225    19814471.560    82381995.636 8      3699.225
G19  21097255.460   110866822.219 7      4807.367    21097253.480   110866822.226 6      4807.367    21097256.320    86389739.910 6      3746.000
R18  21175592.120   113036746.195 7       588.899    21175593.220   113036746.203 7       588.899    21175605.580    87917525.618 7       458.033    21175605.860    87917527.623 7       458.033
G01  22381344.380   117614755.656 7       982.673    22381343.660   117614755.650 5       982.673    22381351.220    91647893.817 5       765.719    22381351.660    91647892.833 8       765.719
> 2025 04 04 19 20 49.0000000  0  9
G03  21945588.580   115324841.222 7       230.826    21945587.500   115324841.227 7       230.826    21945594.900    89863540.641 7       179.865    21945594.660    89863540.633 7       179.865
G17  20576146.640   108128380.329 8      2867.715    20576145.700   108128380.334 7      2867.715    20576148.760    84255890.190 6      2234.583    20576149.160    84255891.197 8      2234.583
R04  19431870.240   104056781.676 8       852.454    19431872.180   104056781.715 8       852.454    19431878.800    80933091.397 8       663.019    19431879.400    80933094.398 8       663.019
G04  20505822.240   107758824.366 7      2694.267    20505820.960   107758824.379 6      2694.267    20505826.860    83967934.109 6      2099.429    20505827.120    83967936.115 8      2099.429
G09  20731840.720   108946560.178 7      4787.200    20731839.280   108946560.185 7      4787.200    20731846.700    84893449.087 7      3730.285    20731847.380    84893450.083 7      3730.285
R05  19813572.200   105914898.885 7      4756.350    19813572.260   105914898.884 7      4756.350    19813582.340    82378297.367 8      3699.383    19813581.780    82378296.367 8      3699.383
G19  21096340.520   110862014.568 7      4807.830    21096338.660   110862014.570 6      4807.830    21096341.380    86385993.703 6      3746.361
R18  21175481.720   113036157.131 7       589.321    21175482.660   113036157.137 7       589.321    21175495.540    87917067.468 7       458.361    21175495.700    87917069.472 7       458.361
G01  22381157.180   117613772.604 7       983.472    22381156.600   117613772.596 5       983.472    22381164.140    91647127.815 5       766.342    22381164.800    91647126.822 8       766.342
> 2025 04 04 19 20 50.0000000  0  9
G03  21945544.500   115324610.000 7       231.358    21945543.460   115324610.000 7       231.358    21945550.880    89863360.472 7       180.279    21945550.740    89863360.466 7       180.279
G17  20575601.020   108125512.532 8      2867.693    20575599.940   108125512.537 6      2867.693    20575603.100    84253655.555 6      2234.566    20575603.500    84253656.561 8      2234.566
R04  19431711.120   104055929.186 8       852.290    19431712.740   104055929.225 8       852.290    19431719.480    80932428.363 8       662.892    19431719.880    80932431.362 8       662.892
G04  20505309.580   107756130.167 7      2694.049    20505308.340   107756130.182 6      2694.049    20505314.080    83965834.749 6      2099.259    20505314.420    83965836.756 8      2099.259
G09  20730929.700   108941772.877 7      4787.210    20730928.380   108941772.885 7      4787.210    20730935.640    84889718.742 7      3730.294    20730936.380    84889719.735 8      3730.294
R05  19812682.260   105910142.488 8      4756.229    19812682.440   105910142.481 7      4756.229    19812692.420    82374597.961 8      3699.290    19812692.040    82374596.964 8      3699.290
G19  21095425.560   110857206.597 7      4807.844    21095423.700   110857206.602 6      4807.844    21095426.600    86382247.248 6      3746.372
R18  21175371.560   113035567.688 7       589.465    21175372.420   113035567.694 7       589.465    21175384.880    87916609.019 7       458.473    21175385.280    87916611.023 7       458.473
G01  22380970.000   117612788.906 7       983.791    22380969.380   117612788.900 5       983.791    22380976.920    91646361.310 5       766.591    22380977.520    91646360.323 8       766.591
> 2025 04 04 19 20 51.0000000  0  9
G03  21945500.340   115324377.762 7       232.902    21945499.360   115324377.762 7       232.902    21945506.860    89863179.520 7       181.482    21945506.560    89863179.516 7       181.482
G17  20575055.200   108122644.282 8      2868.546    20575054.000   108122644.284 7      2868.546    20575057.260    84251420.567 6      2235.231    20575057.640    84251421.575 8      2235.231
R04  19431551.860   104055076.294 8       853.162    19431553.560   104055076.328 8       853.162    19431560.260    80931765.011 8       663.570    19431560.940    80931768.012 8       663.570
G04  20504796.500   107753435.542 7      2694.870    20504795.540   107753435.558 6      2694.870    20504801.380    83963735.056 6      2099.899    20504801.600    83963737.065 8      2099.899
G09  20730018.640   108936985.041 7      4788.130    20730017.300   108936985.048 7      4788.130    20730024.520    84885987.977 7      3731.011    20730025.360    84885988.972 7      3731.011
R05  19811792.640   105905385.716 8      4757.037    19811792.400   105905385.715 7      4757.037    19811802.440    82370898.273 8      3699.917    19811802.240    82370897.271 8      3699.917
G19  21094510.580   110852398.108 7      4808.834    21094508.780   110852398.110 6      4808.834    21094511.500    86378500.390 6      3747.143
R18  21175260.920   113034977.685 7       590.343    21175262.080   113034977.688 7       590.343    21175274.320    87916150.134 7       459.156    21175274.820    87916152.140 7       459.156
G01  22380782.820   117611804.391 7       985.063    22380782.020   117611804.385 5       985.063    22380789.640    91645594.169 5       767.582    22380790.180    91645593.179 8       767.582
> 2025 04 04 19 20 52.0000000  0  9
G03  21945455.740   115324144.698 7       233.598    21945454.960   115324144.709 7       233.598    21945462.440    89862997.926 7       182.024    21945462.160    89862997.920 7       182.024
G17  20574509.300   108119775.692 7      2868.848    20574508.160   108119775.694 6      2868.848    20574511.420    84249185.314 6      2235.466    20574511.720    84249186.320 8      2235.466
R04  19431392.360   104054223.138 8       853.481    19431394.140   104054223.174 8       853.481    19431400.840    80931101.462 7       663.819    19431401.520    80931104.463 8       663.819
G04  20504283.600   107750740.634 7      2695.172    20504282.700   107750740.647 6      2695.172    20504288.560    83961635.140 6      2100.134    20504288.620    83961637.149 8      2100.134
G09  20729107.480   108932196.776 7      4788.574    20729106.160   108932196.789 7      4788.574    20729113.420    84882256.879 7      3731.356    20729114.100    84882257.875 7      3731.356
R05  19810902.760   105900628.728 7      4757.202    19810902.500   105900628.730 7      4757.202    19810912.660    82367198.412 8      3700.046    19810912.540    82367197.412 8      3700.046
G19  21093595.620   110847589.244 7      4809.189    21093593.640   110847589.246 6      4809.189    21093596.240    86374753.233 6      3747.420
R18  21175150.260   113034387.182 7       590.971    21175151.560   113034387.186 7       590.971    21175163.700    87915690.860 7       459.644    21175164.100    87915692.866 7       459.644
G01  22380595.400   117610819.190 7       985.616    22380594.580   117610819.184 5       985.616    22380602.060    91644826.490 5       768.013    22380602.620    91644825.498 8       768.013
> 2025 04 04 19 20 53.0000000  0  9
G03  21945411.280   115323910.757 7       234.289    21945410.440   115323910.768 7       234.289    21945417.860    89862815.645 7       182.563    21945417.380    89862815.645 7       182.563
G17  20573963.340   108116906.765 8      2869.055    20573962.300   108116906.768 6      2869.055    20573965.440    84246949.800 6      2235.627    20573965.820    84246950.805 8      2235.627
R04  19431233.040   104053369.756 8       853.435    19431234.780   104053369.798 8       853.435    19431241.540    80930437.739 8       663.783    19431241.940    80930440.738 8       663.783
G04  20503770.960   107748045.460 7      2695.220    20503769.760   107748045.473 6      2695.220    20503775.740    83959535.021 6      2100.171    20503775.780    83959537.026 8      2100.171
G09  20728196.300   108927408.133 7      4788.760    20728194.940   108927408.143 7      4788.760    20728202.140    84878525.484 7      3731.501    20728202.600    84878526.481 8      3731.501
R05  19810012.980   105895871.542 8      4757.153    19810012.560   105895871.544 7      4757.153    19810022.700    82363498.397 8      3700.008    19810022.580    82363497.395 8      3700.008
G19  21092680.420   110842780.009 7      4809.283    21092678.400   110842780.013 6      4809.283    21092681.260    86371005.793 6      3747.493
R18  21175039.480   113033796.301 7       590.977    21175040.800   113033796.312 7       590.977    21175053.200    87915231.304 7       459.649    21175053.560    87915233.311 7       459.649
G01  22380407.880   117609833.277 7       986.157    22380407.020   117609833.274 5       986.157    22380414.560    91644058.257 5       768.434    22380415.060    91644057.270 8       768.434
> 2025 04 04 19 20 54.0000000  0  9
G03  21945366.700   115323675.994 7       235.197    21945365.760   115323675.996 7       235.197    21945373.220    89862632.724 7       183.271    21945372.900    89862632.716 7       183.271
G17  20573417.460   108114037.540 8      2869.349    20573416.340   108114037.539 6      2869.349    20573419.380    84244714.054 6      2235.857    20573419.680    84244715.059 8      2235.857
R04  19431073.640   104052516.147 8       853.726    19431075.560   104052516.183 8       853.726    19431082.200    80929773.829 8       664.009    19431082.500    80929776.830 8       664.009
G04  20503257.960   107745350.016 7      2695.595    20503256.800   107745350.024 6      2695.595    20503262.840    83957434.687 6      2100.463    20503263.300    83957436.700 8      2100.463
G09  20727284.780   108922619.085 7      4789.249    20727283.580   108922619.092 7      4789.249    20727290.800    84874793.783 8      3731.883    20727291.500    84874794.778 7      3731.883
R05  19809122.880   105891114.148 7      4757.485    19809122.660   105891114.152 7      4757.485    19809133.000    82359798.222 8      3700.266    19809132.420    82359797.227 8      3700.266
G19  21091765.080   110837970.398 7      4809.758    21091763.180   110837970.397 6      4809.758    21091765.940    86367258.061 6      3747.863
R18  21174928.860   113033205.027 7       591.461    21174930.040   113033205.033 7       591.461    21174942.580    87914771.429 7       460.026    21174942.640    87914773.435 7       460.026
G01  22380220.040   117608846.694 7       986.878    22380219.320   117608846.694 5       986.878    22380226.660    91643289.505 5       768.996    22380227.220    91643288.517 8       768.996
> 2025 04 04 19 20 55.0000000  0  9
G03  21945321.760   115323440.400 7       236.097    21945320.920   115323440.400 7       236.097    21945328.400    89862449.151 7       183.971    21945328.000    89862449.143 7       183.971
G17  20572871.440   108111167.993 8      2869.822    20572870.260   108111167.993 6      2869.822    20572873.440    84242478.054 6      2236.225    20572873.640    84242479.060 8      2236.225
R04  19430914.200   104051662.331 8       854.033    19430916.080   104051662.368 8       854.033    19430922.700    80929109.763 8       664.248    19430923.320    80929112.760 8       664.248
G04  20502745.000   107742654.322 7      2696.008    20502743.920   107742654.332 6      2696.008    20502749.840    83955334.163 6      2100.785    20502750.240    83955336.173 8      2100.785
G09  20726373.420   108917829.672 7      4789.738    20726372.220   108917829.672 7      4789.738    20726379.380    84871061.781 7      3732.263    20726379.900    84871062.776 8      3732.263
R05  19808232.740   105886356.572 7      4757.761    19808232.560   105886356.573 7      4757.761    19808242.940    82356097.900 8      3700.481    19808242.460    82356096.900 8      3700.481
G19  21090849.840   110833160.427 7      4810.300    21090847.920   110833160.429 6      4810.300    21090850.600    86363510.042 6      3748.285
R18  21174817.880   113032613.366 7       591.942    21174819.240   113032613.365 7       591.942    21174831.480    87914311.253 7       460.400    21174831.700    87914313.257 7       460.400
G01  22380032.220   117607859.449 7       987.700    22380031.320   117607859.441 5       987.700    22380038.780    91642520.236 5       769.636    22380039.380    91642519.241 8       769.636
> 2025 04 04 19 20 56.0000000  0  9
G03  21945276.920   115323203.924 7       236.964    21945275.940   115323203.928 7       236.964    21945283.320    89862264.896 7       184.647    21945283.260    89862264.890 7       184.647
G17  20572325.320   108108298.106 8      2870.116    20572324.200   108108298.110 6      2870.116    20572327.320    84240241.796 6      2236.454    20572327.680    84240242.804 8      2236.454
R04  19430754.780   104050808.235 8       854.286    19430756.660   104050808.271 8       854.286    19430763.100    80928445.483 8       664.445    19430763.900    80928448.481 8       664.445
G04  20502231.980   107739958.355 7      2696.197    20502230.860   107739958.368 6      2696.197    20502236.940    83953233.427 6      2100.933    20502237.140    83953235.436 8      2100.933
G09  20725461.780   108913039.833 7      4790.131    20725460.660   108913039.841 7      4790.131    20725467.920    84867329.461 7      3732.569    20725468.540    84867330.459 7      3732.569
R05  19807342.600   105881598.723 8      4758.039    19807342.280   105881598.727 7      4758.039    19807352.640    82352397.374 8      3700.697    19807352.500    82352396.374 8      3700.697
G19  21089934.440   110828350.073 7      4810.576    21089932.540   110828350.080 6      4810.576    21089935.400    86359761.733 6      3748.501
R18  21174707.220   113032021.238 7       592.379    21174708.280   113032021.239 7       592.379    21174720.540    87913850.721 7       460.739    21174720.820    87913852.727 7       460.739
G01  22379844.200   117606871.494 7       988.343    22379843.360   117606871.497 5       988.343    22379850.720    91641750.411 5       770.138    22379851.480    91641749.422 8       770.138
> 2025 04 04 19 20 57.0000000  0  9
G03  21945231.840   115322966.856 7       237.518    21945230.780   115322966.861 7       237.518    21945238.220    89862080.176 7       185.079    21945238.000    89862080.172 7       185.079
G17  20571779.060   108105428.157 8      2870.156    20571778.020   108105428.157 6      2870.156    20571781.220    84238005.477 6      2236.485    20571781.760    84238006.483 8      2236.485
R04  19430595.580   104049954.138 8       854.216    19430597.140   104049954.172 8       854.216    19430603.600    80927781.200 8       664.391    19430604.440    80927784.199 8       664.391
G04  20501719.040   107737262.372 7      2696.080    20501717.720   107737262.387 6      2696.080    20501723.760    83951132.678 6      2100.842    20501724.140    83951134.687 8      2100.842
G09  20724550.420   108908249.861 7      4790.203    20724549.160   108908249.865 7      4790.203    20724556.320    84863597.031 7      3732.626    20724557.120    84863598.027 8      3732.626
R05  19806452.260   105876840.947 7      4757.770    19806452.300   105876840.953 7      4757.770    19806462.640    82348696.899 8      3700.487    19806462.420    82348695.898 8      3700.487
G19  21089019.120   110823539.611 7      4810.647    21089017.120   110823539.618 6      4810.647    21089019.940    86356013.333 6      3748.556
R18  21174595.880   113031428.934 7       592.459    21174597.280   113031428.949 7       592.459    21174609.700    87913390.057 7       460.801    21174609.720    87913392.067 7       460.801
G01  22379656.260   117605883.122 7       988.666    22379655.360   117605883.124 5       988.666    22379662.680    91640980.263 5       770.389    22379663.420    91640979.268 8       770.389
> 2025 04 04 19 20 58.0000000  0  9
G03  21945186.280   115322728.947 7       238.303    21945185.580   115322728.949 7       238.303    21945192.980    89861894.803 7       185.691    21945192.720    89861894.795 7       185.691
G17  20571232.900   108102557.896 8      2870.389    20571231.820   108102557.896 6      2870.389    20571235.020    84235768.922 6      2236.667    20571235.580    84235769.928 8      2236.667
R04  19430436.080   104049099.787 8       854.413    19430437.560   104049099.821 7       854.413    19430443.860    80927116.715 8       664.543    19430444.520    80927119.716 8       664.543
G04  20501206.060   107734566.121 7      2696.326    20501204.600   107734566.131 6      2696.326    20501210.600    83949031.715 6      2101.033    20501211.040    83949033.722 8      2101.033
G09  20723638.840   108903459.486 8      4790.522    20723637.720   108903459.496 7      4790.522    20723644.820    84859864.292 7      3732.875    20723645.580    84859865.286 7      3732.875
R05  19805562.340   105872082.962 7      4758.035    19805562.260   105872082.966 7      4758.035    19805572.740    82344996.261 8      3700.694    19805572.500    82344995.262 8      3700.694
G19  21088103.620   110818728.773 7      4810.950    21088101.560   110818728.780 6      4810.950    21088104.440    86352264.646 6      3748.792
R18  21174484.700   113030836.238 7       592.861    21174486.240   113030836.247 7       592.861    21174498.580    87912929.077 7       461.114    21174499.000    87912931.081 7       461.114
G01  22379467.960   117604894.053 7       989.412    22379467.120   117604894.053 5       989.412    22379474.480    91640209.571 5       770.970    22379474.800    91640208.576 8       770.970
> 2025 04 04 19 20 59.0000000  0  9
G03  21945140.760   115322490.277 7       239.113    21945140.260   115322490.282 7       239.113    21945147.660    89861708.840 7       186.321    21945147.340    89861708.834 7       186.321
G17  20570686.500   108099687.394 8      2870.676    20570685.480   108099687.393 7      2870.676    20570688.720    84233532.183 6      2236.890    20570689.440    84233533.189 8      2236.890
R04  19430276.440   104048245.268 8       854.723    19430277.880   104048245.302 8       854.723    19430284.580    80926452.101 8       664.784    19430285.160    80926455.102 8       664.784
G04  20500692.620   107731869.683 7      2696.618    20500691.500   107731869.696 6      2696.618    20500697.540    83946930.612 6      2101.260    20500698.000    83946932.622 8      2101.260
G09  20722727.440   108898668.817 7      4790.860    20722726.040   108898668.822 7      4790.860    20722733.120    84856131.318 7      3733.138    20722733.720    84856132.311 7      3733.138
R05  19804672.240   105867324.894 7      4758.193    19804672.260   105867324.900 7      4758.193    19804682.600    82341295.558 8      3700.817    19804682.440    82341294.559 8      3700.817
G19  21087187.800   110813917.667 7      4811.268    21087186.020   110813917.672 6      4811.268    21087188.920    86348515.745 6      3749.040
R18  21174373.840   113030243.235 7       593.168    21174374.960   113030243.249 7       593.168    21174387.560    87912467.865 7       461.353    21174387.780    87912469.873 7       461.353
G01  22379279.720   117603904.391 7       990.102    22379278.720   117603904.385 5       990.102    22379286.200    91639438.417 5       771.508    22379286.580    91639437.420 8       771.508
> 2025 04 04 19 21  0.0000000  0  9
G03  21945095.520   115322250.686 7       240.021    21945094.620   115322250.689 7       240.021    21945101.980    89861522.152 7       187.029    21945101.760    89861522.146 7       187.029
G17  20570140.360   108096816.497 8      2871.063    20570139.200   108096816.499 7      2871.063    20570142.600    84231295.135 6      2237.192    20570142.740    84231296.139 8      2237.192
R04  19430116.700   104047390.470 8       854.926    19430118.280   104047390.504 8       854.926    19430124.960    80925787.275 8       664.942    19430125.700    80925790.278 8       664.942
G04  20500179.600   107729172.923 7      2696.877    20500178.440   107729172.938 6      2696.877    20500184.360    83944829.258 6      2101.462    20500184.760    83944831.261 8      2101.462
G09  20721815.640   108893877.667 8      4791.301    20721814.240   108893877.677 7      4791.301    20721821.360    84852397.979 7      3733.481    20721822.120    84852398.976 7      3733.481
R05  19803782.120   105862566.588 8      4758.374    19803782.000   105862566.584 7      4758.374    19803792.540    82337594.666 8      3700.958    19803792.400    82337593.667 8      3700.958
G19  21086272.360   110809106.104 7      4811.745    21086270.380   110809106.103 6      4811.745    21086273.400    86344766.487 6      3749.412
R18  21174262.880   113029649.743 7       593.736    21174263.860   113029649.749 7       593.736    21174276.440    87912006.262 7       461.795    21174276.680    87912008.266 7       461.795
G01  22379091.140   117602913.990 7       990.762    22379090.240   117602913.985 5       990.762    22379097.720    91638666.687 5       772.022    22379098.180    91638665.694 8       772.022
> 2025 04 04 19 21  1.0000000  0  9
G03  21945049.920   115322010.366 7       240.794    21945048.780   115322010.368 7       240.794    21945056.340    89861334.904 7       187.632    21945056.040    89861334.898 7       187.632
G17  20569594.020   108093945.408 8      2871.291    20569592.860   108093945.410 6      2871.291    20569596.160    84229057.936 6      2237.370    20569596.300    84229058.939 8      2237.370
R04  19429956.840   104046535.578 8       855.007    19429958.700   104046535.609 8       855.007    19429965.100    80925122.372 8       665.005    19429965.980    80925125.371 8       665.005
G04  20499666.480   107726476.018 7      2697.010    20499665.220   107726476.028 6      2697.010    20499671.140    83942727.788 6      2101.566    20499671.580    83942729.788 8      2101.566
G09  20720903.880   108889086.241 8      4791.676    20720902.520   108889086.251 7      4791.676    20720909.580    84848664.421 7      3733.774    20720910.300    84848665.414 7      3733.774
R05  19802892.080   105857808.189 7      4758.489    19802891.880   105857808.177 7      4758.489    19802902.480    82333893.701 8      3701.047    19802902.140    82333892.700 8      3701.047
G19  21085356.780   110804294.294 7      4812.086    21085354.800   110804294.299 6      4812.086    21085357.700    86341017.046 6      3749.678
R18  21174151.460   113029055.963 7       593.949    21174152.660   113029055.969 7       593.949    21174165.020    87911544.444 7       461.960    21174165.240    87911546.450 7       461.960
G01  22378902.720   117601923.014 7       991.328    22378901.700   117601923.011 5       991.328    22378909.140    91637894.516 5       772.464    22378909.640    91637893.523 8       772.464
> 2025 04 04 19 21  2.0000000  0  9
G03  21945003.920   115321769.296 7       241.723    21945003.040   115321769.299 7       241.723    21945010.460    89861147.064 7       188.355    21945010.040    89861147.056 7       188.355
G17  20569047.640   108091074.088 8      2871.660    20569046.520   108091074.093 7      2871.660    20569049.860    84226820.554 6      2237.657    20569050.100    84226821.555 8      2237.657
R04  19429797.440   104045680.539 8       855.376    19429798.980   104045680.570 8       855.376    19429805.600    80924457.350 8       665.292    19429806.240    80924460.353 8       665.292
G04  20499153.200   107723778.928 7      2697.441    20499151.940   107723778.939 6      2697.441    20499157.840    83940626.168 6      2101.902    20499158.320    83940628.175 8      2101.902
G09  20719991.860   108884294.526 7      4792.138    20719990.560   108884294.539 7      4792.138    20719997.660    84844930.629 7      3734.134    20719998.560    84844931.627 8      3734.134
R05  19802002.140   105853049.664 7      4758.765    19802001.460   105853049.654 7      4758.765    19802012.080    82330192.643 8      3701.262    19802011.980    82330191.642 8      3701.262
G19  21084441.060   110799482.221 7      4812.533    21084439.060   110799482.221 6      4812.533    21084442.020    86337267.387 6      3750.026
R18  21174040.300   113028461.820 7       594.641    21174041.240   113028461.821 7       594.641    21174054.060    87911082.337 7       462.498    21174054.140    87911084.343 7       462.498
G01  22378713.940   117600931.455 7       992.098    22378712.920   117600931.449 5       992.098    22378720.420    91637121.876 5       773.063    22378720.880    91637120.885 8       773.063
> 2025 04 04 19 21  3.0000000  0  9
