     3.05           OBSERVATION DATA    MIXED               RINEX VERSION / TYPE
TPS2RIN 1.0.28.3459 TPS-USER            20250407 105838 UTC PGM / RUN BY / DATE
Win64 build Jun 01, 2022 (c) Topcon Positioning Systems     COMMENT
SRC: 20250404_grav_20250404_164034.tps                      COMMENT
Observer            Agency                                  OBSERVER / AGENCY
O0M3X53SBGM         TPS HIPER_SR        4.8 HSR Jul,08,2022 REC # / TYPE / VERS
FW: 4.8 HSR Jul,08,2022 p3                                  COMMENT
SN: HiPer SR 1212-12575                                     COMMENT
000                 TPSHIPER_SR     NONE                    ANT # / TYPE
        1.8000        0.0000        0.0000                  ANTENNA: DELTA H/E/N
DELTA H stands for **SLANT** height here!                   COMMENT
Oro04                                                       MARKER NAME
  5385293.6619 -1595165.8551  3013897.9828                  APPROX POSITION XYZ
  2025     4     4    14    41    0.0000000     GPS         TIME OF FIRST OBS
  2025     4     4    14    57    4.0000000     GPS         TIME OF LAST OBS
     1.000                                                  INTERVAL
   965 EPOCHS                                               COMMENT
G   12 C1C L1C D1C C1W L1W D1W C2W L2W D2W C2X L2X D2X      SYS / # / OBS TYPES
R   12 C1C L1C D1C C1P L1P D1P C2P L2P D2P C2C L2C D2C      SYS / # / OBS TYPES
    15                                                      # OF SATELLITES
   G01   965   965   965   965   965   965   965   965   965PRN / # OF OBS
         965   965   965                                    PRN / # OF OBS
   G02   965   965   965   965   965   965   965   965   965PRN / # OF OBS
           0     0     0                                    PRN / # OF OBS
   G07   308   308   308   290   290   290   290   290   290PRN / # OF OBS
         273   273   273                                    PRN / # OF OBS
   G08   965   965   965   965   965   965   965   965   965PRN / # OF OBS
         965   965   965                                    PRN / # OF OBS
   G10   965   965   965   965   965   965   965   965   965PRN / # OF OBS
         965   965   965                                    PRN / # OF OBS
   G16   965   965   965   965   965   965   965   965   965PRN / # OF OBS
           0     0     0                                    PRN / # OF OBS
   G27   965   965   965   965   965   965   965   965   965PRN / # OF OBS
         965   965   965                                    PRN / # OF OBS
   R01   703   703   703   697   697   697   697   697   697PRN / # OF OBS
         696   696   696                                    PRN / # OF OBS
   R02   269   269   269   256   256   256   256   256   256PRN / # OF OBS
         254   254   254                                    PRN / # OF OBS
   R14   965   965   965   965   965   965   965   965   965PRN / # OF OBS
         965   965   965                                    PRN / # OF OBS
   R15   965   965   965   965   965   965   965   965   965PRN / # OF OBS
         965   965   965                                    PRN / # OF OBS
   R16   965   965   965   965   965   965   965   965   965PRN / # OF OBS
         965   965   965                                    PRN / # OF OBS
   R17   965   965   965   965   965   965   965   965   965PRN / # OF OBS
         965   965   965                                    PRN / # OF OBS
   R18   965   965   965   965   965   965   965   965   965PRN / # OF OBS
         965   965   965                                    PRN / # OF OBS
   R24   965   965   965   965   965   965   965   965   965PRN / # OF OBS
         965   965   965                                    PRN / # OF OBS
G L1C                                                       SYS / PHASE SHIFT
G L1W -0.25000                                              SYS / PHASE SHIFT
G L2W  0.00000                                              SYS / PHASE SHIFT
G L2X  0.25000                                              SYS / PHASE SHIFT
R L1C                                                       SYS / PHASE SHIFT
R L1P -0.25000                                              SYS / PHASE SHIFT
R L2P -0.25000                                              SYS / PHASE SHIFT
R L2C                                                       SYS / PHASE SHIFT
  8 R01  1 R02 -4 R14 -7 R15  0 R16 -1 R17  4 R18 -3 R24  2 GLONASS SLOT / FRQ #
                                                            GLONASS COD/PHS/BIS
    18                  GPS                                 LEAP SECONDS
                                                            END OF HEADER
> 2025 04 04 14 41  0.0000000  0 12
G27  21450897.980   112725223.848 7      1544.837    21450896.540   112725223.847 7      1544.837    21450905.040    87837868.102 7      1203.769    21450905.860    87837869.104 7      1203.769
G02  21043701.020   110585395.395 7      2568.448    21043698.580   110585395.397 6      2568.448    21043702.480    86170444.874 6      2001.388
R15  19918246.280   106437067.406 8      3065.554    19918245.080   106437067.407 8      3065.554    19918255.100    82784424.685 8      2384.319    19918255.460    82784425.689 8      2384.319
G08  20851353.060   109574596.548 7      3355.390    20851351.660   109574596.553 8      3355.390    20851359.940    85382832.577 7      2614.589    20851360.780    85382836.580 8      2614.589
R17  20543885.880   109934481.011 7      2214.270    20543885.380   109934481.031 7      2214.270    20543895.860    85504644.022 8      1722.210    20543896.020    85504644.022 8      1722.210
R14  20804918.800   110901916.959 8      -775.911    20804918.940   110901916.957 7      -775.911    20804930.060    86257096.072 8      -603.486    20804931.000    86257101.067 8      -603.486
G01  21990725.940   115562045.128 7      4489.609    21990725.040   115562045.128 6      4489.609    21990732.960    90048373.140 6      3498.397    21990733.120    90048379.143 8      3498.397
G10  22861154.580   120136175.598 6       859.912    22861151.900   120136175.598 6       859.912    22861163.820    93612636.844 6       670.062    22861164.260    93612641.855 7       670.062
R24  22309518.540   119299009.335 7       374.938    22309518.340   119299009.331 7       374.938    22309532.300    92788179.454 7       291.619    22309531.920    92788179.459 7       291.619
R18  22203857.340   118525695.519 7      4114.323    22203858.880   118525695.549 6      4114.323    22203870.080    92186712.576 7      3200.029    22203870.820    92186712.583 7      3200.029
G16  22296016.520   117166355.852 7      -302.972    22296015.020   117166355.860 5      -302.972    22296024.060    91298472.680 5      -236.082
R16  23174769.680   123795464.872 6      6301.707    23174769.060   123795464.889 6      6301.707    23174785.140    96285417.828 7      4901.328    23174783.940    96285412.814 7      4901.328
> 2025 04 04 14 41  1.0000000  0 12
G27  21450603.960   112723678.536 7      1545.387    21450602.460   112723678.541 7      1545.387    21450610.980    87836663.974 7      1204.198    21450611.640    87836664.981 7      1204.198
G02  21043212.340   110582826.647 7      2568.723    21043209.880   110582826.649 6      2568.723    21043213.680    86168443.260 6      2001.603
R15  19917672.700   106434001.789 8      3065.348    19917671.420   106434001.782 7      3065.348    19917681.600    82782040.320 8      2384.159    19917681.760    82782041.324 8      2384.159
G08  20850714.700   109571240.827 7      3355.835    20850713.180   109571240.832 7      3355.835    20850721.320    85380217.740 8      2614.936    20850722.060    85380221.745 8      2614.936
R17  20543472.060   109932266.352 7      2214.766    20543471.560   109932266.359 7      2214.766    20543482.160    85502921.512 8      1722.596    20543482.340    85502921.512 8      1722.596
R14  20805064.340   110902692.698 8      -775.866    20805064.520   110902692.695 8      -775.866    20805075.660    86257699.428 8      -603.451    20805076.580    86257704.425 8      -603.451
G01  21989871.360   115557555.286 7      4489.806    21989870.580   115557555.288 6      4489.806    21989878.480    90044874.576 6      3498.551    21989879.000    90044880.585 8      3498.551
G10  22860990.880   120135315.357 6       860.179    22860988.300   120135315.364 6       860.179    22861000.040    93611966.545 6       670.269    22861000.660    93611971.557 7       670.269
R24  22309448.000   119298633.856 7       375.635    22309447.900   119298633.860 7       375.635    22309462.300    92787887.431 7       292.161    22309461.960    92787887.432 7       292.161
R18  22203086.160   118521580.778 6      4114.837    22203087.460   118521580.803 6      4114.837    22203099.420    92183512.239 7      3200.429    22203100.160    92183512.244 7      3200.429
G16  22296074.020   117166658.595 7      -302.805    22296072.560   117166658.597 5      -302.805    22296081.580    91298708.585 5      -235.952
R16  23173590.440   123789162.835 6      6302.003    23173589.080   123789162.849 6      6302.003    23173605.320    96280516.262 7      4901.558    23173604.360    96280511.250 7      4901.558
> 2025 04 04 14 41  2.0000000  0 12
G27  21450309.900   112722132.547 7      1546.434    21450308.220   112722132.552 7      1546.434    21450316.880    87835459.317 7      1205.014    21450317.640    87835460.326 7      1205.014
G02  21042723.360   110580257.310 7      2569.666    21042721.040   110580257.315 6      2569.666    21042724.860    86166441.192 6      2002.337
R15  19917098.860   106430936.107 8      3065.821    19917097.580   106430936.108 8      3065.821    19917108.060    82779655.911 8      2384.528    19917108.140    82779656.913 8      2384.528
G08  20850076.020   109567884.362 7      3357.025    20850074.420   109567884.367 7      3357.025    20850082.580    85377602.317 7      2615.863    20850083.440    85377606.322 8      2615.863
R17  20543058.140   109930050.901 8      2215.947    20543057.380   109930050.913 7      2215.947    20543068.060    85501198.395 8      1723.514    20543068.260    85501198.394 8      1723.514
R14  20805209.840   110903468.049 8      -775.137    20805209.800   110903468.052 8      -775.137    20805221.020    86258302.485 8      -602.884    20805222.020    86258307.480 8      -602.884
G01  21989016.980   115553064.877 7      4490.828    21989016.000   115553064.882 6      4490.828    21989023.960    90041375.572 6      3499.347    21989024.320    90041381.579 8      3499.347
G10  22860827.200   120134454.784 6       860.903    22860824.320   120134454.784 6       860.903    22860836.220    93611295.965 6       670.833    22860836.820    93611300.971 7       670.833
R24  22309377.480   119298257.390 7       377.025    22309377.480   119298257.402 7       377.025    22309391.880    92787594.627 7       293.242    22309391.560    92787594.625 7       293.242
R18  22202315.260   118517465.395 6      4115.768    22202315.760   118517465.422 6      4115.768    22202328.460    92180311.398 7      3201.153    22202329.020    92180311.405 7      3201.153
G16  22296131.580   117166960.722 7      -301.609    22296130.100   117166960.730 5      -301.609    22296139.100    91298944.016 5      -235.020
R16  23172410.220   123782860.315 6      6303.056    23172408.700   123782860.324 6      6303.056    23172425.300    96275614.304 7      4902.377    23172424.460    96275609.288 7      4902.377
> 2025 04 04 14 41  3.0000000  0 12
G27  21450015.180   112720585.759 7      1547.103    21450013.980   112720585.761 7      1547.103    21450022.600    87834254.031 7      1205.535    21450023.280    87834255.037 7      1205.535
G02  21042234.320   110577687.253 7      2570.406    21042231.960   110577687.256 6      2570.406    21042235.700    86164438.554 6      2002.914
R15  19916525.200   106427870.281 8      3065.879    19916523.620   106427870.272 7      3065.879    19916534.420    82777271.380 8      2384.573    19916534.520    82777272.380 8      2384.573
G08  20849437.160   109564527.059 7      3357.710    20849435.620   109564527.067 8      3357.710    20849443.780    85374986.259 8      2616.397    20849444.640    85374990.262 8      2616.397
R17  20542644.040   109927834.575 7      2216.745    20542643.220   109927834.584 7      2216.745    20542653.920    85499474.595 8      1724.135    20542654.180    85499474.595 8      1724.135
R14  20805355.020   110904242.894 8      -774.661    20805355.480   110904242.895 8      -774.661    20805366.540    86258905.140 8      -602.514    20805367.400    86258910.133 8      -602.514
G01  21988162.500   115548573.805 7      4491.435    21988161.500   115548573.807 6      4491.435    21988169.440    90037876.050 6      3499.819    21988169.680    90037882.057 8      3499.819
G10  22860663.120   120133593.665 6       861.226    22860660.440   120133593.667 6       861.226    22860672.400    93610624.973 6       671.085    22860672.980    93610629.990 7       671.085
R24  22309306.840   119297879.841 7       378.155    22309306.680   119297879.845 7       378.155    22309321.380    92787300.980 7       294.121    22309321.060    92787300.978 7       294.121
R18  22201544.020   118513349.163 6      4116.649    22201544.140   118513349.190 6      4116.649    22201557.020    92177109.902 7      3201.838    22201557.940    92177109.897 7      3201.838
G16  22296189.000   117167262.185 7      -301.147    22296187.480   117167262.193 5      -301.147    22296196.380    91299178.930 5      -234.660
R16  23171230.060   123776557.242 6      6303.229    23171229.340   123776557.264 6      6303.229    23171245.740    96270711.935 7      4902.512    23171244.700    96270706.919 7      4902.512
> 2025 04 04 14 41  4.0000000  0 12
G27  21449720.760   112719038.358 7      1547.755    21449719.160   112719038.361 7      1547.755    21449728.200    87833048.279 7      1206.043    21449728.780    87833049.287 7      1206.043
G02  21041745.120   110575116.745 7      2570.909    21041742.960   110575116.745 6      2570.909    21041746.580    86162435.569 6      2003.306
R15  19915951.460   106424804.546 8      3065.834    19915949.880   106424804.542 7      3065.834    19915960.780    82774886.930 8      2384.537    19915960.560    82774887.932 8      2384.537
G08  20848798.080   109561169.149 7      3358.358    20848796.660   109561169.157 8      3358.358    20848804.800    85372369.718 8      2616.902    20848805.580    85372373.721 8      2616.902
R17  20542229.860   109925617.644 7      2217.380    20542229.240   109925617.656 7      2217.380    20542239.620    85497750.328 8      1724.629    20542240.000    85497750.328 8      1724.629
R14  20805500.700   110905017.441 8      -774.196    20805500.900   110905017.444 7      -774.196    20805511.960    86259507.568 8      -602.153    20805512.640    86259512.563 8      -602.153
G01  21987307.540   115544082.334 7      4491.781    21987306.740   115544082.336 6      4491.781    21987314.840    90034376.217 6      3500.089    21987315.260    90034382.220 8      3500.089
G10  22860499.300   120132732.268 6       861.702    22860496.380   120132732.265 6       861.702    22860508.480    93609953.760 6       671.456    22860509.120    93609958.773 7       671.456
R24  22309236.180   119297501.448 7       379.015    22309236.340   119297501.444 7       379.015    22309250.800    92787006.672 7       294.789    22309250.280    92787006.672 7       294.789
R18  22200772.960   118509232.413 6      4117.177    22200772.740   118509232.430 6      4117.177    22200785.780    92173908.002 7      3202.248    22200786.360    92173908.007 7      3202.248
G16  22296246.260   117167563.173 7      -300.540    22296244.820   117167563.178 5      -300.540    22296253.640    91299413.464 5      -234.187
R16  23170050.580   123770253.741 6      6303.771    23170049.700   123770253.748 6      6303.771    23170065.420    96265809.204 7      4902.933    23170064.680    96265804.188 7      4902.933
> 2025 04 04 14 41  5.0000000  0 12
G27  21449426.220   112717490.448 7      1548.175    21449424.600   112717490.445 7      1548.175    21449433.760    87831842.122 7      1206.370    21449434.500    87831843.127 8      1206.370
G02  21041255.900   110572545.848 7      2571.074    21041253.700   110572545.852 6      2571.074    21041257.240    86160432.289 6      2003.435
R15  19915377.720   106421739.006 8      3065.531    19915376.320   106421739.010 7      3065.531    19915387.000    82772502.635 8      2384.302    19915386.900    82772503.636 8      2384.302
G08  20848159.140   109557810.701 7      3358.725    20848157.700   109557810.703 7      3358.725    20848165.680    85369752.750 8      2617.188    20848166.420    85369756.753 8      2617.188
R17  20541815.780   109923400.157 7      2217.883    20541814.920   109923400.169 7      2217.883    20541825.200    85496025.619 8      1725.020    20541825.220    85496025.620 8      1725.020
R14  20805646.060   110905791.737 8      -774.142    20805646.240   110905791.738 8      -774.142    20805657.240    86260109.800 8      -602.111    20805657.920    86260114.795 8      -602.111
G01  21986452.900   115539590.464 7      4492.062    21986451.920   115539590.464 6      4492.062    21986459.940    90030876.075 6      3500.308    21986460.320    90030882.082 8      3500.308
G10  22860335.560   120131870.660 6       861.640    22860332.640   120131870.662 6       861.640    22860344.540    93609282.396 6       671.408    22860345.200    93609287.411 7       671.408
R24  22309165.560   119297122.282 7       379.682    22309164.960   119297122.275 7       379.682    22309180.080    92786711.765 7       295.308    22309179.240    92786711.765 7       295.308
R18  22200001.220   118505115.156 6      4117.541    22200001.440   118505115.170 6      4117.541    22200014.900    92170705.712 7      3202.532    22200015.140    92170705.717 7      3202.532
G16  22296303.480   117167863.792 7      -300.471    22296302.120   117167863.797 5      -300.471    22296310.880    91299647.719 5      -234.133
R16  23168870.220   123763949.955 6      6303.859    23168869.860   123763949.961 6      6303.859    23168885.820    96260906.274 7      4903.002    23168884.680    96260901.262 7      4903.002
> 2025 04 04 14 41  6.0000000  0 12
G27  21449131.620   112715941.886 7      1548.966    21449129.900   112715941.889 7      1548.966    21449138.940    87830635.456 7      1206.986    21449139.700    87830636.462 7      1206.986
G02  21040766.580   110569974.367 7      2571.928    21040764.400   110569974.372 6      2571.928    21040768.000    86158428.548 6      2004.100
R15  19914804.080   106418673.480 8      3065.628    19914802.700   106418673.484 7      3065.628    19914813.420    82770118.343 8      2384.377    19914813.280    82770119.346 8      2384.377
G08  20847520.080   109554451.559 8      3359.562    20847518.440   109554451.558 8      3359.562    20847526.540    85367135.247 8      2617.841    20847527.380    85367139.251 8      2617.841
R17  20541401.160   109921181.947 7      2218.699    20541400.440   109921181.965 7      2218.699    20541410.760    85494300.362 8      1725.654    20541410.880    85494300.362 8      1725.654
R14  20805791.320   110906565.634 8      -773.592    20805791.140   110906565.626 7      -773.592    20805802.440    86260711.711 8      -601.683    20805803.220    86260716.702 8      -601.683
G01  21985598.100   115535098.102 7      4492.660    21985597.160   115535098.107 6      4492.660    21985605.060    90027375.550 6      3500.774    21985605.440    90027381.559 8      3500.774
G10  22860171.620   120131008.679 6       862.295    22860168.920   120131008.681 6       862.295    22860180.620    93608610.737 6       671.918    22860181.300    93608615.752 7       671.918
R24  22309094.360   119296742.163 7       380.589    22309093.580   119296742.162 7       380.589    22309109.260    92786416.144 7       296.014    22309108.260    92786416.141 7       296.014
R18  22199229.600   118500997.268 6      4118.417    22199229.760   118500997.280 6      4118.417    22199243.820    92167502.923 7      3203.213    22199243.980    92167502.930 7      3203.213
G16  22296360.600   117168163.850 7      -299.688    22296359.140   117168163.855 5      -299.688    22296368.060    91299881.532 5      -233.523
R16  23167690.400   123757645.693 6      6304.484    23167688.520   123757645.700 6      6304.484    23167705.240    96256002.963 7      4903.488    23167704.540    96255997.949 7      4903.488
> 2025 04 04 14 41  7.0000000  0 12
G27  21448836.840   112714392.500 7      1549.744    21448834.980   112714392.499 7      1549.744    21448844.200    87829428.152 7      1207.593    21448845.020    87829429.162 8      1207.593
G02  21040276.880   110567402.200 7      2572.539    21040275.020   110567402.205 6      2572.539    21040278.340    86156424.275 6      2004.576
R15  19914230.360   106415607.742 8      3065.844    19914228.960   106415607.746 7      3065.844    19914239.600    82767733.891 8      2384.546    19914239.620    82767734.895 8      2384.546
G08  20846880.580   109551091.544 8      3360.381    20846878.940   109551091.552 8      3360.381    20846887.100    85364517.068 8      2618.479    20846888.040    85364521.075 8      2618.479
R17  20540986.440   109918962.838 7      2219.556    20540986.100   109918962.853 7      2219.556    20540996.300    85492574.393 8      1726.321    20540996.320    85492574.393 8      1726.321
R14  20805936.200   110907338.984 8      -773.068    20805936.080   110907338.979 8      -773.068    20805947.800    86261313.210 8      -601.275    20805948.460    86261318.203 8      -601.275
G01  21984743.020   115530605.050 7      4493.399    21984742.340   115530605.054 6      4493.399    21984749.920    90023874.484 6      3501.350    21984750.320    90023880.495 8      3501.350
G10  22860007.540   120130146.191 6       862.746    22860004.700   120130146.193 6       862.746    22860016.580    93607938.677 6       672.270    22860017.240    93607943.685 7       672.270
R24  22309023.140   119296360.864 7       381.905    22309022.240   119296360.862 7       381.905    22309037.660    92786119.572 7       297.037    22309036.960    92786119.564 7       297.037
R18  22198458.120   118496878.562 6      4119.233    22198457.800   118496878.568 6      4119.233    22198471.860    92164299.504 7      3203.848    22198472.580    92164299.507 7      3203.848
G16  22296417.540   117168463.203 7      -298.987    22296416.140   117168463.210 5      -298.987    22296425.040    91300114.800 5      -232.977
R16  23166510.280   123751340.745 6      6305.439    23166509.140   123751340.741 6      6305.439    23166524.720    96251099.115 7      4904.230    23166524.180    96251094.094 7      4904.230
> 2025 04 04 14 41  8.0000000  0 12
G27  21448541.880   112712842.322 7      1550.536    21448540.060   112712842.324 7      1550.536    21448549.220    87828220.230 7      1208.210    21448549.880    87828221.237 7      1208.210
G02  21039787.440   110564829.369 7      2573.120    21039785.600   110564829.374 6      2573.120    21039788.820    86154419.479 6      2005.029
R15  19913656.460   106412541.911 8      3065.830    19913655.420   106412541.915 7      3065.830    19913665.980    82765349.364 8      2384.535    19913666.020    82765350.368 8      2384.535
G08  20846240.920   109547730.744 8      3361.090    20846239.420   109547730.751 8      3361.090    20846247.600    85361898.271 8      2619.031    20846248.480    85361902.276 8      2619.031
R17  20540571.460   109916742.919 7      2220.293    20540571.220   109916742.937 7      2220.293    20540581.380    85490847.801 8      1726.895    20540581.300    85490847.801 8      1726.895
R14  20806081.180   110908111.886 8      -772.720    20806081.460   110908111.876 8      -772.720    20806092.660    86261914.352 8      -601.005    20806093.400    86261919.345 8      -601.005
G01  21983888.000   115526111.395 7      4493.912    21983887.180   115526111.397 6      4493.912    21983894.740    90020372.947 6      3501.750    21983895.220    90020378.953 8      3501.750
G10  22859842.960   120129283.241 6       863.091    22859840.560   120129283.246 6       863.091    22859852.280    93607266.256 6       672.538    22859852.720    93607271.268 7       672.538
R24  22308951.740   119295978.484 7       382.878    22308950.780   119295978.488 7       382.878    22308966.440    92785822.181 7       297.794    22308965.360    92785822.180 7       297.794
R18  22197686.600   118492759.111 6      4119.719    22197685.780   118492759.131 6      4119.719    22197700.360    92161095.509 7      3204.226    22197700.580    92161095.516 7      3204.226
G16  22296474.500   117168761.904 7      -298.347    22296473.160   117168761.909 5      -298.347    22296481.940    91300347.552 5      -232.478
R16  23165329.500   123745035.228 6      6305.848    23165328.340   123745035.227 6      6305.848    23165344.700    96246194.842 7      4904.549    23165343.920    96246189.822 7      4904.549
> 2025 04 04 14 41  9.0000000  0 12
G27  21448246.480   112711291.537 7      1551.314    21448244.880   112711291.537 7      1551.314    21448254.140    87827011.834 7      1208.816    21448254.840    87827012.836 7      1208.816
G02  21039298.080   110562256.049 7      2573.680    21039295.920   110562256.054 6      2573.680    21039299.120    86152414.309 6      2005.465
R15  19913082.740   106409476.144 8      3065.887    19913081.520   106409476.153 7      3065.887    19913092.320    82762964.891 8      2384.579    19913092.600    82762965.893 8      2384.579
G08  20845601.260   109544369.287 7      3361.981    20845599.660   109544369.297 8      3361.981    20845607.900    85359278.966 8      2619.726    20845608.840    85359282.971 8      2619.726
R17  20540156.560   109914522.352 7      2221.000    20540156.200   109914522.370 7      2221.000    20540166.380    85489120.708 8      1727.444    20540166.060    85489120.708 8      1727.444
R14  20806226.320   110908884.469 8      -772.285    20806226.400   110908884.461 8      -772.285    20806237.660    86262515.258 8      -600.666    20806238.360    86262520.251 8      -600.666
G01  21983032.820   115521617.263 7      4494.526    21983031.840   115521617.265 6      4494.526    21983039.580    90016871.038 6      3502.228    21983039.960    90016877.045 8      3502.228
G10  22859678.480   120128419.980 6       863.439    22859676.300   120128419.980 6       863.439    22859688.100    93606593.592 6       672.810    22859688.340    93606598.610 7       672.810
R24  22308880.440   119295595.224 7       383.857    22308879.460   119295595.228 7       383.857    22308894.860    92785524.095 7       298.555    22308893.780    92785524.093 7       298.555
R18  22196914.660   118488639.030 6      4120.617    22196913.480   118488639.050 6      4120.617    22196928.160    92157891.014 7      3204.925    22196929.000    92157891.023 7      3204.925
G16  22296531.400   117169060.120 7      -297.819    22296529.980   117169060.130 5      -297.819    22296538.600    91300579.934 5      -232.066
R16  23164149.040   123738729.249 6      6306.375    23164148.220   123738729.269 6      6306.375    23164164.400    96241290.209 7      4904.958    23164163.660    96241285.190 7      4904.958
> 2025 04 04 14 41 10.0000000  0 12
G27  21447951.260   112709739.991 7      1551.933    21447949.660   112709739.993 7      1551.933    21447959.000    87825802.841 7      1209.299    21447959.900    87825803.840 8      1209.299
G02  21038808.260   110559682.065 7      2574.177    21038806.060   110559682.070 6      2574.177    21038809.380    86150408.617 6      2005.852
R15  19912509.040   106406410.289 8      3065.805    19912507.860   106406410.287 7      3065.805    19912518.500    82760580.339 8      2384.515    19912518.500    82760581.341 8      2384.515
G08  20844961.420   109541007.060 7      3362.500    20844959.960   109541007.062 8      3362.500    20844968.040    85356659.051 8      2620.130    20844968.700    85356663.056 8      2620.130
R17  20539741.140   109912300.958 7      2221.651    20539741.320   109912300.976 7      2221.651    20539751.220    85487392.968 8      1727.951    20539751.160    85487392.970 8      1727.951
R14  20806371.080   110909656.577 8      -771.958    20806371.200   110909656.569 8      -771.958    20806382.500    86263115.786 8      -600.412    20806383.300    86263120.779 8      -600.412
G01  21982177.720   115517122.526 7      4494.933    21982176.580   115517122.530 6      4494.933    21982184.400    90013368.660 6      3502.545    21982184.540    90013374.671 8      3502.545
G10  22859514.760   120127556.239 6       863.883    22859512.160   120127556.239 6       863.883    22859523.640    93605920.549 6       673.156    22859523.880    93605925.565 7       673.156
R24  22308808.380   119295210.932 7       384.625    22308807.760   119295210.941 7       384.625    22308823.120    92785225.214 7       299.153    22308821.920    92785225.212 7       299.153
R18  22196143.280   118484518.239 6      4121.129    22196142.260   118484518.251 6      4121.129    22196156.460    92154685.971 7      3205.322    22196156.700    92154685.976 7      3205.322
G16  22296588.000   117169357.702 7      -297.370    22296586.460   117169357.707 5      -297.370    22296595.020    91300811.818 5      -231.717
R16  23162968.700   123732422.728 6      6306.690    23162967.260   123732422.740 6      6306.690    23162983.680    96236385.141 7      4905.203    23162982.640    96236380.133 7      4905.203
> 2025 04 04 14 41 11.0000000  0 12
G27  21447655.960   112708187.864 7      1552.473    21447654.400   112708187.868 7      1552.473    21447663.620    87824593.406 7      1209.719    21447664.500    87824594.409 7      1209.719
G02  21038318.220   110557107.599 7      2574.787    21038316.360   110557107.604 6      2574.787    21038319.480    86148402.548 6      2006.328
R15  19911935.540   106403344.500 8      3065.793    19911934.100   106403344.499 7      3065.793    19911944.800    82758195.845 8      2384.505    19911944.860    82758196.852 8      2384.505
G08  20844321.500   109537644.197 7      3363.250    20844320.100   109537644.202 8      3363.250    20844328.120    85354038.653 8      2620.714    20844328.740    85354042.656 8      2620.714
R17  20539325.860   109910078.891 7      2222.417    20539326.320   109910078.911 7      2222.417    20539336.140    85485664.701 8      1728.547    20539336.060    85485664.706 8      1728.547
R14  20806515.840   110910428.386 8      -771.646    20806516.040   110910428.384 8      -771.646    20806527.520    86263716.085 8      -600.169    20806528.100    86263721.082 8      -600.169
G01  21981322.380   115512627.347 7      4495.450    21981321.180   115512627.352 6      4495.450    21981328.820    90009865.942 6      3502.948    21981329.120    90009871.947 8      3502.948
G10  22859350.440   120126692.227 6       864.135    22859347.760   120126692.224 6       864.135    22859359.280    93605247.299 6       673.352    22859359.660    93605252.315 7       673.352
R24  22308736.320   119294825.750 7       385.684    22308735.760   119294825.757 7       385.684    22308751.440    92784925.623 7       299.976    22308750.020    92784925.615 7       299.976
R18  22195371.140   118480396.904 6      4121.639    22195369.660   118480396.913 6      4121.639    22195384.420    92151480.511 7      3205.719    22195384.880    92151480.518 7      3205.719
G16  22296644.460   117169654.795 7      -296.793    22296642.960   117169654.800 5      -296.793    22296651.660    91301043.322 5      -231.267
R16  23161787.820   123726115.822 6      6307.175    23161787.260   123726115.818 6      6307.175    23161803.120    96231479.765 7      4905.580    23161802.200    96231474.753 7      4905.580
> 2025 04 04 14 41 12.0000000  0 12
G27  21447360.600   112706635.140 7      1552.899    21447358.800   112706635.145 7      1552.899    21447368.240    87823383.495 7      1210.051    21447368.880    87823384.496 8      1210.051
G02  21037828.080   110554532.658 7      2575.147    21037826.340   110554532.658 6      2575.147    21037829.620    86146396.107 6      2006.608
R15  19911361.580   106400278.760 8      3065.631    19911360.420   106400278.761 7      3065.631    19911371.100    82755811.391 8      2384.380    19911371.280    82755812.395 8      2384.380
G08  20843681.440   109534280.707 8      3363.712    20843680.060   109534280.714 8      3363.712    20843688.140    85351417.761 8      2621.074    20843688.900    85351421.766 8      2621.074
R17  20538910.740   109907856.194 8      2222.954    20538910.840   109907856.209 7      2222.954    20538920.720    85483935.937 8      1728.965    20538920.680    85483935.939 8      1728.965
R14  20806660.700   110911199.852 8      -771.396    20806660.500   110911199.850 8      -771.396    20806672.320    86264316.113 8      -599.975    20806672.800    86264321.107 8      -599.975
G01  21980466.820   115508131.720 7      4495.799    21980465.600   115508131.724 6      4495.799    21980473.320    90006362.868 6      3503.220    21980473.800    90006368.873 8      3503.220
G10  22859185.880   120125827.887 6       864.505    22859183.440   120125827.889 6       864.505    22859194.840    93604573.801 6       673.640    22859195.320    93604578.809 7       673.640
R24  22308664.200   119294439.653 7       386.518    22308663.300   119294439.655 7       386.518    22308679.080    92784625.328 7       300.625    22308677.900    92784625.324 7       300.625
R18  22194599.040   118476274.936 6      4122.224    22194596.740   118476274.961 6      4122.224    22194611.880    92148274.561 7      3206.174    22194612.580    92148274.566 7      3206.174
G16  22296700.740   117169951.413 7      -296.476    22296699.280   117169951.421 5      -296.476    22296708.160    91301274.455 5      -231.021
R16  23160607.720   123719808.502 6      6307.636    23160606.020   123719808.498 6      6307.636    23160622.160    96226574.085 7      4905.939    23160621.120    96226569.075 7      4905.939
> 2025 04 04 14 41 13.0000000  0 12
G27  21447064.780   112705081.770 7      1553.778    21447063.180   112705081.772 7      1553.778    21447072.780    87822173.079 7      1210.736    21447073.420    87822174.084 8      1210.736
G02  21037338.200   110551957.197 7      2575.819    21037336.320   110551957.202 6      2575.819    21037339.480    86144389.264 6      2007.132
R15  19910787.940   106397213.068 8      3065.795    19910787.020   106397213.072 7      3065.795    19910797.320    82753426.974 8      2384.507    19910797.620    82753427.978 8      2384.507
G08  20843041.060   109530916.567 8      3364.535    20843040.000   109530916.574 8      3364.535    20843048.040    85348796.360 8      2621.716    20843048.520    85348800.362 8      2621.716
R17  20538495.920   109905632.818 7      2223.855    20538495.820   109905632.833 7      2223.855    20538504.880    85482206.657 8      1729.665    20538504.920    85482206.659 8      1729.665
R14  20806805.280   110911970.982 8      -770.869    20806805.140   110911970.977 7      -770.869    20806817.100    86264915.883 8      -599.565    20806817.480    86264920.878 8      -599.565
G01  21979611.320   115503635.627 7      4496.454    21979609.860   115503635.629 6      4496.454    21979617.880    90002859.429 6      3503.730    21979618.040    90002865.426 8      3503.730
G10  22859021.760   120124963.276 6       864.815    22859019.060   120124963.281 6       864.815    22859030.400    93603900.084 6       673.882    22859030.340    93603905.091 7       673.882
R24  22308591.660   119294052.645 7       387.575    22308590.860   119294052.662 7       387.575    22308606.520    92784324.332 7       301.447    22308605.660    92784324.328 7       301.447
R18  22193826.660   118472152.389 6      4123.137    22193824.640   118472152.395 6      4123.137    22193839.800    92145068.131 7      3206.885    22193839.660    92145068.138 7      3206.885
G16  22296756.800   117170247.519 7      -295.701    22296755.760   117170247.523 5      -295.701    22296764.480    91301505.190 5      -230.416
R16  23159426.720   123713500.827 6      6308.005    23159424.960   123713500.818 6      6308.005    23159441.340    96221668.115 7      4906.226    23159441.080    96221663.103 7      4906.226
> 2025 04 04 14 41 14.0000000  0 12
G27  21446768.900   112703527.593 7      1554.341    21446767.280   112703527.593 7      1554.341    21446777.120    87820962.036 7      1211.175    21446777.760    87820963.038 8      1211.175
G02  21036847.940   110549381.010 7      2576.472    21036846.160   110549381.015 6      2576.472    21036849.200    86142381.856 6      2007.640
R15  19910214.400   106394147.218 8      3065.780    19910213.420   106394147.225 7      3065.780    19910223.560    82751042.437 8      2384.495    19910223.600    82751043.443 8      2384.495
G08  20842401.060   109527551.555 7      3365.265    20842399.560   109527551.565 8      3365.265    20842407.660    85346174.287 8      2622.285    20842408.700    85346178.290 8      2622.285
R17  20538079.700   109903408.564 7      2224.497    20538080.220   109903408.587 7      2224.497    20538089.360    85480476.696 8      1730.164    20538089.440    85480476.699 8      1730.164
R14  20806949.640   110912741.560 8      -770.358    20806949.480   110912741.558 8      -770.358    20806961.600    86265515.224 8      -599.167    20806962.120    86265520.219 8      -599.167
G01  21978755.340   115499138.835 7      4497.032    21978754.220   115499138.837 6      4497.032    21978762.140    89999355.448 6      3504.181    21978762.380    89999361.453 8      3504.181
G10  22858856.960   120124098.068 6       865.369    22858854.320   120124098.073 6       865.369    22858865.600    93603225.913 6       674.313    22858865.760    93603230.928 7       674.313
R24  22308519.020   119293664.514 7       388.583    22308518.280   119293664.523 7       388.583    22308533.820    92784022.463 7       302.231    22308533.240    92784022.455 7       302.231
R18  22193054.420   118468029.027 6      4123.695    22193052.480   118468029.028 6      4123.695    22193067.680    92141861.089 7      3207.318    22193067.680    92141861.100 7      3207.318
G16  22296813.380   117170542.920 7      -295.126    22296812.140   117170542.925 5      -295.126    22296820.820    91301735.373 5      -229.968
R16  23158245.180   123707192.442 6      6308.607    23158243.800   123707192.445 6      6308.607    23158260.420    96216761.620 7      4906.694    23158259.680    96216756.608 7      4906.694
> 2025 04 04 14 41 15.0000000  0 12
G27  21446472.980   112701972.723 7      1555.372    21446471.620   112701972.725 7      1555.372    21446481.060    87819750.463 7      1211.978    21446481.740    87819751.465 7      1211.978
G02  21036357.460   110546804.285 7      2577.243    21036355.800   110546804.290 6      2577.243    21036358.760    86140374.033 6      2008.242
R15  19909640.860   106391081.390 8      3066.094    19909639.680   106391081.388 7      3066.094    19909649.620    82748657.903 8      2384.739    19909649.980    82748658.910 8      2384.739
G08  20841760.380   109524185.860 7      3366.297    20841759.260   109524185.867 8      3366.297    20841767.060    85343551.677 8      2623.088    20841768.140    85343555.678 8      2623.088
R17  20537663.960   109901183.601 7      2225.645    20537664.620   109901183.618 7      2225.645    20537673.540    85478746.176 8      1731.057    20537673.680    85478746.178 8      1731.057
R14  20807094.360   110913511.821 8      -769.798    20807094.060   110913511.816 8      -769.798    20807106.420    86266114.316 8      -598.731    20807106.780    86266119.309 8      -598.731
G01  21977899.620   115494641.555 7      4497.768    21977898.500   115494641.557 6      4497.768    21977906.240    89995851.090 6      3504.754    21977906.560    89995857.097 8      3504.754
G10  22858692.060   120123232.548 6       866.018    22858689.420   120123232.556 6       866.018    22858700.880    93602551.484 6       674.820    22858701.060    93602556.492 7       674.820
R24  22308446.240   119293275.444 7       389.883    22308445.520   119293275.456 7       389.883    22308461.540    92783719.855 7       303.242    22308460.560    92783719.853 7       303.242
R18  22192281.540   118463905.034 6      4124.445    22192279.420   118463905.035 6      4124.445    22192294.840    92138653.557 7      3207.901    22192295.420    92138653.566 7      3207.901
G16  22296869.480   117170837.780 7      -294.393    22296868.220   117170837.787 5      -294.393    22296876.920    91301965.134 5      -229.397
R16  23157064.360   123700883.597 6      6309.395    23157062.340   123700883.617 6      6309.395    23157079.400    96211854.751 7      4907.307    23157078.660    96211849.743 7      4907.307
> 2025 04 04 14 41 16.0000000  0 12
G27  21446176.880   112700417.177 7      1555.769    21446175.500   112700417.174 7      1555.769    21446185.260    87818538.352 7      1212.287    21446186.000    87818539.355 7      1212.287
G02  21035867.100   110544226.950 7      2577.629    21035865.560   110544226.955 6      2577.629    21035868.160    86138365.728 6      2008.542
R15  19909067.180   106388015.548 8      3065.733    19909065.840   106388015.544 7      3065.733    19909075.820    82746273.370 8      2384.459    19909076.380    82746274.374 8      2384.459
G08  20841119.940   109520819.426 7      3366.736    20841118.660   109520819.431 8      3366.736    20841126.500    85340928.495 8      2623.431    20841127.220    85340932.493 8      2623.431
R17  20537248.160   109898957.889 7      2226.051    20537248.940   109898957.909 7      2226.051    20537257.560    85477015.075 8      1731.373    20537257.500    85477015.077 8      1731.373
R14  20807238.720   110914281.709 8      -769.759    20807238.540   110914281.704 7      -769.759    20807250.720    86266713.115 8      -598.702    20807251.120    86266718.110 8      -598.702
G01  21977043.500   115490143.699 7      4498.046    21977042.420   115490143.704 6      4498.046    21977050.260    89992346.284 6      3504.971    21977050.560    89992352.287 8      3504.971
G10  22858526.920   120122366.610 6       866.062    22858524.620   120122366.626 6       866.062    22858536.100    93601876.742 6       674.854    22858535.960    93601881.752 7       674.854
R24  22308373.120   119292885.398 7       390.478    22308372.580   119292885.411 7       390.478    22308388.660    92783416.490 7       303.705    22308387.480    92783416.482 7       303.705
R18  22191508.720   118459780.349 6      4124.975    22191507.140   118459780.339 6      4124.975    22191522.060    92135445.473 7      3208.314    22191522.500    92135445.480 7      3208.314
G16  22296925.740   117171132.036 7      -293.971    22296924.180   117171132.043 5      -293.971    22296932.780    91302194.430 5      -229.069
R16  23155883.040   123694574.220 6      6309.838    23155882.460   123694574.213 6      6309.838    23155898.340    96206947.448 7      4907.652    23155897.480    96206942.436 7      4907.652
> 2025 04 04 14 41 17.0000000  0 12
G27  21445881.020   112698860.880 7      1556.522    21445879.620   112698860.882 7      1556.522    21445889.120    87817325.665 7      1212.874    21445889.780    87817326.666 8      1212.874
G02  21035376.440   110541649.037 7      2578.034    21035374.980   110541649.045 6      2578.034    21035377.620    86136356.977 6      2008.858
R15  19908493.460   106384949.660 8      3065.688    19908492.180   106384949.656 7      3065.688    19908502.240    82743888.793 8      2384.424    19908502.640    82743889.800 8      2384.424
G08  20840479.300   109517452.273 7      3367.237    20840477.880   109517452.288 7      3367.237    20840485.740    85338304.751 8      2623.821    20840486.640    85338308.754 8      2623.821
R17  20536831.900   109896731.398 8      2226.663    20536832.820   109896731.426 7      2226.663    20536841.800    85475283.374 8      1731.849    20536841.720    85475283.377 8      1731.849
R14  20807382.980   110915051.186 8      -769.477    20807383.140   110915051.181 8      -769.477    20807395.420    86267311.604 8      -598.482    20807395.540    86267316.597 8      -598.482
G01  21976187.440   115485645.305 7      4498.447    21976186.420   115485645.309 6      4498.447    21976194.260    89988841.049 6      3505.283    21976194.660    89988847.057 8      3505.283
G10  22858362.120   120121500.278 6       866.302    22858359.860   120121500.291 6       866.302    22858371.240    93601201.688 6       675.040    22858370.980    93601206.702 7       675.040
R24  22308300.100   119292494.358 7       391.297    22308299.140   119292494.360 7       391.297    22308315.500    92783112.335 7       304.342    22308314.440    92783112.327 7       304.342
R18  22190736.200   118455654.994 6      4125.408    22190733.720   118455654.997 6      4125.408    22190749.180    92132236.894 7      3208.650    22190749.880    92132236.899 7      3208.650
G16  22296981.580   117171425.742 7      -293.714    22296979.900   117171425.744 5      -293.714    22296988.760    91302423.297 5      -228.868
R16  23154702.880   123688264.371 6      6309.854    23154699.680   123688264.367 6      6309.854    23154717.220    96202039.800 7      4907.664    23154716.160    96202034.788 7      4907.664
> 2025 04 04 14 41 18.0000000  0 12
G27  21445584.680   112697303.989 7      1557.350    21445583.240   112697303.991 7      1557.350    21445592.840    87816112.509 7      1213.520    21445593.460    87816113.505 8      1213.520
G02  21034885.960   110539070.604 7      2578.743    21034884.220   110539070.612 6      2578.743    21034887.020    86134347.819 6      2009.410
R15  19907919.640   106381883.819 8      3065.879    19907918.380   106381883.812 7      3065.879    19907928.560    82741504.262 8      2384.573    19907928.860    82741505.268 8      2384.573
G08  20839838.260   109514084.444 7      3368.230    20839837.120   109514084.452 8      3368.230    20839844.760    85335680.473 8      2624.594    20839845.620    85335684.476 8      2624.594
R17  20536415.480   109894504.209 7      2227.621    20536416.720   109894504.235 7      2227.621    20536425.540    85473551.127 8      1732.594    20536425.580    85473551.129 8      1732.594
R14  20807527.400   110915820.317 8      -768.890    20807527.180   110915820.318 8      -768.890    20807539.720    86267909.823 8      -598.026    20807539.940    86267914.816 8      -598.026
G01  21975331.360   115481146.414 7      4499.230    21975330.260   115481146.418 6      4499.230    21975337.940    89985335.434 6      3505.894    21975338.420    89985341.446 8      3505.894
G10  22858197.000   120120633.628 6       866.761    22858195.100   120120633.638 6       866.761    22858206.260    93600526.382 6       675.398    22858206.140    93600531.403 7       675.398
R24  22308226.800   119292102.350 7       392.534    22308226.480   119292102.351 7       392.534    22308242.520    92782807.446 7       305.304    22308241.140    92782807.441 7       305.304
R18  22189962.860   118451528.979 6      4126.493    22189960.820   118451528.975 6      4126.493    22189976.380    92129027.789 7      3209.495    22189976.800    92129027.798 7      3209.495
G16  22297037.240   117171718.900 7      -292.869    22297035.800   117171718.904 5      -292.869    22297044.460    91302651.733 5      -228.209
R16  23153522.140   123681954.012 6      6310.694    23153519.740   123681954.029 6      6310.694    23153535.900    96197131.767 7      4908.318    23153534.900    96197126.753 7      4908.318
> 2025 04 04 14 41 19.0000000  0 12
G27  21445288.160   112695746.262 7      1558.221    21445286.860   112695746.267 7      1558.221    21445296.480    87814898.705 7      1214.198    21445296.880    87814899.706 8      1214.198
G02  21034395.040   110536491.456 8      2579.498    21034393.520   110536491.464 6      2579.498    21034396.320    86132338.103 6      2009.999
R15  19907345.740   106378817.830 8      3066.098    19907344.940   106378817.831 7      3066.098    19907354.700    82739119.614 8      2384.743    19907354.920    82739120.623 8      2384.743
G08  20839197.080   109510715.756 7      3369.164    20839195.980   109510715.766 8      3369.164    20839203.800    85333055.531 8      2625.323    20839204.500    85333059.534 8      2625.323
R17  20535999.240   109892276.137 7      2228.471    20536000.580   109892276.165 7      2228.471    20536009.120    85471818.194 8      1733.256    20536009.380    85471818.195 8      1733.256
R14  20807671.520   110916588.896 8      -768.323    20807671.460   110916588.889 8      -768.323    20807683.820    86268507.599 8      -597.585    20807684.060    86268512.594 8      -597.585
G01  21974474.980   115476646.863 7      4499.942    21974474.160   115476646.868 6      4499.942    21974481.680    89981829.305 6      3506.448    21974482.080    89981835.313 8      3506.448
G10  22858032.200   120119766.442 6       867.372    22858030.140   120119766.452 6       867.372    22858041.220    93599850.663 6       675.874    22858041.260    93599855.680 7       675.874
R24  22308153.280   119291709.246 7       393.680    22308153.320   119291709.247 7       393.680    22308169.000    92782501.694 7       306.196    22308167.940    92782501.691 8       306.196
R18  22189189.320   118447402.186 6      4127.253    22189187.880   118447402.200 6      4127.253    22189203.260    92125818.085 7      3210.085    22189204.120    92125818.088 7      3210.085
G16  22297093.060   117172011.382 7      -292.166    22297091.560   117172011.384 5      -292.166    22297100.200    91302879.645 5      -227.662
R16  23152340.760   123675643.027 6      6311.545    23152337.740   123675643.042 6      6311.545    23152354.320    96192223.230 7      4908.979    23152353.700    96192218.216 7      4908.979
> 2025 04 04 14 41 20.0000000  0 12
G27  21444992.000   112694187.992 7      1558.575    21444990.340   112694187.994 7      1558.575    21444999.960    87813684.472 7      1214.474    21445000.480    87813685.471 8      1214.474
G02  21033904.220   110533911.859 7      2579.809    21033902.640   110533911.867 6      2579.809    21033905.400    86130328.040 6      2010.241
R15  19906772.200   106375751.959 8      3065.741    19906771.140   106375751.962 8      3065.741    19906781.060    82736735.063 8      2384.465    19906781.300    82736736.071 8      2384.465
G08  20838556.040   109507346.519 8      3369.437    20838554.860   109507346.526 8      3369.437    20838562.680    85330430.162 8      2625.536    20838563.160    85330434.167 8      2625.536
R17  20535582.460   109890047.469 7      2228.885    20535583.800   109890047.494 7      2228.885    20535592.780    85470084.790 8      1733.577    20535592.700    85470084.792 8      1733.577
R14  20807815.660   110917357.188 8      -768.244    20807815.500   110917357.177 8      -768.244    20807827.860    86269105.161 8      -597.523    20807828.160    86269110.158 8      -597.523
G01  21973618.660   115472146.918 7      4500.059    21973617.780   115472146.923 6      4500.059    21973625.460    89978322.869 6      3506.540    21973625.860    89978328.873 8      3506.540
G10  22857867.340   120118898.999 6       867.546    22857865.140   120118899.004 6       867.546    22857876.300    93599174.742 6       676.010    22857876.460    93599179.754 7       676.010
R24  22308079.800   119291315.283 7       394.316    22308079.640   119291315.295 7       394.316    22308095.200    92782195.296 7       306.690    22308094.000    92782195.284 8       306.690
R18  22188415.600   118443274.872 6      4127.480    22188414.700   118443274.886 6      4127.480    22188430.420    92122607.969 7      3210.262    22188431.200    92122607.972 7      3210.262
G16  22297148.600   117172303.399 7      -291.792    22297147.200   117172303.398 5      -291.792    22297155.980    91303107.189 5      -227.371
R16  23151159.200   123669331.795 6      6311.350    23151157.520   123669331.790 6      6311.350    23151172.640    96187314.487 7      4908.828    23151172.140    96187309.476 7      4908.828
> 2025 04 04 14 41 21.0000000  0 12
G27  21444695.440   112692629.028 7      1559.248    21444693.640   112692629.030 7      1559.248    21444703.280    87812469.709 7      1214.998    21444703.920    87812470.708 8      1214.998
G02  21033413.180   110531331.695 8      2580.424    21033411.820   110531331.702 6      2580.424    21033414.560    86128317.528 6      2010.720
R15  19906197.960   106372686.045 8      3065.860    19906197.660   106372686.046 8      3065.860    19906207.280    82734350.467 8      2384.558    19906207.720    82734351.478 8      2384.558
G08  20837914.760   109503976.530 7      3370.338    20837913.580   109503976.535 8      3370.338    20837921.320    85327804.207 8      2626.237    20837922.060    85327808.208 8      2626.237
R17  20535166.040   109887818.053 7      2229.662    20535167.360   109887818.084 7      2229.662    20535176.140    85468350.808 8      1734.181    20535176.140    85468350.813 8      1734.181
R14  20807959.740   110918125.079 8      -767.803    20807959.560   110918125.077 8      -767.803    20807971.940    86269702.416 8      -597.180    20807972.240    86269707.411 8      -597.180
G01  21972762.140   115467646.409 7      4500.754    21972761.320   115467646.419 6      4500.754    21972768.900    89974815.993 6      3507.081    21972769.360    89974822.004 8      3507.081
G10  22857702.380   120118031.174 6       867.912    22857700.320   120118031.182 6       867.912    22857711.100    93598498.515 6       676.295    22857711.120    93598503.527 7       676.295
R24  22308006.100   119290920.318 7       395.508    22308005.920   119290920.324 7       395.508    22308021.480    92781888.102 7       307.617    22308020.380    92781888.095 8       307.617
R18  22187642.640   118439146.899 6      4128.289    22187641.220   118439146.889 6      4128.289    22187656.860    92119397.313 7      3210.892    22187657.720    92119397.316 7      3210.892
G16  22297203.920   117172594.859 7      -291.149    22297202.700   117172594.861 5      -291.149    22297211.320    91303334.303 5      -226.869
R16  23149977.140   123663019.993 6      6311.761    23149975.140   123663020.018 6      6311.761    23149991.400    96182405.342 7      4909.148    23149990.560    96182400.326 7      4909.148
> 2025 04 04 14 41 22.0000000  0 12
G27  21444398.800   112691069.446 7      1560.010    21444396.880   112691069.448 7      1560.010    21444406.560    87811254.455 7      1215.593    21444407.100    87811255.450 8      1215.593
G02  21032922.160   110528751.018 7      2581.116    21032920.620   110528751.023 6      2581.116    21032923.360    86126306.617 6      2011.259
R15  19905624.360   106369620.157 8      3065.996    19905623.660   106369620.158 7      3065.996    19905633.520    82731965.898 8      2384.664    19905634.140    82731966.907 8      2384.664
G08  20837273.280   109500605.895 7      3371.179    20837272.300   109500605.906 8      3371.179    20837280.000    85325177.749 8      2626.892    20837280.780    85325181.750 8      2626.892
R17  20534749.040   109885587.980 7      2230.508    20534750.700   109885588.011 7      2230.508    20534759.340    85466616.311 8      1734.839    20534759.500    85466616.313 8      1734.839
R14  20808103.780   110918892.667 8      -767.315    20808103.440   110918892.662 7      -767.315    20808116.120    86270299.426 8      -596.801    20808116.440    86270304.422 8      -596.801
G01  21971905.740   115463145.463 7      4501.304    21971904.700   115463145.470 6      4501.304    21971912.480    89971308.779 6      3507.509    21971912.800    89971314.780 8      3507.509
G10  22857536.960   120117163.024 6       868.535    22857535.380   120117163.026 6       868.535    22857546.080    93597822.034 6       676.781    22857546.160    93597827.040 7       676.781
R24  22307931.980   119290524.457 7       396.515    22307931.860   119290524.466 7       396.515    22307947.200    92781580.219 7       308.401    22307946.360    92781580.209 7       308.401
R18  22186869.480   118435018.293 6      4128.934    22186867.520   118435018.291 6      4128.934    22186883.240    92116186.208 7      3211.393    22186883.920    92116186.213 7      3211.393
G16  22297259.340   117172885.833 7      -290.557    22297258.020   117172885.832 5      -290.557    22297266.880    91303561.034 5      -226.408
R16  23148795.420   123656707.799 6      6312.334    23148793.300   123656707.813 6      6312.334    23148809.400    96177495.851 7      4909.593    23148808.840    96177490.835 7      4909.593
> 2025 04 04 14 41 23.0000000  0 12
G27  21444102.060   112689509.229 7      1560.608    21444100.120   112689509.231 7      1560.608    21444109.700    87810038.707 7      1216.059    21444110.380    87810039.704 8      1216.059
G02  21032430.860   110526169.826 7      2581.441    21032429.440   110526169.831 6      2581.441    21032432.120    86124295.311 6      2011.512
R15  19905050.720   106366554.289 8      3065.902    19905050.120   106366554.287 7      3065.902    19905060.000    82729581.338 8      2384.590    19905060.120    82729582.349 8      2384.590
G08  20836631.960   109497234.625 7      3371.648    20836630.620   109497234.630 8      3371.648    20836638.400    85322550.789 8      2627.258    20836639.020    85322554.794 8      2627.258
R17  20534332.120   109883357.203 7      2231.188    20534334.100   109883357.234 7      2231.188    20534342.760    85464881.275 8      1735.368    20534342.640    85464881.273 8      1735.368
R14  20808247.660   110919659.943 8      -767.049    20808247.280   110919659.935 8      -767.049    20808260.320    86270896.192 8      -596.593    20808260.300    86270901.187 8      -596.593
G01  21971049.160   115458644.021 7      4501.680    21971047.760   115458644.025 6      4501.680    21971056.020    89967801.172 6      3507.803    21971056.480    89967807.179 8      3507.803
G10  22857371.400   120116294.569 7       868.711    22857370.240   120116294.569 6       868.711    22857380.860    93597145.318 6       676.918    22857380.800    93597150.326 7       676.918
R24  22307857.940   119290127.705 7       397.266    22307857.740   119290127.712 7       397.266    22307872.820    92781271.647 7       308.984    22307872.040    92781271.637 7       308.984
R18  22186096.460   118430889.070 6      4129.556    22186093.240   118430889.053 6      4129.556    22186109.780    92112974.593 7      3211.877    22186110.240    92112974.595 7      3211.877
G16  22297314.660   117173176.276 7      -290.104    22297313.120   117173176.276 5      -290.104    22297322.060    91303787.351 5      -226.055
R16  23147612.820   123650395.097 6      6312.915    23147611.580   123650395.112 6      6312.915    23147627.760    96172585.976 7      4910.045    23147627.000    96172580.960 7      4910.045
> 2025 04 04 14 41 24.0000000  0 12
G27  21443804.760   112687948.307 7      1561.296    21443803.220   112687948.307 7      1561.296    21443812.560    87808822.407 7      1216.594    21443813.120    87808823.402 8      1216.594
G02  21031939.480   110523588.030 8      2582.067    21031938.020   110523588.037 6      2582.067    21031940.820    86122283.532 6      2012.000
