     3.05           OBSERVATION DATA    MIXED               RINEX VERSION / TYPE
TPS2RIN 1.0.28.3459 TPS-USER            20250407 105814 UTC PGM / RUN BY / DATE
Win64 build Jun 01, 2022 (c) Topcon Positioning Systems     COMMENT
SRC: 20250404_grav_20250404_171153.tps                      COMMENT
Observer            Agency                                  OBSERVER / AGENCY
O0M3X53SBGM         TPS HIPER_SR        4.8 HSR Jul,08,2022 REC # / TYPE / VERS
FW: 4.8 HSR Jul,08,2022 p3                                  COMMENT
SN: HiPer SR 1212-12575                                     COMMENT
000                 TPSHIPER_SR     NONE                    ANT # / TYPE
        1.8000        0.0000        0.0000                  ANTENNA: DELTA H/E/N
DELTA H stands for **SLANT** height here!                   COMMENT
Oro05                                                       MARKER NAME
  5383975.2812 -1598138.2400  3013976.0366                  APPROX POSITION XYZ
  2025     4     4    15    12   16.0000000     GPS         TIME OF FIRST OBS
  2025     4     4    15    29   18.0000000     GPS         TIME OF LAST OBS
     1.000                                                  INTERVAL
  1023 EPOCHS                                               COMMENT
G   12 C1C L1C D1C C1W L1W D1W C2W L2W D2W C2X L2X D2X      SYS / # / OBS TYPES
R   12 C1C L1C D1C C1P L1P D1P C2P L2P D2P C2C L2C D2C      SYS / # / OBS TYPES
    19                                                      # OF SATELLITES
   G01  1023  1023  1023  1023  1023  1023  1023  1023  1023PRN / # OF OBS
        1023  1023  1023                                    PRN / # OF OBS
   G02  1023  1023  1023  1023  1023  1023  1023  1023  1023PRN / # OF OBS
           0     0     0                                    PRN / # OF OBS
   G03   269   269   269   255   255   255   256   256   256PRN / # OF OBS
         235   235   235                                    PRN / # OF OBS
   G07   739   739   739   735   735   735   737   737   737PRN / # OF OBS
         739   739   739                                    PRN / # OF OBS
   G08  1023  1023  1023  1023  1023  1023  1023  1023  1023PRN / # OF OBS
        1023  1023  1023                                    PRN / # OF OBS
   G10  1023  1023  1023  1023  1023  1023  1023  1023  1023PRN / # OF OBS
        1023  1023  1023                                    PRN / # OF OBS
   G14   491   491   491   491   491   491   491   491   491PRN / # OF OBS
         491   491   491                                    PRN / # OF OBS
   G16  1023  1023  1023  1023  1023  1023  1023  1023  1023PRN / # OF OBS
           0     0     0                                    PRN / # OF OBS
   G27  1023  1023  1023  1023  1023  1023  1023  1023  1023PRN / # OF OBS
        1023  1023  1023                                    PRN / # OF OBS
   G32   217   217   217   215   215   215   215   215   215PRN / # OF OBS
         211   211   211                                    PRN / # OF OBS
   R01  1023  1023  1023  1023  1023  1023  1023  1023  1023PRN / # OF OBS
        1023  1023  1023                                    PRN / # OF OBS
   R02  1023  1023  1023  1023  1023  1023  1023  1023  1023PRN / # OF OBS
        1023  1023  1023                                    PRN / # OF OBS
   R03   231   231   231   225   225   225   225   225   225PRN / # OF OBS
         224   224   224                                    PRN / # OF OBS
   R14  1021  1021  1021  1021  1021  1021  1021  1021  1021PRN / # OF OBS
        1021  1021  1021                                    PRN / # OF OBS
   R15  1023  1023  1023  1023  1023  1023  1023  1023  1023PRN / # OF OBS
        1023  1023  1023                                    PRN / # OF OBS
   R16  1023  1023  1023  1023  1023  1023  1023  1023  1023PRN / # OF OBS
        1023  1023  1023                                    PRN / # OF OBS
   R17  1023  1023  1023  1023  1023  1023  1023  1023  1023PRN / # OF OBS
        1023  1023  1023                                    PRN / # OF OBS
   R18  1023  1023  1023  1023  1023  1023  1023  1023  1023PRN / # OF OBS
        1023  1023  1023                                    PRN / # OF OBS
   R24  1023  1023  1023  1023  1023  1023  1023  1023  1023PRN / # OF OBS
        1023  1023  1023                                    PRN / # OF OBS
G L1C                                                       SYS / PHASE SHIFT
G L1W -0.25000                                              SYS / PHASE SHIFT
G L2W  0.00000                                              SYS / PHASE SHIFT
G L2X  0.25000                                              SYS / PHASE SHIFT
R L1C                                                       SYS / PHASE SHIFT
R L1P -0.25000                                              SYS / PHASE SHIFT
R L2P -0.25000                                              SYS / PHASE SHIFT
R L2C                                                       SYS / PHASE SHIFT
  9 R01  1 R02 -4 R03  5 R14 -7 R15  0 R16 -1 R17  4 R18 -3 GLONASS SLOT / FRQ #
    R24  2                                                  GLONASS SLOT / FRQ #
                                                            GLONASS COD/PHS/BIS
    18                  GPS                                 LEAP SECONDS
                                                            END OF HEADER
> 2025 04 04 15 12 16.0000000  0 15
R01  22616138.000   120896213.769 6      1917.306    22616138.800   120896213.776 6      1917.306    22616153.620    94030392.297 6      1491.238    22616151.200    94030392.547 6      1491.238
G02  21123007.380   111002147.903 8      2066.965    21123006.480   111002147.911 6      2066.965    21123008.740    86495183.331 6      1610.622
R24  23056199.680   123291854.682 6       525.128    23056197.920   123291854.684 6       525.128    23056213.180    95893720.194 6       408.433    23056214.100    95893736.201 7       408.433
G08  20623189.580   108375589.005 8      2951.993    20623189.020   108375589.005 8      2951.993    20623196.020    84448538.066 8      2300.254    20623196.800    84448543.070 8      2300.254
R15  20035142.800   107061721.380 7      1412.697    20035142.140   107061721.367 7      1412.697    20035153.760    83270272.838 8      1098.765    20035153.760    83270273.842 8      1098.765
G01  21407435.260   112496828.490 7      3822.724    21407434.300   112496828.497 6      3822.724    21407440.100    87659888.640 6      2978.746    21407440.680    87659890.649 8      2978.746
G27  21876962.560   114964209.849 7      1120.411    21876961.360   114964209.843 7      1120.411    21876970.940    89582536.366 7       873.047    21876971.360    89582531.374 8       873.047
R17  20713407.420   110841630.277 8      1988.757    20713408.800   110841630.298 7      1988.757    20713418.560    86210198.927 8      1546.811    20713418.120    86210197.933 8      1546.811
R18  21727320.580   115981895.046 7      3740.054    21727320.280   115981895.034 7      3740.054    21727333.540    90208217.123 8      2908.931    21727333.500    90208209.128 8      2908.931
G07  24158844.600   126955575.181 6      1535.542    24158843.640   126955575.189 3      1535.542    24158857.280    98926446.545 3      1196.527    24158859.140    98926464.562 6      1196.527
G10  23614071.000   124092764.364 7        28.947    23614069.000   124092764.366 6        28.947    23614078.960    96695707.077 6        22.556    23614079.440    96695710.068 7        22.556
R02  21997134.880   117380934.870 7      5029.012    21997127.320   117380934.863 7      5029.012    21997143.840    91296308.537 7      3911.453    21997143.720    91296310.542 7      3911.453
R16  22027821.080   117668637.274 7      5271.327    22027820.420   117668637.280 7      5271.327    22027833.620    91520141.131 7      4099.921    22027833.400    91520115.132 7      4099.921
G16  23402293.620   122979877.467 6      -790.512    23402291.760   122979877.467 4      -790.512    23402306.840    95828511.102 4      -615.983
R14  22117130.640   117896744.814 6     -1464.985    22117131.100   117896744.831 5     -1464.985    22117150.100    91697552.494 7     -1139.433    22117150.340    91697552.493 7     -1139.433
> 2025 04 04 15 12 17.0000000  0 15
R01  22615779.480   120894296.264 6      1917.542    22615780.320   120894296.278 6      1917.542    22615794.180    94028901.690 6      1491.422    22615793.100    94028901.940 6      1491.422
G02  21122613.920   111000080.491 8      2067.905    21122612.900   111000080.498 6      2067.905    21122615.440    86493572.371 6      1611.354
R24  23056101.820   123291328.988 6       526.471    23056100.040   123291328.987 6       526.471    23056114.980    95893311.316 7       409.477    23056115.920    95893327.319 7       409.477
G08  20622627.940   108372636.550 8      2952.881    20622627.200   108372636.553 8      2952.881    20622634.240    84446237.466 8      2300.947    20622635.040    84446242.470 8      2300.947
R15  20034878.520   107060308.490 7      1413.054    20034877.680   107060308.475 7      1413.054    20034889.340    83269173.930 8      1099.042    20034889.340    83269174.933 8      1099.042
G01  21406707.860   112493005.423 7      3823.405    21406706.920   112493005.428 6      3823.405    21406712.540    87656909.635 6      2979.277    21406713.200    87656911.641 8      2979.277
G27  21876749.240   114963089.021 7      1121.240    21876748.000   114963089.015 7      1121.240    21876757.580    89581663.001 7       873.693    21876758.100    89581658.010 8       873.693
R17  20713035.580   110839640.915 8      1989.884    20713037.100   110839640.935 7      1989.884    20713046.860    86208651.653 8      1547.688    20713046.480    86208650.657 8      1547.688
R18  21726619.580   115978154.382 7      3741.144    21726619.460   115978154.375 7      3741.144    21726632.640    90205307.736 8      2909.779    21726632.820    90205299.739 8      2909.779
G07  24158552.180   126954039.242 6      1536.426    24158551.420   126954039.247 3      1536.426    24158565.100    98925249.711 3      1197.215    24158566.240    98925267.718 6      1197.215
G10  23614065.420   124092735.022 7        29.728    23614063.500   124092735.025 6        29.728    23614073.380    96695684.222 6        23.165    23614073.280    96695687.209 7        23.165
R02  21996192.460   117375905.528 7      5029.580    21996184.920   117375905.521 7      5029.580    21996200.840    91292396.843 7      3911.895    21996200.980    91292398.845 7      3911.895
R16  22026834.500   117663365.746 7      5271.703    22026833.640   117663365.747 7      5271.703    22026846.860    91516041.063 7      4100.213    22026846.760    91516015.065 7      4100.213
G16  23402444.120   122980667.514 6      -789.596    23402442.080   122980667.514 4      -789.596    23402457.180    95829126.724 4      -615.270
R14  22117406.100   117898209.296 6     -1464.171    22117405.240   117898209.293 5     -1464.171    22117424.480    91698691.504 7     -1138.800    22117425.180    91698691.497 7     -1138.800
> 2025 04 04 15 12 18.0000000  0 15
R01  22615420.400   120892378.740 6      1917.510    22615421.380   120892378.744 6      1917.510    22615435.940    94027408.754 6      1491.397    22615434.240    94027409.004 6      1491.397
G02  21122220.420   110998012.513 8      2068.228    21122219.280   110998012.518 6      2068.228    21122221.820    86491960.960 6      1611.606
R24  23056002.920   123290802.403 6       527.156    23056001.300   123290802.402 6       527.156    23056016.000    95892901.746 7       410.010    23056017.380    95892917.751 6       410.010
G08  20622066.040   108369683.565 8      2953.232    20622065.180   108369683.567 8      2953.232    20622072.180    84443936.449 8      2301.220    20622072.960    84443941.453 8      2301.220
R15  20034614.120   107058895.579 7      1412.953    20034613.220   107058895.572 7      1412.953    20034625.020    83268075.016 8      1098.964    20034625.040    83268076.021 8      1098.964
G01  21405980.220   112489181.875 7      3823.759    21405979.160   112489181.882 6      3823.759    21405984.900    87653930.263 6      2979.553    21405985.460    87653932.268 8      2979.553
G27  21876535.760   114961967.630 7      1121.756    21876534.560   114961967.627 7      1121.756    21876544.220    89580789.197 7       874.095    21876544.700    89580784.205 8       874.095
R17  20712663.680   110837650.837 8      1990.470    20712665.440   110837650.858 8      1990.470    20712675.280    86207103.818 8      1548.143    20712674.440    86207102.819 8      1548.143
R18  21725918.880   115974413.074 7      3741.644    21725918.820   115974413.048 7      3741.644    21725931.900    90202397.835 8      2910.167    21725931.740    90202389.841 8      2910.167
G07  24158259.880   126952502.835 6      1536.702    24158259.060   126952502.840 3      1536.702    24158272.800    98924052.509 3      1197.430    24158275.100    98924070.518 6      1197.430
G10  23614059.880   124092705.250 6        30.100    23614057.760   124092705.244 6        30.100    23614067.700    96695661.029 6        23.454    23614067.860    96695664.022 7        23.454
R02  21995249.920   117370875.912 7      5029.723    21995242.560   117370875.902 7      5029.723    21995258.140    91288484.933 7      3912.007    21995258.600    91288486.937 7      3912.007
R16  22025847.400   117658094.093 7      5271.678    22025846.980   117658094.097 7      5271.678    22025859.900    91511940.894 7      4100.194    22025859.680    91511914.899 7      4100.194
G16  23402594.260   122981456.949 6      -789.095    23402592.220   122981456.946 4      -789.095    23402607.360    95829741.860 4      -614.880
R14  22117680.780   117899673.121 6     -1463.442    22117679.680   117899673.093 6     -1463.442    22117699.160    91699829.990 7     -1138.233    22117699.600    91699829.985 7     -1138.233
> 2025 04 04 15 12 19.0000000  0 15
R01  22615062.040   120890461.446 6      1917.185    22615062.340   120890461.455 6      1917.185    22615076.600    94025918.813 6      1491.144    22615075.960    94025919.063 6      1491.144
G02  21121826.620   110995944.181 7      2068.505    21121825.700   110995944.189 6      2068.505    21121828.300    86490349.283 6      1611.822
R24  23055904.300   123290275.257 6       527.463    23055902.800   123290275.242 6       527.463    23055916.840    95892491.725 7       410.249    23055918.600    95892507.732 6       410.249
G08  20621504.040   108366730.277 8      2953.515    20621503.180   108366730.282 8      2953.515    20621510.160    84441635.191 8      2301.440    20621510.880    84441640.193 8      2301.440
R15  20034349.720   107057482.952 7      1412.535    20034348.860   107057482.958 7      1412.535    20034360.800    83266976.320 8      1098.638    20034360.700    83266977.323 8      1098.638
G01  21405252.520   112485358.156 7      3823.879    21405251.660   112485358.163 6      3823.879    21405257.320    87650950.752 6      2979.646    21405257.680    87650952.748 8      2979.646
G27  21876322.440   114960845.969 7      1121.870    21876321.060   114960845.969 7      1121.870    21876330.760    89579915.177 7       874.184    21876331.300    89579910.186 8       874.184
R17  20712291.860   110835660.241 8      1990.989    20712293.540   110835660.259 7      1990.989    20712303.060    86205555.578 8      1548.547    20712302.360    86205554.579 8      1548.547
R18  21725217.880   115970671.382 7      3741.882    21725217.980   115970671.364 7      3741.882    21725230.920    90199487.644 7      2910.353    21725231.020    90199479.647 8      2910.353
G07  24157967.140   126950966.216 6      1536.720    24157966.640   126950966.218 3      1536.720    24157980.400    98922855.145 3      1197.444    24157982.140    98922873.150 6      1197.444
G10  23614054.300   124092675.325 7        30.104    23614052.200   124092675.317 6        30.104    23614062.100    96695637.715 6        23.458    23614061.860    96695640.706 7        23.458
R02  21994307.600   117365846.276 7      5029.807    21994299.500   117365846.269 7      5029.807    21994315.460    91284573.005 7      3912.072    21994315.820    91284575.000 7      3912.072
R16  22024860.840   117652822.555 7      5271.518    22024860.040   117652822.567 7      5271.518    22024873.340    91507840.834 7      4100.069    22024872.940    91507814.838 8      4100.069
G16  23402744.160   122982246.022 6      -788.834    23402742.420   122982246.019 4      -788.834    23402757.320    95830356.715 4      -614.676
R14  22117955.720   117901136.582 6     -1463.155    22117954.360   117901136.572 6     -1463.155    22117973.300    91700968.254 7     -1138.010    22117974.080    91700968.257 7     -1138.010
> 2025 04 04 15 12 20.0000000  0 15
R01  22614703.560   120888544.347 7      1916.797    22614703.400   120888544.359 6      1916.797    22614718.140    94024428.372 6      1490.842    22614717.420    94024428.622 6      1490.842
G02  21121433.140   110993875.492 8      2068.697    21121432.040   110993875.500 6      2068.697    21121434.640    86488737.327 6      1611.972
R24  23055805.560   123289747.343 6       528.028    23055803.740   123289747.339 6       528.028    23055818.120    95892081.138 6       410.689    23055819.940    95892097.143 6       410.689
G08  20620942.020   108363776.676 8      2953.597    20620941.160   108363776.678 8      2953.597    20620948.180    84439333.695 8      2301.504    20620948.840    84439338.699 8      2301.504
R15  20034085.620   107056070.591 7      1412.094    20034084.700   107056070.587 7      1412.094    20034096.580    83265877.818 8      1098.295    20034096.200    83265878.820 8      1098.295
G01  21404524.820   112481534.190 7      3823.921    21404523.960   112481534.197 6      3823.921    21404529.640    87647971.044 6      2979.679    21404530.420    87647973.049 8      2979.679
G27  21876109.220   114959723.964 7      1122.007    21876107.580   114959723.958 7      1122.007    21876117.140    89579040.892 7       874.291    21876117.620    89579035.896 8       874.291
R17  20711919.620   110833669.088 7      1991.199    20711921.200   110833669.114 8      1991.199    20711931.120    86204006.914 8      1548.710    20711930.460    86204005.913 8      1548.710
R18  21724516.480   115966929.271 7      3742.094    21724517.420   115966929.261 7      3742.094    21724530.200    90196577.128 7      2910.517    21724530.100    90196569.135 8      2910.517
G07  24157674.640   126949429.302 6      1536.747    24157674.340   126949429.304 3      1536.747    24157688.020    98921657.548 3      1197.465    24157689.960    98921675.547 6      1197.465
G10  23614048.220   124092645.198 7        29.927    23614046.560   124092645.198 6        29.927    23614056.380    96695614.241 6        23.319    23614056.520    96695617.237 7        23.319
R02  21993365.000   117360816.550 7      5029.606    21993357.360   117360816.535 7      5029.606    21993372.780    91280661.019 7      3911.916    21993373.260    91280663.024 7      3911.916
R16  22023874.140   117647551.124 7      5271.201    22023873.340   117647551.127 7      5271.201    22023886.540    91503740.828 7      4099.823    22023885.880    91503714.830 7      4099.823
G16  23402894.420   122983034.729 6      -788.723    23402892.540   122983034.729 4      -788.723    23402907.440    95830971.286 4      -614.589
R14  22118230.720   117902599.667 6     -1462.973    22118229.840   117902599.630 6     -1462.973    22118247.780    91702106.173 7     -1137.868    22118248.320    91702106.168 7     -1137.868
> 2025 04 04 15 12 21.0000000  0 15
R01  22614344.920   120886627.601 7      1916.582    22614344.800   120886627.608 6      1916.582    22614359.360    94022937.266 6      1490.675    22614358.840    94022937.516 6      1490.675
G02  21121039.420   110991806.585 8      2069.149    21121038.240   110991806.592 6      2069.149    21121040.900    86487125.200 6      1612.324
R24  23055707.160   123289218.903 6       528.860    23055705.080   123289218.910 6       528.860    23055720.120    95891670.137 6       411.335    23055721.180    95891686.140 6       411.335
G08  20620380.200   108360822.886 8      2954.050    20620378.960   108360822.886 8      2954.050    20620385.960    84437032.040 8      2301.857    20620386.460    84437037.044 8      2301.857
R15  20033820.860   107054658.632 8      1411.968    20033820.440   107054658.630 7      1411.968    20033832.300    83264779.633 8      1098.198    20033832.240    83264780.636 8      1098.198
G01  21403797.100   112477710.148 7      3824.179    21403796.240   112477710.155 6      3824.179    21403801.900    87644991.284 6      2979.880    21403802.560    87644993.282 8      2979.880
G27  21875895.620   114958601.759 7      1122.433    21875894.060   114958601.753 7      1122.433    21875903.440    89578166.450 7       874.623    21875903.700    89578161.459 8       874.623
R17  20711547.640   110831677.547 8      1991.885    20711549.240   110831677.570 8      1991.885    20711558.880    86202457.950 8      1549.244    20711558.180    86202456.950 8      1549.244
R18  21723815.020   115963186.869 7      3742.602    21723816.520   115963186.854 7      3742.602    21723828.820    90193666.385 7      2910.913    21723828.800    90193658.390 8      2910.913
G07  24157382.100   126947892.259 6      1537.327    24157381.940   126947892.259 3      1537.327    24157395.580    98920459.846 3      1197.918    24157396.680    98920477.849 6      1197.918
G10  23614042.380   124092614.955 7        30.450    23614040.820   124092614.958 6        30.450    23614050.700    96695590.685 6        23.727    23614051.020    96695593.673 7        23.727
R02  21992422.020   117355786.851 7      5029.815    21992414.940   117355786.843 7      5029.815    21992429.780    91276749.057 7      3912.079    21992430.760    91276751.061 7      3912.079
R16  22022887.000   117642279.927 7      5271.177    22022886.340   117642279.926 7      5271.177    22022899.940    91499641.015 8      4099.804    22022899.320    91499615.017 8      4099.804
G16  23403044.420   122983823.174 7      -788.274    23403042.780   122983823.176 4      -788.274    23403057.480    95831585.654 4      -614.239
R14  22118504.880   117904062.419 6     -1462.693    22118504.480   117904062.414 6     -1462.693    22118522.220    91703243.898 7     -1137.650    22118522.740    91703243.899 7     -1137.650
> 2025 04 04 15 12 22.0000000  0 15
R01  22613986.560   120884710.943 7      1916.864    22613986.360   120884710.952 6      1916.864    22614000.580    94021447.324 6      1490.894    22614000.200    94021447.574 6      1490.894
G02  21120645.560   110989737.230 8      2069.871    21120644.520   110989737.235 6      2069.871    21120647.140    86485512.724 6      1612.886
R24  23055608.320   123288689.752 6       529.775    23055606.520   123288689.769 6       529.775    23055621.040    95891258.591 6       412.047    23055622.040    95891274.590 6       412.047
G08  20619817.940   108357868.710 8      2954.604    20619816.820   108357868.710 8      2954.604    20619823.920    84434730.097 8      2302.289    20619824.480    84434735.101 8      2302.289
R15  20033556.860   107053246.918 7      1411.882    20033556.200   107053246.922 7      1411.882    20033567.860    83263681.642 8      1098.131    20033568.040    83263682.644 8      1098.131
G01  21403069.200   112473885.772 7      3824.764    21403068.520   112473885.780 6      3824.764    21403074.140    87642011.259 6      2980.335    21403074.680    87642013.262 8      2980.335
G27  21875681.800   114957479.147 7      1123.014    21875680.300   114957479.149 7      1123.014    21875689.980    89577291.702 7       875.076    21875689.920    89577286.710 8       875.076
R17  20711175.240   110829685.477 8      1992.629    20711176.700   110829685.500 7      1992.629    20711186.740    86200908.568 8      1549.822    20711186.200    86200907.566 8      1549.822
R18  21723113.940   115959443.947 7      3743.438    21723115.880   115959443.937 7      3743.438    21723127.780    90190755.234 7      2911.563    21723127.840    90190747.238 8      2911.563
G07  24157089.080   126946354.901 6      1537.816    24157089.400   126946354.903 3      1537.816    24157103.060    98919261.898 3      1198.298    24157104.860    98919279.916 6      1198.298
G10  23614036.720   124092584.479 7        30.821    23614034.840   124092584.478 6        30.821    23614044.940    96695566.935 6        24.017    23614045.040    96695569.931 7        24.017
R02  21991479.760   117350757.031 7      5030.270    21991472.340   117350757.024 7      5030.270    21991486.980    91272836.990 7      3912.432    21991487.860    91272838.996 7      3912.432
R16  22021900.280   117637008.731 7      5271.528    22021899.600   117637008.727 7      5271.528    22021913.280    91495541.204 7      4100.077    22021912.620    91495515.208 8      4100.077
G16  23403194.740   122984611.135 7      -787.443    23403192.760   122984611.137 4      -787.443    23403207.460    95832199.648 4      -613.592
R14  22118780.080   117905524.728 6     -1461.657    22118778.600   117905524.720 6     -1461.657    22118796.260    91704381.241 7     -1136.844    22118797.080    91704381.239 7     -1136.844
> 2025 04 04 15 12 23.0000000  0 15
R01  22613628.460   120882794.464 6      1916.270    22613627.920   120882794.465 6      1916.270    22613641.740    94019958.463 6      1490.433    22613641.740    94019958.713 6      1490.433
G02  21120251.740   110987667.469 8      2069.896    21120250.620   110987667.479 6      2069.896    21120253.280    86483899.931 6      1612.906
R24  23055509.060   123288159.884 6       530.166    23055507.620   123288159.888 6       530.166    23055521.440    95890846.459 6       412.351    23055522.820    95890862.452 7       412.351
G08  20619255.560   108354914.148 8      2954.601    20619254.460   108354914.148 8      2954.601    20619261.700    84432427.851 8      2302.287    20619262.440    84432432.857 8      2302.287
R15  20033292.860   107051835.436 8      1411.240    20033292.360   107051835.432 7      1411.240    20033303.800    83262583.819 8      1097.631    20033303.800    83262584.823 8      1097.631
G01  21402341.300   112470061.139 7      3824.610    21402340.660   112470061.144 6      3824.610    21402346.340    87639031.035 6      2980.216    21402347.080    87639033.034 8      2980.216
G27  21875468.160   114956356.133 7      1123.162    21875466.540   114956356.132 7      1123.162    21875476.120    89576416.632 7       875.191    21875476.300    89576411.639 8       875.191
R17  20710802.860   110827692.855 8      1992.796    20710804.160   110827692.878 8      1992.796    20710814.380    86199358.756 8      1549.953    20710813.780    86199357.755 8      1549.953
R18  21722412.720   115955700.536 7      3743.569    21722414.620   115955700.529 7      3743.569    21722426.740    90187843.711 8      2911.665    21722426.620    90187835.717 8      2911.665
G07  24156796.740   126944817.199 6      1538.038    24156796.840   126944817.204 3      1538.038    24156810.660    98918063.691 3      1198.471    24156812.340    98918081.704 6      1198.471
G10  23614031.120   124092553.708 7        30.774    23614029.040   124092553.702 6        30.774    23614039.080    96695542.964 6        23.980    23614039.400    96695545.954 7        23.980
R02  21990536.960   117345727.118 7      5029.902    21990529.940   117345727.111 7      5029.902    21990544.240    91268924.858 7      3912.146    21990545.040    91268926.864 7      3912.146
R16  22020913.620   117631737.569 7      5271.102    22020912.980   117631737.568 7      5271.102    22020926.420    91491441.422 7      4099.746    22020926.000    91491415.426 8      4099.746
G16  23403344.620   122985398.665 6      -787.335    23403342.700   122985398.670 4      -787.335    23403357.180    95832813.310 4      -613.508
R14  22119053.760   117906986.744 6     -1462.086    22119052.600   117906986.758 6     -1462.086    22119070.920    91705518.373 7     -1137.178    22119071.180    91705518.377 7     -1137.178
> 2025 04 04 15 12 24.0000000  0 15
R01  22613270.040   120880878.031 6      1916.387    22613269.960   120880878.037 6      1916.387    22613283.800    94018468.272 6      1490.524    22613283.040    94018468.522 6      1490.524
G02  21119857.780   110985597.206 8      2070.475    21119856.460   110985597.211 6      2070.475    21119859.380    86482286.745 6      1613.357
R24  23055409.800   123287629.155 6       531.131    23055407.920   123287629.159 6       531.131    23055422.560    95890433.685 6       413.102    23055423.780    95890449.683 7       413.102
G08  20618693.060   108351959.129 8      2955.167    20618692.200   108351959.131 8      2955.167    20618699.380    84430125.245 8      2302.728    20618700.180    84430130.251 8      2302.728
R15  20033028.760   107050424.038 8      1411.303    20033028.340   107050424.042 7      1411.303    20033039.540    83261486.077 8      1097.680    20033039.680    83261487.083 8      1097.680
G01  21401613.600   112466236.112 7      3825.162    21401612.760   112466236.117 6      3825.162    21401618.400    87636050.501 6      2980.646    21401618.900    87636052.503 8      2980.646
G27  21875254.560   114955232.674 7      1123.674    21875252.740   114955232.677 7      1123.674    21875262.420    89575541.210 7       875.590    21875263.060    89575536.219 8       875.590
R17  20710430.400   110825699.573 8      1993.553    20710431.500   110825699.595 8      1993.553    20710441.760    86197808.433 8      1550.541    20710441.100    86197807.434 8      1550.541
R18  21721711.720   115951956.549 7      3744.248    21721713.340   115951956.536 7      3744.248    21721725.100    90184931.727 7      2912.193    21721725.080    90184923.736 8      2912.193
G07  24156504.340   126943279.163 6      1538.256    24156504.220   126943279.168 3      1538.256    24156517.900    98916865.219 3      1198.641    24156519.300    98916883.216 6      1198.641
G10  23614025.100   124092522.614 7        31.158    23614023.120   124092522.616 6        31.158    23614033.060    96695518.739 6        24.279    23614033.440    96695521.739 7        24.279
R02  21989594.200   117340697.016 7      5030.166    21989587.140   117340697.003 7      5030.166    21989601.580    91265012.561 7      3912.352    21989602.180    91265014.562 7      3912.352
R16  22019926.880   117626466.354 7      5271.184    22019926.160   117626466.350 7      5271.184    22019939.480    91487341.596 7      4099.810    22019939.280    91487315.598 8      4099.810
G16  23403494.560   122986185.701 6      -786.864    23403492.520   122986185.701 4      -786.864    23403506.980    95833426.577 4      -613.141
R14  22119328.220   117908448.232 6     -1461.177    22119327.500   117908448.233 6     -1461.177    22119345.240    91706655.049 7     -1136.471    22119345.460    91706655.044 7     -1136.471
> 2025 04 04 15 12 25.0000000  0 15
R01  22612911.220   120878961.627 6      1916.433    22612911.460   120878961.633 6      1916.433    22612924.700    94016976.417 6      1490.559    22612924.460    94016976.667 6      1490.559
G02  21119463.520   110983526.393 8      2071.077    21119462.480   110983526.398 6      2071.077    21119465.200    86480673.137 6      1613.826
R24  23055310.540   123287097.549 6       532.033    23055308.540   123287097.555 6       532.033    23055323.120    95890020.226 6       413.803    23055324.100    95890036.233 7       413.803
G08  20618130.420   108349003.592 8      2955.808    20618129.780   108349003.589 8      2955.808    20618137.000    84427822.235 8      2303.227    20618137.920    84427827.243 8      2303.227
R15  20032764.180   107049012.674 8      1411.328    20032764.360   107049012.683 7      1411.328    20032775.580    83260388.358 8      1097.700    20032775.160    83260389.362 8      1097.700
G01  21400885.900   112462410.685 7      3825.606    21400884.800   112462410.690 6      3825.606    21400890.520    87633069.661 6      2980.992    21400891.280    87633071.662 8      2980.992
G27  21875040.700   114954108.701 7      1124.213    21875038.860   114954108.698 7      1124.213    21875048.380    89574665.391 7       876.010    21875049.100    89574660.401 8       876.010
R17  20710057.820   110823705.562 8      1994.293    20710058.600   110823705.585 8      1994.293    20710069.300    86196257.549 8      1551.117    20710068.980    86196256.546 8      1551.117
R18  21721009.860   115948211.971 7      3744.879    21721011.780   115948211.970 7      3744.879    21721023.800    90182019.286 8      2912.684    21721023.880    90182011.293 8      2912.684
G07  24156212.300   126941740.652 6      1538.809    24156211.380   126941740.654 3      1538.809    24156225.160    98915666.377 3      1199.072    24156226.480    98915684.366 6      1199.072
G10  23614019.200   124092491.081 7        31.949    23614017.100   124092491.083 6        31.949    23614027.000    96695494.180 6        24.895    23614027.040    96695497.176 7        24.895
R02  21988651.420   117335666.607 7      5030.539    21988644.940   117335666.605 7      5030.539    21988658.720    91261100.037 7      3912.641    21988659.400    91261102.038 7      3912.641
R16  22018940.180   117621195.043 7      5271.250    22018939.360   117621195.044 7      5271.250    22018952.860    91483241.706 7      4099.861    22018952.640    91483215.706 8      4099.861
G16  23403644.280   122986972.120 6      -786.129    23403642.260   122986972.119 4      -786.129    23403656.640    95834039.368 4      -612.568
R14  22119602.460   117909909.204 6     -1460.789    22119602.160   117909909.199 6     -1460.789    22119618.680    91707791.348 7     -1136.169    22119619.180    91707791.339 7     -1136.169
> 2025 04 04 15 12 26.0000000  0 15
R01  22612552.600   120877045.399 6      1916.198    22612552.480   120877045.395 6      1916.198    22612566.280    94015485.394 6      1490.376    22612565.120    94015485.644 6      1490.376
G02  21119069.560   110981455.179 8      2071.507    21119068.460   110981455.184 6      2071.507    21119071.360    86479059.206 6      1614.161
R24  23055210.480   123286565.261 6       532.583    23055208.880   123286565.276 6       532.583    23055224.020    95889606.230 6       414.231    23055224.980    95889622.225 7       414.231
G08  20617568.300   108346047.684 8      2956.151    20617567.280   108346047.689 8      2956.151    20617574.500    84425518.943 8      2303.495    20617575.160    84425523.951 8      2303.495
R15  20032500.680   107047601.497 8      1411.121    20032500.360   107047601.501 7      1411.121    20032511.440    83259290.780 8      1097.539    20032511.360    83259291.784 8      1097.539
G01  21400157.680   112458584.988 7      3825.884    21400156.940   112458584.990 6      3825.884    21400162.400    87630088.609 6      2981.208    21400163.040    87630090.605 8      2981.208
G27  21874826.560   114952984.339 7      1124.691    21874824.980   114952984.333 7      1124.691    21874834.560    89573789.271 7       876.382    21874835.060    89573784.279 8       876.382
R17  20709685.300   110821710.966 8      1994.949    20709685.860   110821710.991 8      1994.949    20709696.600    86194706.206 8      1551.627    20709695.760    86194705.208 8      1551.627
R18  21720308.700   115944466.935 7      3745.279    21720310.260   115944466.931 7      3745.279    21720322.120    90179106.497 7      2912.995    21720321.920    90179098.503 8      2912.995
G07  24155919.360   126940201.851 6      1538.914    24155918.720   126940201.856 3      1538.914    24155932.320    98914467.308 3      1199.154    24155934.080    98914485.299 6      1199.154
G10  23614012.880   124092459.351 7        31.939    23614011.160   124092459.356 6        31.939    23614021.040    96695469.464 6        24.887    23614020.740    96695472.458 7        24.887
R02  21987708.820   117330636.070 7      5030.730    21987702.060   117330636.065 7      5030.730    21987715.680    91257187.409 7      3912.790    21987716.560    91257189.413 7      3912.790
R16  22017953.260   117615923.812 7      5271.170    22017952.960   117615923.816 7      5271.170    22017966.080    91479141.868 8      4099.799    22017966.040    91479115.868 8      4099.799
G16  23403794.280   122987758.136 6      -785.814    23403791.920   122987758.136 4      -785.814    23403806.180    95834651.847 4      -612.323
R14  22119876.040   117911369.650 6     -1460.067    22119875.900   117911369.659 6     -1460.067    22119893.040    91708927.259 7     -1135.608    22119893.260    91708927.252 7     -1135.608
> 2025 04 04 15 12 27.0000000  0 15
R01  22612194.540   120875129.375 6      1915.699    22612193.940   120875129.389 6      1915.699    22612207.740    94013996.700 6      1489.988    22612206.900    94013996.950 6      1489.988
G02  21118675.300   110979383.607 7      2071.704    21118674.300   110979383.615 6      2071.704    21118677.060    86477445.013 6      1614.315
R24  23055110.720   123286032.286 6       533.148    23055109.460   123286032.298 6       533.148    23055124.180    95889191.696 6       414.670    23055125.600    95889207.697 7       414.670
G08  20617005.680   108343091.493 8      2956.252    20617004.620   108343091.495 8      2956.252    20617011.860    84423215.425 8      2303.573    20617012.880    84423220.433 8      2303.573
R15  20032236.580   107046190.571 8      1410.649    20032236.340   107046190.581 7      1410.649    20032247.520    83258193.400 8      1097.171    20032247.460    83258194.404 8      1097.171
G01  21399429.560   112454759.062 7      3825.952    21399428.640   112454759.064 6      3825.952    21399434.440    87627107.374 6      2981.262    21399434.920    87627109.378 8      2981.262
G27  21874612.600   114951859.683 7      1124.726    21874610.880   114951859.677 7      1124.726    21874620.400    89572912.915 7       876.410    21874620.880    89572907.923 8       876.410
R17  20709312.380   110819715.920 8      1995.169    20709313.000   110819715.943 7      1995.169    20709323.760    86193154.506 8      1551.798    20709323.160    86193153.507 8      1551.798
R18  21719606.980   115940721.458 7      3745.526    21719608.100   115940721.456 7      3745.526    21719620.520    90176193.357 8      2913.187    21719620.520    90176185.361 8      2913.187
G07  24155626.220   126938662.785 6      1538.990    24155625.700   126938662.790 3      1538.990    24155639.440    98913268.029 3      1199.213    24155641.540    98913286.024 6      1199.213
G10  23614006.740   124092427.432 7        31.889    23614005.260   124092427.432 6        31.889    23614015.080    96695444.592 6        24.849    23614014.900    96695447.579 7        24.849
R02  21986765.880   117325605.511 7      5030.418    21986759.300   117325605.514 7      5030.418    21986772.700    91253274.780 7      3912.547    21986773.660    91253276.779 7      3912.547
R16  22016966.260   117610652.691 7      5270.973    22016966.000   117610652.697 7      5270.973    22016979.420    91475042.117 8      4099.645    22016979.020    91475016.120 8      4099.645
G16  23403943.280   122988543.780 6      -785.583    23403941.440   122988543.785 4      -785.583    23403955.600    95835264.029 4      -612.143
R14  22120148.720   117912829.800 6     -1460.090    22120149.440   117912829.825 6     -1460.090    22120166.900    91710062.923 7     -1135.625    22120167.180    91710062.916 7     -1135.625
> 2025 04 04 15 12 28.0000000  0 15
R01  22611836.140   120873213.484 6      1916.087    22611835.520   120873213.480 6      1916.087    22611849.580    94012506.591 6      1490.290    22611848.340    94012506.841 6      1490.290
G02  21118281.060   110977311.652 7      2072.361    21118280.140   110977311.659 6      2072.361    21118282.900    86475830.510 6      1614.827
R24  23055011.020   123285498.637 6       534.175    23055009.780   123285498.639 6       534.175    23055024.800    95888776.640 6       415.469    23055025.820    95888792.631 7       415.469
G08  20616443.220   108340134.921 8      2956.981    20616441.960   108340134.923 8      2956.981    20616449.240    84420911.613 8      2304.141    20616450.140    84420916.619 8      2304.141
R15  20031972.380   107044779.865 8      1410.806    20031972.440   107044779.874 7      1410.806    20031983.560    83257096.188 8      1097.294    20031983.320    83257097.192 8      1097.294
G01  21398701.680   112450932.857 7      3826.562    21398700.540   112450932.859 6      3826.562    21398706.200    87624125.930 6      2981.737    21398706.800    87624127.935 8      2981.737
G27  21874398.400   114950734.619 7      1125.486    21874396.880   114950734.619 7      1125.486    21874406.240    89572036.250 7       877.002    21874406.580    89572031.259 8       877.002
R17  20708939.760   110817720.344 8      1996.019    20708939.980   110817720.365 7      1996.019    20708950.860    86191602.402 8      1552.459    20708950.360    86191601.401 8      1552.459
R18  21718904.920   115936975.474 7      3746.438    21718906.500   115936975.478 7      3746.438    21718918.780    90173279.830 8      2913.896    21718918.780    90173271.841 8      2913.896
G07  24155333.460   126937123.396 6      1539.969    24155332.680   126937123.398 3      1539.969    24155346.640    98912068.501 3      1199.976    24155347.080    98912086.488 6      1199.976
G10  23614000.480   124092395.216 7        32.629    23613999.140   124092395.213 6        32.629    23614008.920    96695419.491 6        25.425    23614008.680    96695422.482 7        25.425
R02  21985823.160   117320574.859 7      5030.953    21985816.560   117320574.854 7      5030.953    21985829.900    91249362.057 7      3912.963    21985830.900    91249364.058 7      3912.963
R16  22015979.400   117605381.628 7      5271.316    22015979.520   117605381.632 7      5271.316    22015992.420    91470942.408 8      4099.913    22015992.160    91470916.408 8      4099.913
G16  23404092.440   122989328.982 7      -784.785    23404090.800   122989328.987 4      -784.785    23404105.200    95835875.864 4      -611.520
R14  22120423.000   117914289.543 6     -1459.237    22120424.160   117914289.541 6     -1459.237    22120441.400    91711198.247 7     -1134.962    22120440.880    91711198.249 7     -1134.962
> 2025 04 04 15 12 29.0000000  0 15
R01  22611477.820   120871297.580 6      1915.939    22611476.640   120871297.584 6      1915.939    22611491.340    94011016.816 6      1490.175    22611490.180    94011017.066 6      1490.175
G02  21117886.680   110975239.084 7      2072.824    21117885.680   110975239.092 6      2072.824    21117888.440    86474215.529 6      1615.187
R24  23054911.040   123284964.106 6       534.995    23054910.480   123284964.105 6       534.995    23054924.620    95888360.879 6       416.107    23054926.140    95888376.868 7       416.107
G08  20615880.440   108337177.796 7      2957.433    20615879.260   108337177.801 8      2957.433    20615886.620    84418607.365 8      2304.493    20615887.400    84418612.373 8      2304.493
R15  20031708.700   107043369.214 8      1410.614    20031708.580   107043369.216 7      1410.614    20031719.560    83255999.017 8      1097.145    20031719.600    83256000.017 8      1097.145
G01  21397973.400   112447106.193 7      3826.867    21397972.220   112447106.195 6      3826.867    21397978.100    87621144.128 6      2981.974    21397978.640    87621146.133 8      2981.974
G27  21874184.300   114949609.001 7      1125.975    21874182.600   114949609.000 7      1125.975    21874191.960    89571159.153 7       877.383    21874192.900    89571154.158 8       877.383
R17  20708566.520   110815724.001 8      1996.723    20708566.860   110815724.024 7      1996.723    20708577.740    86190049.697 8      1553.007    20708577.160    86190048.702 8      1553.007
R18  21718202.960   115933228.885 7      3746.972    21718204.460   115933228.886 7      3746.972    21718216.920    90170365.824 7      2914.312    21718217.180    90170357.833 8      2914.312
G07  24155040.340   126935583.558 6      1540.117    24155039.680   126935583.560 3      1540.117    24155053.680    98910868.621 3      1200.091    24155054.280    98910886.610 6      1200.091
G10  23613994.020   124092362.601 7        32.839    23613993.020   124092362.590 6        32.839    23614002.620    96695394.080 6        25.589    23614002.500    96695397.068 7        25.589
R02  21984880.460   117315543.922 7      5031.034    21984873.580   117315543.920 7      5031.034    21984887.360    91245449.126 7      3913.027    21984887.760    91245451.127 7      3913.027
R16  22014992.920   117600110.405 7      5271.246    22014992.960   117600110.409 7      5271.246    22015005.840    91466842.584 8      4099.858    22015005.440    91466816.585 8      4099.858
G16  23404241.920   122990113.561 7      -784.202    23404240.140   122990113.566 4      -784.202    23404254.580    95836487.214 4      -611.067
R14  22120696.760   117915748.697 6     -1458.873    22120697.980   117915748.676 6     -1458.873    22120714.820    91712333.132 7     -1134.679    22120715.140    91712333.117 7     -1134.679
> 2025 04 04 15 12 30.0000000  0 15
R01  22611119.160   120869381.766 6      1915.699    22611118.380   120869381.784 6      1915.699    22611133.460    94009525.627 6      1489.988    22611131.380    94009525.877 6      1489.988
G02  21117492.300   110973166.075 7      2073.113    21117491.140   110973166.083 6      2073.113    21117494.020    86472600.207 6      1615.413
R24  23054810.900   123284428.794 6       535.518    23054810.140   123284428.801 6       535.518    23054824.500    95887944.538 7       416.514    23054825.640    95887960.529 7       416.514
G08  20615317.720   108334220.278 8      2957.603    20615316.420   108334220.283 8      2957.603    20615323.720    84416302.813 8      2304.626    20615324.380    84416307.821 8      2304.626
R15  20031444.680   107041958.754 8      1410.276    20031444.820   107041958.757 7      1410.276    20031455.720    83254901.998 8      1096.882    20031455.600    83254903.003 8      1096.882
G01  21397245.100   112443279.219 7      3827.036    21397243.860   112443279.223 6      3827.036    21397249.900    87618162.080 6      2982.106    21397250.460    87618164.085 8      2982.106
G27  21873969.980   114948482.975 7      1126.191    21873968.360   114948482.972 7      1126.191    21873977.720    89570281.731 7       877.552    21873978.180    89570276.740 8       877.552
R17  20708193.300   110813727.082 8      1997.021    20708193.880   110813727.116 7      1997.021    20708204.800    86188496.558 8      1553.239    20708203.860    86188495.562 8      1553.239
R18  21717501.080   115929481.751 7      3747.360    21717502.560   115929481.749 7      3747.360    21717514.980    90167451.397 8      2914.613    21717515.060    90167443.410 8      2914.613
G07  24154746.940   126934043.365 6      1540.240    24154746.580   126934043.367 3      1540.240    24154760.480    98909668.467 3      1200.187    24154760.700    98909686.472 6      1200.187
G10  23613988.120   124092329.652 7        33.047    23613986.820   124092329.649 6        33.047    23613996.500    96695368.414 6        25.751    23613996.280    96695371.416 7        25.751
R02  21983937.580   117310512.827 7      5031.087    21983930.660   117310512.822 7      5031.087    21983944.520    91241536.069 7      3913.068    21983945.260    91241538.066 7      3913.068
R16  22014006.120   117594839.161 7      5271.146    22014006.000   117594839.167 7      5271.146    22014018.800    91462742.732 8      4099.780    22014018.660    91462716.732 8      4099.780
G16  23404390.940   122990897.681 6      -783.936    23404389.420   122990897.683 4      -783.936    23404403.700    95837098.209 4      -610.859
R14  22120970.500   117917207.397 6     -1458.636    22120970.760   117917207.390 6     -1458.636    22120988.420    91713467.677 7     -1134.495    22120988.640    91713467.666 7     -1134.495
> 2025 04 04 15 12 31.0000000  0 15
R01  22610760.880   120867466.065 6      1915.646    22610759.680   120867466.085 6      1915.646    22610774.820    94008036.017 6      1489.947    22610773.340    94008036.267 6      1489.947
G02  21117097.580   110971092.575 8      2073.680    21117096.600   110971092.580 6      2073.680    21117099.420    86470984.497 6      1615.854
R24  23054710.760   123283892.651 7       536.486    23054710.040   123283892.658 6       536.486    23054724.360    95887527.546 6       417.267    23054725.560    95887543.539 7       417.267
G08  20614754.580   108331262.287 8      2958.227    20614753.600   108331262.284 8      2958.227    20614760.880    84413997.891 8      2305.112    20614761.760    84414002.899 8      2305.112
R15  20031181.020   107040548.416 8      1410.200    20031180.660   107040548.420 7      1410.200    20031191.800    83253805.071 8      1096.822    20031191.720    83253806.073 8      1096.822
G01  21396516.640   112439451.876 7      3827.480    21396515.520   112439451.881 6      3827.480    21396521.600    87615179.748 6      2982.452    21396522.080    87615181.755 8      2982.452
G27  21873755.580   114947356.501 7      1126.562    21873754.120   114947356.495 7      1126.562    21873763.460    89569403.969 7       877.840    21873763.820    89569398.975 8       877.840
R17  20707820.080   110811729.500 8      1997.881    20707820.260   110811729.523 8      1997.881    20707831.340    86186942.885 8      1553.907    20707830.860    86186941.885 8      1553.907
R18  21716799.060   115925734.061 7      3747.955    21716800.820   115925734.057 7      3747.955    21716812.780    90164536.534 8      2915.076    21716812.940    90164528.542 8      2915.076
G07  24154453.600   126932502.777 6      1540.694    24154453.500   126932502.782 3      1540.694    24154467.420    98908468.009 3      1200.541    24154468.020    98908486.016 6      1200.541
G10  23613982.160   124092296.400 7        33.393    23613980.420   124092296.397 6        33.393    23613990.400    96695342.512 6        26.020    23613989.920    96695345.501 7        26.020
R02  21982994.540   117305481.529 7      5031.250    21982988.080   117305481.519 7      5031.250    21983001.460    91237622.862 7      3913.194    21983002.200    91237624.859 7      3913.194
R16  22013019.360   117589567.868 7      5271.285    22013019.280   117589567.872 7      5271.285    22013032.100    91458642.846 8      4099.888    22013031.920    91458616.846 8      4099.888
G16  23404540.380   122991681.278 7      -783.358    23404538.460   122991681.275 4      -783.358    23404552.840    95837708.791 4      -610.409
R14  22121244.580   117918665.607 6     -1457.948    22121244.020   117918665.608 6     -1457.948    22121262.020    91714601.838 7     -1133.959    22121262.100    91714601.831 7     -1133.959
> 2025 04 04 15 12 32.0000000  0 15
R01  22610402.560   120865550.669 6      1915.362    22610401.540   120865550.662 6      1915.362    22610416.160    94006546.242 6      1489.726    22610415.260    94006546.492 6      1489.726
G02  21116702.980   110969018.796 8      2073.912    21116701.860   110969018.798 6      2073.912    21116704.880    86469368.573 6      1616.036
R24  23054610.420   123283355.949 7       536.920    23054609.660   123283355.956 6       536.920    23054623.780    95887110.120 7       417.604    23054624.820    95887126.108 7       417.604
G08  20614191.660   108328304.081 8      2958.363    20614190.600   108328304.080 8      2958.363    20614197.840    84411692.805 8      2305.218    20614198.680    84411697.815 8      2305.218
R15  20030916.580   107039138.404 8      1409.787    20030916.960   107039138.408 7      1409.787    20030927.860    83252708.403 8      1096.501    20030927.840    83252709.406 8      1096.501
G01  21395788.300   112435624.411 7      3827.519    21395787.300   112435624.413 6      3827.519    21395793.180    87612197.315 6      2982.482    21395793.740    87612199.324 8      2982.482
G27  21873541.020   114946229.763 7      1126.863    21873539.440   114946229.760 7      1126.863    21873548.940    89568525.996 7       878.075    21873549.460    89568521.002 8       878.075
R17  20707446.480   110809731.516 7      1998.224    20707446.960   110809731.539 7      1998.224    20707457.780    86185388.902 8      1554.174    20707457.460    86185387.902 8      1554.174
R18  21716097.180   115921986.020 7      3748.146    21716097.920   115921986.012 7      3748.146    21716110.840    90161621.407 8      2915.225    21716110.900    90161613.418 8      2915.225
G07  24154160.060   126930962.046 6      1540.601    24154160.280   126930962.051 3      1540.601    24154174.260    98907267.435 3      1200.468    24154174.540    98907285.442 6      1200.468
G10  23613975.560   124092263.033 7        33.392    23613974.200   124092263.036 6        33.392    23613984.080    96695316.518 6        26.020    23613984.180    96695319.509 7        26.020
R02  21982051.560   117300450.205 7      5031.336    21982045.380   117300450.203 7      5031.336    21982058.640    91233709.618 7      3913.262    21982059.140    91233711.624 7      3913.262
R16  22012032.620   117584296.800 7      5270.909    22012033.000   117584296.806 7      5270.909    22012045.420    91454543.139 8      4099.596    22012045.140    91454517.143 8      4099.596
G16  23404689.460   122992464.578 7      -783.180    23404687.560   122992464.577 5      -783.180    23404701.780    95838319.151 4      -610.270
R14  22121518.080   117920123.572 6     -1457.751    22121517.440   117920123.589 6     -1457.751    22121535.760    91715735.801 7     -1133.806    22121535.320    91715735.791 7     -1133.806
> 2025 04 04 15 12 33.0000000  0 15
R01  22610044.020   120863635.251 6      1915.489    22610043.020   120863635.245 6      1915.489    22610058.560    94005055.552 6      1489.824    22610056.640    94005055.802 6      1489.824
G02  21116308.260   110966944.421 7      2074.865    21116307.200   110966944.423 6      2074.865    21116310.040    86467752.181 6      1616.778
R24  23054509.900   123282818.292 7       538.314    23054509.240   123282818.296 6       538.314    23054523.440    95886691.938 7       418.689    23054524.520    95886707.926 7       418.689
G08  20613628.560   108325345.330 7      2959.109    20613627.620   108325345.332 8      2959.109    20613635.020    84409387.298 8      2305.799    20613635.480    84409392.308 8      2305.799
R15  20030653.100   107037728.357 8      1410.191    20030652.880   107037728.364 7      1410.191    20030664.160    83251611.709 8      1096.815    20030663.860    83251612.711 8      1096.815
G01  21395060.000   112431796.467 7      3828.306    21395058.800   112431796.469 6      3828.306    21395064.620    87609214.510 6      2983.096    21395065.080    87609216.515 8      2983.096
G27  21873326.400   114945102.477 7      1127.690    21873325.060   114945102.479 7      1127.690    21873334.680    89567647.586 7       878.720    21873334.860    89567642.591 8       878.720
R17  20707072.900   110807732.759 8      1999.235    20707072.920   110807732.785 7      1999.235    20707084.480    86183834.326 8      1554.960    20707083.820    86183833.323 8      1554.960
R18  21715394.880   115918237.337 7      3749.196    21715395.940   115918237.325 7      3749.196    21715408.960    90158705.763 8      2916.041    21715408.760    90158697.774 8      2916.041
G07  24153867.060   126929420.781 6      1541.560    24153867.100   126929420.785 3      1541.560    24153880.800    98906066.449 3      1201.215    24153880.820    98906084.446 6      1201.215
G10  23613969.000   124092229.215 7        34.181    23613967.840   124092229.212 6        34.181    23613977.640    96695290.164 6        26.635    23613977.600    96695293.143 7        26.635
R02  21981108.760   117295418.587 7      5031.865    21981102.340   117295418.582 7      5031.865    21981116.000    91229796.148 7      3913.673    21981116.600    91229798.143 7      3913.673
R16  22011045.860   117579025.593 7      5271.334    22011046.080   117579025.602 7      5271.334    22011058.380    91450443.322 8      4099.926    22011058.300    91450417.326 7      4099.926
G16  23404838.460   122993247.255 6      -782.237    23404836.620   122993247.254 5      -782.237    23404850.740    95838929.023 4      -609.535
R14  22121791.360   117921580.908 6     -1457.051    22121791.380   117921580.927 6     -1457.051    22121809.320    91716869.276 7     -1133.262    22121808.540    91716869.262 7     -1133.262
> 2025 04 04 15 12 34.0000000  0 15
R01  22609685.420   120861719.703 6      1915.509    22609684.580   120861719.707 6      1915.509    22609699.740    94003564.612 6      1489.840    22609698.480    94003564.862 6      1489.840
G02  21115913.380   110964869.425 8      2075.237    21115912.260   110964869.433 6      2075.237    21115915.240    86466135.312 6      1617.068
R24  23054409.300   123282279.737 7       538.957    23054408.460   123282279.744 6       538.957    23054422.360    95886273.083 7       419.189    23054423.800    95886289.071 7       419.189
G08  20613065.640   108322385.975 7      2959.560    20613064.440   108322385.977 8      2959.560    20613071.880    84407081.313 8      2306.150    20613072.300    84407086.321 8      2306.150
R15  20030389.180   107036318.343 8      1409.903    20030389.280   107036318.349 7      1409.903    20030400.260    83250515.035 8      1096.591    20030399.960    83250516.035 8      1096.591
G01  21394331.540   112427968.047 7      3828.578    21394330.220   112427968.052 6      3828.578    21394335.980    87606231.334 6      2983.308    21394336.820    87606233.341 8      2983.308
G27  21873111.820   114943974.610 7      1127.990    21873110.400   114943974.604 7      1127.990    21873119.880    89566768.735 7       878.953    21873120.240    89566763.744 8       878.953
R17  20706699.040   110805733.224 7      1999.801    20706699.260   110805733.241 8      1999.801    20706710.720    86182279.132 8      1555.401    20706710.180    86182278.131 8      1555.401
R18  21714692.660   115914487.977 7      3749.641    21714694.020   115914487.967 7      3749.641    21714706.540    90155789.615 8      2916.388    21714706.260    90155781.623 8      2916.388
G07  24153573.860   126927879.035 6      1541.850    24153573.800   126927879.042 3      1541.850    24153587.400    98904865.082 3      1201.442    24153587.640    98904883.081 6      1201.442
G10  23613962.420   124092194.939 7        34.563    23613961.260   124092194.928 6        34.563    23613971.260    96695263.453 6        26.932    23613971.160    96695266.436 7        26.932
R02  21980165.680   117290386.673 7      5031.939    21980159.020   117290386.660 7      5031.939    21980173.040    91225882.452 7      3913.730    21980173.420    91225884.453 7      3913.730
R16  22010058.880   117573754.234 7      5271.411    22010059.420   117573754.240 7      5271.411    22010071.680    91446343.384 8      4099.986    22010071.220    91446317.388 8      4099.986
G16  23404986.940   122994029.283 6      -781.886    23404985.300   122994029.285 5      -781.886    23404999.580    95839538.393 4      -609.261
R14  22122064.900   117923037.620 6     -1456.628    22122064.340   117923037.618 6     -1456.628    22122082.260    91718002.241 7     -1132.933    22122082.320    91718002.226 7     -1132.933
> 2025 04 04 15 12 35.0000000  0 15
