     3.05           OBSERVATION DATA    MIXED               RINEX VERSION / TYPE
TPS2RIN 1.0.28.3459 TPS-USER            20250407 105626 UTC PGM / RUN BY / DATE
Win64 build Jun 01, 2022 (c) Topcon Positioning Systems     COMMENT
SRC: 20250404_grav_20250404_185908.tps                      COMMENT
Observer            Agency                                  OBSERVER / AGENCY
O0M3X53SBGM         TPS HIPER_SR        4.8 HSR Jul,08,2022 REC # / TYPE / VERS
FW: 4.8 HSR Jul,08,2022 p3                                  COMMENT
SN: HiPer SR 1212-12575                                     COMMENT
000                 TPSHIPER_SR     NONE                    ANT # / TYPE
        1.8000        0.0000        0.0000                  ANTENNA: DELTA H/E/N
DELTA H stands for **SLANT** height here!                   COMMENT
ORO08                                                       MARKER NAME
  5382093.8484 -1597178.6950  3017129.7732                  APPROX POSITION XYZ
  2025     4     4    16    59   31.0000000     GPS         TIME OF FIRST OBS
  2025     4     4    17    14   32.0000000     GPS         TIME OF LAST OBS
     1.000                                                  INTERVAL
   902 EPOCHS                                               COMMENT
G   12 C1C L1C D1C C1W L1W D1W C2W L2W D2W C2X L2X D2X      SYS / # / OBS TYPES
R   12 C1C L1C D1C C1P L1P D1P C2P L2P D2P C2C L2C D2C      SYS / # / OBS TYPES
    18                                                      # OF SATELLITES
   G01   902   902   902   902   902   902   902   902   902PRN / # OF OBS
         902   902   902                                    PRN / # OF OBS
   G02   902   902   902   902   902   902   902   902   902PRN / # OF OBS
           0     0     0                                    PRN / # OF OBS
   G03   902   902   902   902   902   902   902   902   902PRN / # OF OBS
         902   902   902                                    PRN / # OF OBS
   G04   902   902   902   901   901   901   900   900   900PRN / # OF OBS
         902   902   902                                    PRN / # OF OBS
   G08   902   902   902   902   902   902   902   902   902PRN / # OF OBS
         902   902   902                                    PRN / # OF OBS
   G14   902   902   902   902   902   902   902   902   902PRN / # OF OBS
         902   902   902                                    PRN / # OF OBS
   G17   902   902   902   902   902   902   902   902   902PRN / # OF OBS
         902   902   902                                    PRN / # OF OBS
   G22   902   902   902   902   902   902   902   902   902PRN / # OF OBS
           0     0     0                                    PRN / # OF OBS
   G27   111   111   111   111   111   111   111   111   111PRN / # OF OBS
         111   111   111                                    PRN / # OF OBS
   G32   859   859   859   855   855   855   856   856   856PRN / # OF OBS
         652   652   652                                    PRN / # OF OBS
   R02   902   902   902   902   902   902   902   902   902PRN / # OF OBS
         902   902   902                                    PRN / # OF OBS
   R03   902   902   902   902   902   902   902   902   902PRN / # OF OBS
         902   902   902                                    PRN / # OF OBS
   R04   902   902   902   902   902   902   902   902   902PRN / # OF OBS
         902   902   902                                    PRN / # OF OBS
   R09   859   859   859   854   854   854   854   854   854PRN / # OF OBS
         853   853   853                                    PRN / # OF OBS
   R15   121   121   121   121   121   121   121   121   121PRN / # OF OBS
         121   121   121                                    PRN / # OF OBS
   R16   902   902   902   902   902   902   902   902   902PRN / # OF OBS
         902   902   902                                    PRN / # OF OBS
   R17   902   902   902   902   902   902   902   902   902PRN / # OF OBS
         902   902   902                                    PRN / # OF OBS
   R18   902   902   902   902   902   902   902   902   902PRN / # OF OBS
         902   902   902                                    PRN / # OF OBS
G L1C                                                       SYS / PHASE SHIFT
G L1W -0.25000                                              SYS / PHASE SHIFT
G L2W  0.00000                                              SYS / PHASE SHIFT
G L2X  0.25000                                              SYS / PHASE SHIFT
R L1C                                                       SYS / PHASE SHIFT
R L1P -0.25000                                              SYS / PHASE SHIFT
R L2P -0.25000                                              SYS / PHASE SHIFT
R L2C                                                       SYS / PHASE SHIFT
  8 R02 -4 R03  5 R04  6 R09 -2 R15  0 R16 -1 R17  4 R18 -3 GLONASS SLOT / FRQ #
                                                            GLONASS COD/PHS/BIS
    18                  GPS                                 LEAP SECONDS
                                                            END OF HEADER
> 2025 04 04 16 59 31.0000000  0 18
G27  24607625.080   129313937.637 5      -386.433    24607623.080   129313937.650 4      -386.433    24607651.260   100764144.554 4      -301.116    24607652.560   100764212.516 6      -301.116
G02  22148648.980   116391935.569 7      1578.246    22148647.420   116391935.576 4      1578.246    22148651.020    90695023.340 4      1229.802
G03  19918702.560   104673487.800 7      3379.445    19918701.440   104673487.804 8      3379.445    19918709.160    81563784.324 8      2633.334    19918709.360    81563784.320 8      2633.334
G14  22292546.620   117148124.826 7      3718.711    22292545.420   117148124.838 5      3718.711    22292554.140    91284252.845 5      2897.697    22292554.820    91284280.847 8      2897.697
R03  19887790.580   106460902.688 8      4065.981    19887790.180   106460902.722 7      4065.981    19887802.280    82802974.089 8      3162.430    19887801.960    82802970.088 8      3162.430
G01  20925062.480   109961944.222 7      2318.318    20925061.800   109961944.221 6      2318.318    20925066.720    85684650.402 6      1806.481    20925066.820    85684649.410 8      1806.481
G08  21420882.100   112567493.490 7       701.412    21420880.700   112567493.493 7       701.412    21420891.440    87714959.664 7       546.555    21420892.320    87714968.673 8       546.555
R18  20636127.760   110157046.595 7      3365.579    20636127.340   110157046.591 7      3365.579    20636137.300    85677746.654 7      2617.672    20636137.980    85677749.663 7      2617.672
R09  23042675.700   123046594.337 6      3527.848    23042675.680   123046594.324 5      3527.848    23042685.560    95702964.374 6      2743.882    23042686.680    95702965.373 6      2743.882
R02  21875202.820   116730272.200 7       180.009    21875202.100   116730272.203 7       180.009    21875215.240    90790252.085 6       140.007    21875215.200    90790257.089 6       140.007
R16  21859281.280   116768361.479 6       375.109    21859282.140   116768361.483 6       375.109    21859297.980    90819901.154 7       291.751    21859297.940    90819897.149 7       291.751
R15  23603367.380   126129233.076 6     -1047.981    23603368.000   126129233.077 6     -1047.981    23603401.100    98100653.813 7      -815.097    23603400.520    98100650.822 7      -815.097
R17  21624658.780   115717906.665 6      1607.723    21624659.780   115717906.694 6      1607.723    21624674.020    90002884.165 5      1250.451    21624673.220    90002885.160 5      1250.451
R04  21869623.880   117110839.037 7      6881.868    21869626.480   117110839.068 6      6881.868    21869645.520    91086300.450 8      5352.564    21869645.460    91086301.458 8      5352.564
G17  23861269.340   125391817.419 6      5545.628    23861267.940   125391817.416 3      5545.628    23861276.280    97707938.349 3      4321.269    23861274.540    97707932.387 6      4321.269
G04  23982764.560   126030290.878 6      5777.590    23982762.780   126030290.883 4      5777.590    23982788.660    98205513.859 4      4502.018    23982789.140    98205511.933 8      4502.018
G22  23985438.140   126044326.631 6      4677.011    23985436.440   126044326.633 3      4677.011    23985444.340    98216382.176 3      3644.424
G32  25116181.420   131986438.018 6      1062.772    25116181.000   131986438.028 3      1062.772    25116194.660   102846600.534 3       828.134    25116193.560   102846617.551 5       828.134
> 2025 04 04 16 59 32.0000000  0 18
G27  24607698.540   129314323.806 6      -386.241    24607696.560   129314323.816 4      -386.241    24607724.700   100764445.446 4      -300.967    24607726.120   100764513.412 6      -300.967
G02  22148348.460   116390357.124 7      1578.493    22148346.940   116390357.127 4      1578.493    22148350.800    90693793.388 4      1229.994
G03  19918059.560   104670108.344 8      3379.190    19918058.520   104670108.349 8      3379.190    19918066.080    81561150.992 8      2633.135    19918066.180    81561150.988 8      2633.135
G14  22291838.960   117144406.021 7      3718.521    22291837.900   117144406.028 5      3718.521    22291846.560    91281355.079 5      2897.549    22291847.100    91281383.084 8      2897.549
R03  19887031.120   106456836.674 8      4065.678    19887030.920   106456836.700 7      4065.678    19887042.700    82799811.647 8      3162.194    19887042.360    82799807.644 8      3162.194
G01  20924621.260   109959625.655 7      2318.564    20924620.780   109959625.658 6      2318.564    20924625.600    85682843.734 6      1806.673    20924625.480    85682842.739 8      1806.673
G08  21420748.440   112566791.933 7       701.448    21420747.200   112566791.932 7       701.448    21420758.000    87714412.995 7       546.583    21420758.560    87714422.004 8       546.583
R18  20635497.200   110153680.775 7      3365.893    20635496.320   110153680.763 7      3365.893    20635506.680    85675128.794 7      2617.917    20635507.380    85675131.793 7      2617.917
R09  23042014.980   123043066.169 6      3527.861    23042014.340   123043066.164 5      3527.861    23042025.780    95700220.258 6      2743.892    23042025.780    95700221.260 6      2743.892
R02  21875168.620   116730092.221 7       179.657    21875168.200   116730092.221 7       179.657    21875181.740    90790112.101 6       139.733    21875181.240    90790117.114 6       139.733
R16  21859210.760   116767986.339 6       374.990    21859212.120   116767986.351 6       374.990    21859227.340    90819609.389 7       291.659    21859227.540    90819605.380 7       291.659
R15  23603563.560   126130280.582 6     -1047.502    23603563.860   126130280.594 6     -1047.502    23603597.120    98101468.572 7      -814.724    23603596.340    98101465.586 7      -814.724
R17  21624358.860   115716298.816 6      1607.842    21624360.000   115716298.823 6      1607.842    21624372.320    90001633.577 5      1250.544    21624373.260    90001634.574 5      1250.544
R04  21868338.840   117103956.972 7      6881.920    21868341.360   117103956.998 6      6881.920    21868360.400    91080947.756 8      5352.604    21868360.200    91080948.762 8      5352.604
G17  23860213.720   125386271.441 6      5545.992    23860212.640   125386271.438 3      5545.992    23860221.040    97703616.818 3      4321.552    23860219.320    97703610.844 6      4321.552
G04  23981665.320   126024513.014 6      5777.817    23981663.400   126024513.019 4      5777.817    23981689.280    98201011.658 4      4502.195    23981689.520    98201009.738 8      4502.195
G22  23984548.220   126039649.565 6      4677.027    23984546.440   126039649.568 3      4677.027    23984554.180    98212737.715 3      3644.437
G32  25115980.140   131985375.216 6      1062.682    25115978.780   131985375.226 3      1062.682    25115992.480   102845772.385 3       828.064    25115991.820   102845789.387 5       828.064
> 2025 04 04 16 59 33.0000000  0 18
G27  24607772.000   129314709.760 6      -385.776    24607769.940   129314709.770 5      -385.776    24607798.260   100764746.169 5      -300.605    24607798.940   100764814.112 6      -300.605
G02  22148047.900   116388778.262 7      1579.195    22148046.560   116388778.264 4      1579.195    22148050.320    90692563.114 4      1230.541
G03  19917416.540   104666729.083 7      3379.320    19917415.040   104666729.088 8      3379.320    19917423.040    81558517.820 8      2633.236    19917423.440    81558517.821 8      2633.236
G14  22291131.400   117140687.424 7      3718.494    22291130.420   117140687.434 5      3718.494    22291138.960    91278457.479 5      2897.528    22291139.200    91278485.478 8      2897.528
R03  19886271.420   106452771.113 8      4065.495    19886271.140   106452771.141 8      4065.495    19886283.180    82796649.560 8      3162.052    19886282.780    82796645.559 8      3162.052
G01  20924180.100   109957306.811 7      2319.109    20924179.480   109957306.815 6      2319.109    20924184.260    85681036.854 6      1807.098    20924184.080    85681035.865 8      1807.098
G08  21420614.920   112566090.357 7       701.638    21420613.800   112566090.356 7       701.638    21420624.340    87713866.319 7       546.731    21420624.980    87713875.326 8       546.731
R18  20634866.360   110150314.595 7      3366.506    20634865.820   110150314.588 7      3366.506    20634875.960    85672510.667 7      2618.394    20634876.360    85672513.674 7      2618.394
R09  23041354.200   123039538.423 6      3527.487    23041352.300   123039538.392 5      3527.487    23041364.600    95697476.455 6      2743.601    23041365.040    95697477.465 6      2743.601
R02  21875135.280   116729912.508 7       179.745    21875134.220   116729912.504 6       179.745    21875148.400    90789972.331 6       139.802    21875147.600    90789977.329 6       139.802
R16  21859140.300   116767611.338 6       375.269    21859141.880   116767611.342 6       375.269    21859157.380    90819317.706 7       291.876    21859157.400    90819313.700 7       291.876
R15  23603759.100   126131327.543 6     -1046.447    23603760.100   126131327.560 6     -1046.447    23603792.780    98102282.889 7      -813.903    23603792.100    98102279.900 7      -813.903
R17  21624058.660   115714690.713 6      1608.417    21624059.040   115714690.701 6      1608.417    21624072.440    90000382.801 5      1250.991    21624071.960    90000383.798 5      1250.991
R04  21867053.240   117097074.678 7      6882.676    21867055.460   117097074.709 6      6882.676    21867075.340    91075594.879 8      5353.193    21867075.060    91075595.885 8      5353.193
G17  23859158.320   125380725.022 6      5546.631    23859157.180   125380725.021 3      5546.631    23859165.620    97699294.943 3      4322.050    23859163.520    97699288.975 6      4322.050
G04  23980565.660   126018734.653 5      5778.577    23980563.500   126018734.663 4      5778.577    23980589.560    98196509.070 4      4502.787    23980589.900    98196507.141 8      4502.787
G22  23983658.180   126034972.531 6      4677.148    23983656.260   126034972.533 3      4677.148    23983664.260    98209093.277 3      3644.531
G32  25115778.520   131984312.461 6      1062.651    25115776.640   131984312.477 3      1062.651    25115790.380   102844944.273 3       828.040    25115788.220   102844961.301 5       828.040
> 2025 04 04 16 59 34.0000000  0 18
G27  24607845.460   129315095.350 6      -385.520    24607843.360   129315095.366 5      -385.520    24607871.520   100765046.611 5      -300.405    24607871.860   100765114.581 6      -300.405
G02  22147747.320   116387198.953 7      1579.656    22147745.920   116387198.961 4      1579.656    22147749.900    90691332.489 4      1230.901
G03  19916773.660   104663349.953 7      3379.213    19916772.080   104663349.958 8      3379.213    19916780.080    81555884.751 8      2633.153    19916780.220    81555884.747 8      2633.153
G14  22290423.560   117136968.916 7      3718.617    22290422.800   117136968.918 5      3718.617    22290431.400    91275559.932 5      2897.624    22290431.720    91275587.931 8      2897.624
R03  19885511.680   106448705.894 8      4065.160    19885511.660   106448705.923 7      4065.160    19885523.680    82793487.738 8      3161.791    19885523.260    82793483.737 8      3161.791
G01  20923739.000   109954987.635 7      2319.437    20923737.980   109954987.637 6      2319.437    20923743.060    85679229.710 6      1807.354    20923742.860    85679228.713 8      1807.354
G08  21420481.440   112565388.667 7       701.896    21420480.280   112565388.670 7       701.896    21420491.020    87713319.554 7       546.932    21420491.540    87713328.563 8       546.932
R18  20634235.680   110146948.009 7      3366.950    20634235.480   110146947.999 7      3366.950    20634245.700    85669892.225 7      2618.739    20634245.920    85669895.232 7      2618.739
R09  23040693.540   123036010.847 5      3527.689    23040692.920   123036010.824 5      3527.689    23040704.340    95694732.767 6      2743.758    23040705.020    95694733.775 6      2743.758
R02  21875101.680   116729732.996 7       179.558    21875101.820   116729733.002 6       179.558    21875114.720    90789832.721 6       139.656    21875114.040    90789837.731 6       139.656
R16  21859070.380   116767236.401 6       375.096    21859071.600   116767236.407 6       375.096    21859086.460    90819026.091 7       291.741    21859086.960    90819022.084 7       291.741
R15  23603954.740   126132373.962 6     -1046.018    23603955.260   126132373.968 6     -1046.018    23603988.960    98103096.787 7      -813.569    23603988.120    98103093.793 7      -813.569
R17  21623758.360   115713082.193 6      1608.812    21623758.060   115713082.197 6      1608.812    21623772.400    89999131.783 5      1251.298    21623771.360    89999132.772 5      1251.298
R04  21865768.460   117090192.142 7      6882.788    21865769.860   117090192.173 6      6882.788    21865789.900    91070241.833 8      5353.279    21865789.840    91070242.841 8      5353.279
G17  23858102.780   125375178.114 6      5547.382    23858101.680   125375178.108 3      5547.382    23858110.180    97694972.687 3      4322.635    23858107.600    97694966.691 6      4322.635
G04  23979465.660   126012955.753 5      5779.399    23979463.540   126012955.761 4      5779.399    23979489.840    98192006.056 4      4503.428    23979490.000    98192004.113 8      4503.428
G22  23982768.120   126030295.431 6      4677.226    23982766.320   126030295.439 3      4677.226    23982774.160    98205448.792 3      3644.592
G32  25115576.600   131983249.670 6      1062.955    25115574.340   131983249.682 3      1062.955    25115588.020   102844116.132 3       828.277    25115584.060   102844133.166 5       828.277
> 2025 04 04 16 59 35.0000000  0 18
G27  24607918.800   129315480.671 6      -385.188    24607916.800   129315480.686 5      -385.188    24607944.680   100765346.844 5      -300.146    24607945.400   100765414.814 6      -300.146
G02  22147446.660   116385619.200 6      1580.062    22147445.280   116385619.208 4      1580.062    22147449.380    90690101.519 4      1231.217
G03  19916130.620   104659970.989 7      3378.834    19916129.180   104659970.994 8      3378.834    19916136.980    81553251.804 8      2632.858    19916137.220    81553251.800 8      2632.858
G14  22289715.920   117133250.569 7      3718.249    22289715.340   117133250.571 5      3718.249    22289723.720    91272662.527 5      2897.337    22289724.020    91272690.525 8      2897.337
R03  19884752.400   106444641.050 8      4064.604    19884752.540   106444641.073 8      4064.604    19884764.500    82790326.197 8      3161.359    19884763.800    82790322.196 8      3161.359
G01  20923297.560   109952668.117 7      2319.647    20923296.560   109952668.125 6      2319.647    20923301.640    85677422.306 6      1807.517    20923301.880    85677421.315 8      1807.517
G08  21420347.780   112564686.944 7       701.592    21420346.920   112564686.946 7       701.592    21420357.580    87712772.761 7       546.695    21420357.940    87712781.766 8       546.695
R18  20633604.820   110143581.055 7      3367.110    20633604.780   110143581.040 7      3367.110    20633614.800    85667273.485 7      2618.863    20633615.020    85667276.486 7      2618.863
R09  23040033.940   123032483.630 5      3526.905    23040031.380   123032483.599 5      3526.905    23040043.400    95691989.397 6      2743.148    23040044.480    95691990.421 6      2743.148
R02  21875068.320   116729553.714 7       179.075    21875068.280   116729553.720 6       179.075    21875081.240    90789693.291 6       139.280    21875080.760    90789698.293 6       139.280
R16  21859000.660   116766861.483 6       374.999    21859001.260   116766861.489 6       374.999    21859016.440    90818734.490 7       291.666    21859016.740    90818730.483 7       291.666
R15  23604150.660   126133419.769 6     -1045.516    23604151.220   126133419.764 6     -1045.516    23604184.280    98103910.199 7      -813.179    23604183.920    98103907.203 7      -813.179
R17  21623457.420   115711473.442 6      1608.785    21623457.620   115711473.449 6      1608.785    21623470.500    89997880.550 5      1251.277    21623471.180    89997881.549 5      1251.277
R04  21864483.120   117083309.384 7      6882.820    21864484.740   117083309.429 7      6882.820    21864504.520    91064888.610 8      5353.305    21864504.340    91064889.618 8      5353.305
G17  23857047.240   125369630.743 6      5547.519    23857045.940   125369630.738 3      5547.519    23857054.620    97690650.071 3      4322.742    23857052.200    97690644.116 6      4322.742
G04  23978366.120   126007176.328 5      5779.648    23978363.640   126007176.336 4      5779.648    23978390.040    98187502.635 4      4503.622    23978389.880    98187500.706 8      4503.622
G22  23981877.980   126025618.321 6      4677.019    23981876.380   126025618.329 3      4677.019    23981884.160    98201804.295 3      3644.430
G32  25115373.760   131982186.910 6      1062.698    25115372.160   131982186.928 3      1062.698    25115385.800   102843288.013 3       828.076    25115383.240   102843305.030 5       828.076
> 2025 04 04 16 59 36.0000000  0 18
G27  24607992.640   129315865.481 6      -384.551    24607989.920   129315865.496 5      -384.551    24608017.880   100765646.678 5      -299.650    24608019.060   100765714.636 6      -299.650
G02  22147146.000   116384038.772 6      1580.756    22147144.460   116384038.777 4      1580.756    22147148.740    90688870.021 4      1231.758
G03  19915487.420   104656591.923 7      3379.066    19915486.180   104656591.930 8      3379.066    19915494.060    81550618.775 8      2633.038    19915494.100    81550618.771 8      2633.038
G14  22289008.620   117129532.098 7      3718.460    22289007.740   117129532.102 5      3718.460    22289016.200    91269765.027 5      2897.501    22289016.160    91269793.032 8      2897.501
R03  19883993.280   106440576.327 7      4064.548    19883993.080   106440576.358 7      4064.548    19884004.960    82787164.766 8      3161.315    19884004.480    82787160.763 8      3161.315
G01  20922855.860   109950348.051 7      2320.191    20922855.180   109950348.058 6      2320.191    20922860.120    85675614.472 6      1807.941    20922860.320    85675613.485 8      1807.941
G08  21420214.420   112563984.879 7       702.092    21420213.220   112563984.879 7       702.092    21420224.080    87712225.697 7       547.085    21420224.320    87712234.706 8       547.085
R18  20632974.140   110140213.399 6      3367.961    20632973.860   110140213.394 7      3367.961    20632984.140    85664654.212 7      2619.525    20632984.120    85664657.212 7      2619.525
R09  23039372.700   123028956.423 5      3527.099    23039372.500   123028956.384 5      3527.099    23039383.380    95689245.995 6      2743.299    23039383.860    95689246.995 6      2743.299
R02  21875034.600   116729374.375 7       179.217    21875034.100   116729374.376 6       179.217    21875047.660    90789553.820 6       139.391    21875047.200    90789558.833 6       139.391
R16  21858930.000   116766486.431 6       375.050    21858931.440   116766486.442 6       375.050    21858946.800    90818442.764 7       291.706    21858946.460    90818438.753 7       291.706
R15  23604345.740   126134464.771 6     -1044.850    23604346.780   126134464.772 6     -1044.850    23604379.680    98104723.008 7      -812.661    23604379.420    98104720.014 7      -812.661
R17  21623156.760   115709864.119 6      1609.513    21623156.580   115709864.102 6      1609.513    21623170.300    89996628.831 5      1251.843    21623170.360    89996629.822 5      1251.843
R04  21863197.680   117076426.155 7      6883.397    21863199.620   117076426.189 7      6883.397    21863219.120    91059535.015 8      5353.753    21863218.800    91059536.023 8      5353.753
G17  23855991.680   125364082.629 6      5548.374    23855990.120   125364082.624 3      5548.374    23855999.060    97686326.880 3      4323.409    23855996.800    97686320.918 6      4323.409
G04  23977265.900   126001396.089 5      5780.712    23977263.920   126001396.097 4      5780.712    23977289.820    98182998.583 4      4504.451    23977290.040    98182996.664 8      4504.451
G22  23980987.760   126020940.927 6      4677.487    23980986.300   126020940.934 3      4677.487    23980994.000    98198159.580 3      3644.795
G32  25115171.320   131981123.913 6      1063.055    25115169.920   131981123.934 3      1063.055    25115183.620   102842459.713 3       828.354    25115182.080   102842476.800 5       828.354
> 2025 04 04 16 59 37.0000000  0 18
G27  24608065.460   129316250.095 6      -384.617    24608063.200   129316250.105 5      -384.617    24608091.180   100765946.354 5      -299.702    24608091.860   100766014.300 6      -299.702
G02  22146845.380   116382457.978 6      1580.993    22146843.700   116382457.981 4      1580.993    22146847.840    90687638.244 4      1231.943
G03  19914844.220   104653213.103 8      3378.640    19914843.120   104653213.105 8      3378.640    19914851.060    81547985.937 8      2632.706    19914851.060    81547985.935 8      2632.706
G14  22288301.140   117125813.845 7      3718.020    22288300.360   117125813.852 5      3718.020    22288308.380    91266867.708 5      2897.158    22288308.600    91266895.731 8      2897.158
R03  19883234.000   106436512.074 8      4063.940    19883233.480   106436512.106 8      4063.940    19883245.840    82784003.696 8      3160.842    19883245.380    82783999.695 8      3160.842
G01  20922414.180   109948027.724 7      2320.424    20922413.680   109948027.723 6      2320.424    20922418.620    85673806.427 6      1808.123    20922418.600    85673805.437 8      1808.123
G08  21420080.940   112563282.812 7       701.990    21420079.620   112563282.814 7       701.990    21420090.340    87711678.640 7       547.005    21420090.880    87711687.647 8       547.005
R18  20632342.940   110136845.478 7      3367.942    20632342.960   110136845.476 7      3367.942    20632352.920    85662034.726 7      2619.511    20632353.260    85662037.727 7      2619.511
R09  23038712.040   123025429.548 5      3526.663    23038710.700   123025429.541 5      3526.663    23038722.940    95686502.930 6      2742.960    23038723.780    95686503.944 6      2742.960
R02  21875001.220   116729195.300 7       178.941    21875000.060   116729195.296 6       178.941    21875014.280    90789414.544 6       139.176    21875013.880    90789419.548 6       139.176
R16  21858859.820   116766111.496 6       374.628    21858860.140   116766111.511 6       374.628    21858876.960    90818151.165 7       291.378    21858876.400    90818147.161 7       291.378
R15  23604541.620   126135509.221 6     -1044.393    23604542.800   126135509.225 6     -1044.393    23604574.940    98105535.382 7      -812.306    23604574.600    98105532.393 7      -812.306
R17  21622855.420   115708254.523 6      1609.729    21622855.740   115708254.508 6      1609.729    21622868.780    89995376.904 5      1252.011    21622869.180    89995377.887 5      1252.011
R04  21861911.960   117069542.824 7      6883.431    21861913.960   117069542.855 7      6883.431    21861933.760    91054181.336 8      5353.779    21861933.460    91054182.344 8      5353.779
G17  23854935.800   125358534.137 6      5548.757    23854934.260   125358534.134 3      5548.757    23854943.280    97682003.390 3      4323.707    23854940.420    97681997.428 6      4323.707
G04  23976165.280   125995615.469 5      5780.686    23976163.860   125995615.476 4      5780.686    23976189.900    98178494.232 4      4504.431    23976190.140    98178492.317 8      4504.431
G22  23980097.780   126016263.585 6      4677.229    23980096.340   126016263.590 3      4677.229    23980103.980    98194514.909 3      3644.594
G32  25114969.240   131980060.988 6      1062.851    25114967.760   131980061.008 3      1062.851    25114981.280   102841631.473 3       828.196    25114980.620   102841648.516 5       828.196
> 2025 04 04 16 59 38.0000000  0 18
G27  24608138.580   129316634.251 6      -383.894    24608136.300   129316634.256 5      -383.894    24608164.180   100766245.676 5      -299.139    24608164.640   100766313.650 6      -299.139
G02  22146544.500   116380876.630 7      1581.662    22146542.780   116380876.630 4      1581.662    22146546.880    90686406.033 4      1232.464
G03  19914201.420   104649834.307 7      3378.821    19914200.060   104649834.312 8      3378.821    19914208.220    81545353.115 8      2632.848    19914208.220    81545353.113 8      2632.848
G14  22287593.940   117122095.652 7      3718.228    22287592.820   117122095.657 5      3718.228    22287600.860    91263970.423 5      2897.320    22287601.200    91263998.426 8      2897.320
R03  19882474.800   106432448.095 8      4063.854    19882474.480   106432448.126 8      4063.854    19882486.660    82780842.831 8      3160.775    19882486.480    82780838.830 8      3160.775
G01  20921972.480   109945706.977 7      2320.967    20921972.180   109945706.976 6      2320.967    20921976.940    85671998.061 6      1808.546    20921977.080    85671997.072 8      1808.546
G08  21419947.220   112562580.574 7       702.360    21419945.900   112562580.571 7       702.360    21419956.780    87711131.441 7       547.294    21419957.540    87711140.446 8       547.294
R18  20631711.820   110133477.000 7      3368.703    20631711.880   110133477.001 7      3368.703    20631722.300    85659414.813 7      2620.102    20631722.440    85659417.812 7      2620.102
R09  23038051.620   123021902.878 5      3526.670    23038051.980   123021902.849 5      3526.670    23038063.260    95683759.941 6      2742.966    23038063.060    95683760.928 6      2742.966
R02  21874967.980   116729016.338 7       178.918    21874966.840   116729016.336 6       178.918    21874980.500    90789275.351 6       139.158    21874980.160    90789280.361 6       139.158
R16  21858789.560   116765736.527 6       374.950    21858790.160   116765736.542 6       374.950    21858806.880    90817859.547 7       291.628    21858806.320    90817855.545 7       291.628
R15  23604736.640   126136552.941 6     -1043.380    23604737.740   126136552.939 6     -1043.380    23604770.220    98106347.177 7      -811.518    23604769.960    98106344.189 7      -811.518
R17  21622554.860   115706644.453 6      1610.277    21622554.420   115706644.479 6      1610.277    21622567.280    89994124.692 5      1252.438    21622567.980    89994125.681 5      1252.438
R04  21860626.120   117062659.150 7      6883.960    21860628.900   117062659.192 7      6883.960    21860648.060    91048827.405 8      5354.191    21860648.140    91048828.415 8      5354.191
G17  23853880.180   125352985.095 6      5549.372    23853878.120   125352985.092 3      5549.372    23853887.380    97677679.477 3      4324.186    23853884.140    97677673.532 6      4324.186
G04  23975065.280   125989834.154 5      5781.495    23975063.800   125989834.167 4      5781.495    23975089.760    98173989.346 4      4505.061    23975090.060    98173987.442 8      4505.061
G22  23979207.800   126011586.097 6      4677.671    23979206.120   126011586.096 3      4677.671    23979213.980    98190870.121 3      3644.939
G32  25114767.040   131978997.957 6      1063.113    25114765.440   131978997.978 3      1063.113    25114778.940   102840803.150 3       828.399    25114775.460   102840820.267 5       828.399
> 2025 04 04 16 59 39.0000000  0 18
G27  24608212.080   129317018.121 6      -383.556    24608209.260   129317018.128 5      -383.556    24608237.220   100766544.793 5      -298.875    24608237.400   100766612.813 6      -298.875
G02  22146243.720   116379294.891 6      1581.991    22146241.800   116379294.893 4      1581.991    22146245.920    90685173.515 4      1232.720
G03  19913558.460   104646455.687 8      3378.683    19913557.180   104646455.689 8      3378.683    19913565.300    81542720.432 8      2632.740    19913565.320    81542720.431 8      2632.740
G14  22286886.280   117118377.570 7      3718.253    22286885.200   117118377.578 5      3718.253    22286893.360    91261073.222 5      2897.340    22286893.540    91261101.225 8      2897.340
R03  19881715.800   106428384.482 8      4063.499    19881715.180   106428384.511 8      4063.499    19881727.340    82777682.262 8      3160.500    19881727.200    82777678.263 8      3160.500
G01  20921531.020   109943385.906 7      2321.333    20921530.340   109943385.909 6      2321.333    20921535.300    85670189.443 6      1808.831    20921535.500    85670188.448 8      1808.831
G08  21419813.620   112561878.267 7       702.497    21419812.340   112561878.267 7       702.497    21419823.180    87710584.196 7       547.400    21419823.820    87710593.206 8       547.400
R18  20631080.540   110130108.156 7      3369.237    20631081.240   110130108.154 7      3369.237    20631090.880    85656794.605 7      2620.518    20631091.400    85656797.604 7      2620.518
R09  23037390.820   123018376.469 5      3526.214    23037390.080   123018376.465 5      3526.214    23037402.620    95681017.208 6      2742.611    23037403.280    95681018.208 6      2742.611
R02  21874934.460   116728837.586 7       178.718    21874933.440   116728837.576 6       178.718    21874947.080    90789136.318 6       139.003    21874946.260    90789141.324 6       139.003
R16  21858719.320   116765361.649 6       374.918    21858719.660   116765361.661 6       374.918    21858736.700    90817567.979 7       291.603    21858736.240    90817563.967 7       291.603
R15  23604931.640   126137596.097 6     -1042.777    23604933.100   126137596.096 6     -1042.777    23604965.740    98107158.538 7      -811.049    23604965.320    98107155.542 7      -811.049
R17  21622254.480   115705034.170 6      1610.679    21622253.760   115705034.171 6      1610.679    21622266.380    89992872.210 5      1252.750    21622266.280    89992873.190 5      1252.750
R04  21859340.920   117055775.281 7      6884.072    21859343.560   117055775.331 7      6884.072    21859362.460    91043473.311 8      5354.278    21859362.360    91043474.321 8      5354.278
G17  23852823.960   125347435.575 6      5549.973    23852822.060   125347435.575 3      5549.973    23852831.500    97673355.191 3      4324.654    23852828.600    97673349.239 6      4324.654
G04  23973964.640   125984052.302 5      5782.372    23973963.480   125984052.309 4      5782.372    23973989.540    98169484.035 4      4505.745    23973989.680    98169482.103 8      4505.745
G22  23978317.640   126006908.624 6      4677.464    23978316.080   126006908.626 3      4677.464    23978323.880    98187225.343 3      3644.777
G32  25114564.740   131977934.963 6      1063.059    25114563.260   131977934.981 3      1063.059    25114576.840   102839974.851 3       828.357    25114573.660   102839991.951 5       828.357
> 2025 04 04 16 59 40.0000000  0 18
G27  24608285.200   129317401.780 5      -383.758    24608282.220   129317401.790 4      -383.758    24608310.360   100766843.736 4      -299.032    24608310.480   100766911.695 6      -299.032
G02  22145942.360   116377712.687 6      1582.019    22145940.640   116377712.689 4      1582.019    22145945.020    90683940.628 4      1232.742
G03  19912915.500   104643077.193 7      3378.154    19912914.360   104643077.201 8      3378.154    19912922.360    81540087.844 8      2632.328    19912922.260    81540087.840 8      2632.328
G14  22286178.600   117114659.656 7      3717.531    22286177.720   117114659.666 5      3717.531    22286185.920    91258176.153 5      2896.777    22286186.160    91258204.155 8      2896.777
R03  19880956.640   106424321.215 8      4062.838    19880955.960   106424321.238 8      4062.838    19880968.260    82774521.949 8      3159.985    19880968.340    82774517.952 8      3159.985
G01  20921089.140   109941064.505 7      2321.350    20921088.620   109941064.505 6      2321.350    20921093.620    85668380.563 6      1808.844    20921093.800    85668379.560 8      1808.844
G08  21419680.100   112561175.887 7       702.127    21419678.840   112561175.884 7       702.127    21419689.520    87710036.884 7       547.112    21419690.220    87710045.891 8       547.112
R18  20630449.460   110126738.903 7      3369.152    20630449.380   110126738.915 7      3369.152    20630459.900    85654174.086 7      2620.451    20630460.400    85654177.091 7      2620.451
R09  23036730.520   123014850.339 5      3525.749    23036730.860   123014850.337 5      3525.749    23036742.600    95678274.662 6      2742.249    23036742.980    95678275.662 6      2742.249
R02  21874900.560   116728658.997 7       178.239    21874899.840   116728658.990 6       178.239    21874913.440    90788997.423 6       138.630    21874912.360    90789002.423 6       138.630
R16  21858649.480   116764986.832 6       374.575    21858648.980   116764986.838 6       374.575    21858666.420    90817276.428 7       291.336    21858666.060    90817272.422 7       291.336
R15  23605126.640   126138638.655 6     -1042.585    23605128.220   126138638.672 6     -1042.585    23605160.400    98107969.445 7      -810.899    23605160.260    98107966.457 7      -810.899
R17  21621953.400   115703423.568 6      1610.629    21621952.420   115703423.566 6      1610.629    21621965.780    89991619.528 5      1252.711    21621966.380    89991620.516 5      1252.711
R04  21858055.320   117048891.147 7      6884.027    21858058.020   117048891.189 7      6884.027    21858076.920    91038119.001 8      5354.243    21858076.800    91038120.007 8      5354.243
G17  23851767.800   125341885.554 6      5550.202    23851766.080   125341885.553 3      5550.202    23851775.420    97669030.517 3      4324.832    23851771.920    97669024.569 6      4324.832
G04  23972864.060   125978270.000 5      5782.117    23972863.040   125978270.012 4      5782.117    23972889.240    98164978.374 4      4505.546    23972889.400    98164976.447 8      4505.546
G22  23977427.860   126002231.080 7      4677.336    23977426.060   126002231.085 3      4677.336    23977433.860    98183580.518 3      3644.677
G32  25114362.220   131976871.967 6      1062.731    25114360.900   131976871.982 3      1062.731    25114374.680   102839146.548 3       828.102    25114373.780   102839163.657 5       828.102
> 2025 04 04 16 59 41.0000000  0 18
G27  24608357.920   129317785.293 5      -383.222    24608355.320   129317785.300 4      -383.222    24608383.600   100767142.551 4      -298.615    24608383.700   100767210.507 6      -298.615
G02  22145640.980   116376130.172 7      1582.854    22145639.580   116376130.177 4      1582.854    22145643.820    90682707.504 4      1233.393
G03  19912272.620   104639699.033 7      3378.244    19912271.520   104639699.035 8      3378.244    19912279.500    81537455.511 8      2632.398    19912279.400    81537455.507 8      2632.398
G14  22285471.240   117110942.055 7      3717.583    22285470.260   117110942.065 5      3717.583    22285478.460    91255279.325 5      2896.818    22285478.680    91255307.319 8      2896.818
R03  19880197.840   106420258.515 8      4062.585    19880196.780   106420258.543 7      4062.585    19880209.320    82771362.073 8      3159.788    19880209.240    82771358.075 8      3159.788
G01  20920647.420   109938742.948 7      2321.920    20920646.840   109938742.953 6      2321.920    20920651.960    85666571.564 6      1809.288    20920652.200    85666570.563 8      1809.288
G08  21419546.340   112560473.625 7       702.332    21419545.200   112560473.627 7       702.332    21419555.860    87709489.663 7       547.271    21419556.640    87709498.666 8       547.271
R18  20629818.340   110123369.464 7      3369.683    20629818.160   110123369.476 7      3369.683    20629828.560    85651553.420 7      2620.864    20629829.180    85651556.420 7      2620.864
R09  23036070.480   123011324.667 5      3525.527    23036070.100   123011324.676 5      3525.527    23036082.580    95675532.490 6      2742.077    23036083.120    95675533.481 6      2742.077
R02  21874867.360   116728480.854 7       178.191    21874866.560   116728480.846 6       178.191    21874880.260    90788858.859 6       138.593    21874879.140    90788863.859 6       138.593
R16  21858579.680   116764612.253 6       374.746    21858579.860   116764612.249 6       374.746    21858596.380    90816985.066 7       291.469    21858595.820    90816981.060 7       291.469
R15  23605321.360   126139680.799 6     -1041.719    23605322.920   126139680.806 6     -1041.719    23605355.260    98108780.026 7      -810.226    23605355.500    98108777.030 7      -810.226
R17  21621651.900   115701812.864 6      1610.829    21621650.520   115701812.855 6      1610.829    21621664.040    89990366.754 5      1252.867    21621665.100    89990367.734 5      1252.867
R04  21856770.320   117042006.991 7      6884.439    21856772.400   117042007.039 7      6884.439    21856791.220    91032764.677 8      5354.563    21856791.340    91032765.681 8      5354.563
G17  23850711.420   125336335.314 6      5550.620    23850709.940   125336335.316 3      5550.620    23850719.320    97664705.667 3      4325.158    23850716.420    97664699.724 6      4325.158
G04  23971764.240   125972487.214 5      5783.263    23971762.320   125972487.222 4      5783.263    23971788.640    98160472.330 4      4506.438    23971788.840    98160470.395 8      4506.438
G22  23976537.880   125997553.694 6      4677.742    23976535.920   125997553.696 3      4677.742    23976543.820    98179935.807 3      3644.993
G32  25114160.380   131975809.073 6      1063.286    25114158.520   131975809.088 3      1063.286    25114172.320   102838318.332 3       828.534    25114170.680   102838335.450 5       828.534
> 2025 04 04 16 59 42.0000000  0 18
G27  24608429.920   129318168.608 5      -383.397    24608428.300   129318168.605 4      -383.397    24608456.440   100767441.211 4      -298.751    24608456.160   100767509.165 6      -298.751
G02  22145340.040   116374547.355 7      1583.093    22145338.360   116374547.358 4      1583.093    22145342.720    90681474.143 4      1233.579
G03  19911629.660   104636321.096 7      3377.901    19911628.720   104636321.101 8      3377.901    19911636.680    81534823.359 8      2632.130    19911636.600    81534823.355 8      2632.130
G14  22284763.820   117107224.632 7      3717.504    22284763.020   117107224.640 5      3717.504    22284771.060    91252382.634 5      2896.757    22284771.560    91252410.628 8      2896.757
R03  19879438.800   106416196.238 8      4062.129    19879438.180   106416196.255 7      4062.129    19879450.500    82768202.520 8      3159.433    19879450.460    82768198.522 8      3159.433
G01  20920205.440   109936421.169 7      2322.025    20920204.960   109936421.176 6      2322.025    20920210.060    85664762.385 6      1809.370    20920210.460    85664761.388 8      1809.370
G08  21419412.560   112559771.345 7       702.411    21419411.500   112559771.344 7       702.411    21419422.140    87708942.424 7       547.334    21419422.940    87708951.432 7       547.334
R18  20629187.000   110119999.665 6      3370.128    20629187.620   110119999.666 7      3370.128    20629197.520    85648932.452 7      2621.210    20629197.800    85648935.461 7      2621.210
R09  23035410.640   123007799.367 5      3525.071    23035411.240   123007799.376 5      3525.071    23035422.220    95672790.573 6      2741.722    23035422.980    95672791.591 6      2741.722
R02  21874833.940   116728303.070 7       177.651    21874833.460   116728303.063 6       177.651    21874846.420    90788720.571 6       138.173    21874846.120    90788725.571 6       138.173
R16  21858509.840   116764237.775 6       374.508    21858509.440   116764237.766 6       374.508    21858526.280    90816693.806 7       291.284    21858525.620    90816689.797 7       291.284
R15  23605516.600   126140722.478 6     -1041.349    23605517.800   126140722.476 6     -1041.349    23605550.100    98109590.200 7      -809.938    23605550.140    98109587.202 7      -809.938
R17  21621350.640   115700201.812 6      1611.284    21621350.780   115700201.798 6      1611.284    21621362.820    89989113.701 5      1253.221    21621363.740    89989114.694 5      1253.221
R04  21855484.440   117035122.699 7      6884.469    21855486.820   117035122.747 7      6884.469    21855505.520    91027410.238 8      5354.587    21855505.660    91027411.246 8      5354.587
G17  23849655.180   125330784.636 6      5551.056    23849653.800   125330784.635 3      5551.056    23849662.740    97660380.471 3      4325.499    23849659.200    97660374.518 6      4325.499
G04  23970663.080   125966703.995 5      5783.468    23970661.560   125966704.002 4      5783.468    23970688.520    98155965.956 4      4506.598    23970688.360    98155964.060 8      4506.598
G22  23975647.560   125992876.415 6      4677.290    23975645.840   125992876.418 3      4677.290    23975653.860    98176291.183 3      3644.641
G32  25113957.900   131974746.407 5      1062.800    25113956.360   131974746.425 3      1062.800    25113970.220   102837490.293 3       828.156    25113968.220   102837507.377 5       828.156
> 2025 04 04 16 59 43.0000000  0 18
G27  24608503.360   129318551.508 5      -382.753    24608501.080   129318551.503 4      -382.753    24608529.440   100767739.553 4      -298.249    24608528.680   100767807.507 6      -298.249
G02  22145038.840   116372963.992 6      1583.666    22145036.980   116372963.992 4      1583.666    22145041.240    90680240.355 4      1234.025
G03  19910986.880   104632943.233 7      3377.870    19910985.820   104632943.235 8      3377.870    19910993.900    81532191.260 8      2632.107    19910993.640    81532191.262 8      2632.107
G14  22284056.400   117103507.291 7      3717.432    22284055.500   117103507.307 5      3717.432    22284063.780    91249486.008 5      2896.701    22284064.160    91249514.011 8      2896.701
R03  19878680.160   106412134.234 8      4061.882    19878679.060   106412134.257 7      4061.882    19878691.640    82765043.192 8      3159.242    19878691.380    82765039.195 8      3159.242
G01  20919763.680   109934098.995 7      2322.342    20919763.100   109934098.997 6      2322.342    20919768.120    85662952.897 6      1809.617    20919768.480    85662951.894 8      1809.617
G08  21419278.700   112559068.933 7       702.452    21419278.000   112559068.938 7       702.452    21419288.480    87708395.098 7       547.365    21419289.280    87708404.109 8       547.365
R18  20628555.960   110116629.409 7      3370.637    20628555.660   110116629.404 7      3370.637    20628565.680    85646311.148 7      2621.606    20628566.080    85646314.157 7      2621.606
R09  23034750.460   123004274.235 5      3525.152    23034750.840   123004274.217 5      3525.152    23034762.040    95670048.789 6      2741.785    23034763.000    95670049.809 6      2741.785
R02  21874800.420   116728125.388 7       177.577    21874799.640   116728125.384 7       177.577    21874813.960    90788582.378 6       138.116    21874812.500    90788587.372 6       138.116
R16  21858440.020   116763863.274 6       374.458    21858439.340   116763863.275 6       374.458    21858456.220    90816402.516 7       291.245    21858455.700    90816398.518 7       291.245
R15  23605711.420   126141763.468 6     -1040.611    23605712.220   126141763.474 6     -1040.611    23605744.980    98110399.880 7      -809.364    23605745.080    98110396.890 7      -809.364
R17  21621049.900   115698590.349 6      1611.717    21621048.860   115698590.361 6      1611.717    21621061.900    89987860.351 5      1253.558    21621061.860    89987861.346 5      1253.558
R04  21854198.520   117028238.139 7      6884.659    21854200.440   117028238.197 7      6884.659    21854219.880    91022055.616 8      5354.735    21854219.960    91022056.622 8      5354.735
G17  23848598.920   125325233.426 6      5551.614    23848597.620   125325233.429 3      5551.614    23848606.240    97656054.866 3      4325.933    23848603.320    97656048.916 6      4325.933
G04  23969562.380   125960920.224 5      5784.280    23969560.680   125960920.229 4      5784.280    23969587.900    98151459.144 3      4507.231    23969587.720    98151457.216 8      4507.231
G22  23974757.560   125988198.974 6      4677.520    23974755.740   125988198.976 3      4677.520    23974764.000    98172646.429 3      3644.821
G32  25113755.540   131973683.621 5      1062.640    25113754.180   131973683.639 3      1062.640    25113768.140   102836662.154 3       828.031    25113766.360   102836679.219 5       828.031
> 2025 04 04 16 59 44.0000000  0 18
G27  24608575.960   129318934.078 5      -382.779    24608573.720   129318934.080 4      -382.779    24608602.300   100768037.642 4      -298.269    24608602.080   100768105.609 6      -298.269
G02  22144737.500   116371380.119 7      1584.119    22144735.360   116371380.121 4      1584.119    22144739.860    90679006.166 4      1234.378
G03  19910344.420   104629565.430 8      3377.685    19910342.980   104629565.435 8      3377.685    19910351.140    81529559.210 8      2631.962    19910351.160    81529559.208 8      2631.962
G14  22283349.120   117099790.050 7      3717.026    22283348.100   117099790.065 5      3717.026    22283356.600    91246589.457 5      2896.384    22283356.840    91246617.445 8      2896.384
R03  19877921.540   106408072.559 8      4061.342    19877920.400   106408072.582 8      4061.342    19877932.660    82761884.122 8      3158.821    19877932.580    82761880.127 8      3158.821
G01  20919321.620   109931776.374 7      2322.685    20919321.000   109931776.379 6      2322.685    20919326.260    85661143.063 6      1809.884    20919326.480    85661142.068 8      1809.884
G08  21419144.980   112558366.340 7       702.574    21419144.240   112558366.342 7       702.574    21419154.840    87707847.617 7       547.460    21419155.460    87707856.622 8       547.460
R18  20627924.900   110113258.691 7      3370.827    20627924.660   110113258.684 7      3370.827    20627934.120    85643689.481 7      2621.754    20627934.640    85643692.490 7      2621.754
R09  23034090.520   123000749.324 6      3524.723    23034090.660   123000749.320 5      3524.723    23034101.740    95667307.188 6      2741.451    23034102.680    95667308.185 6      2741.451
R02  21874767.260   116727947.821 7       177.245    21874766.780   116727947.830 7       177.245    21874780.320    90788444.303 6       137.857    21874779.280    90788449.295 6       137.857
R16  21858370.160   116763488.713 6       374.520    21858369.000   116763488.712 6       374.520    21858386.280    90816111.181 7       291.294    21858385.680    90816107.181 7       291.294
R15  23605906.080   126142803.773 6     -1040.152    23605907.240   126142803.766 6     -1040.152    23605939.380    98111208.994 7      -809.007    23605939.260    98111205.998 7      -809.007
R17  21620748.240   115696978.537 6      1611.760    21620746.820   115696978.568 6      1611.760    21620760.500    89986606.761 5      1253.591    21620760.960    89986607.784 5      1253.591
R04  21852912.760   117021353.264 7      6884.868    21852915.160   117021353.319 7      6884.868    21852934.240    91016700.725 8      5354.898    21852934.260    91016701.731 8      5354.898
G17  23847542.480   125319681.652 6      5551.952    23847540.920   125319681.654 3      5551.952    23847549.880    97651728.818 3      4326.196    23847547.100    97651722.834 6      4326.196
G04  23968460.720   125955135.778 5      5785.087    23968459.820   125955135.783 4      5785.087    23968487.120    98146951.808 3      4507.860    23968486.840    98146949.898 7      4507.860
G22  23973867.520   125983521.433 7      4677.549    23973865.820   125983521.435 3      4677.549    23973873.960    98169001.598 3      3644.844
G32  25113553.980   131972620.675 6      1063.109    25113551.920   131972620.695 3      1063.109    25113565.880   102835833.888 3       828.396    25113562.500   102835850.931 5       828.396
> 2025 04 04 16 59 45.0000000  0 18
G27  24608649.240   129319316.410 5      -382.214    24608646.480   129319316.402 4      -382.214    24608675.300   100768335.531 4      -297.829    24608675.240   100768403.483 6      -297.829
G02  22144435.960   116369795.913 7      1584.489    22144433.860   116369795.917 4      1584.489    22144438.540    90677771.724 4      1234.667
G03  19909701.680   104626187.874 7      3377.537    19909700.240   104626187.877 8      3377.537    19909708.360    81526927.356 8      2631.847    19909708.360    81526927.354 8      2631.847
G14  22282641.640   117096072.998 7      3716.925    22282640.840   117096073.010 5      3716.925    22282649.060    91243693.055 5      2896.305    22282649.300    91243721.049 8      2896.305
R03  19877162.800   106404011.368 8      4060.989    19877161.820   106404011.380 7      4060.989    19877174.080    82758725.425 8      3158.547    19877174.100    82758721.426 8      3158.547
G01  20918879.680   109929453.549 7      2322.910    20918879.040   109929453.551 6      2322.910    20918884.300    85659333.071 6      1810.060    20918884.480    85659332.078 8      1810.060
G08  21419011.500   112557663.786 7       702.586    21419010.640   112557663.789 7       702.586    21419021.140    87707300.179 7       547.470    21419021.660    87707309.181 8       547.470
R18  20627293.160   110109887.653 7      3371.169    20627293.320   110109887.649 7      3371.169    20627302.640    85641067.579 7      2622.020    20627302.900    85641070.594 7      2622.020
R09  23033430.100   122997224.811 6      3524.497    23033430.660   122997224.788 5      3524.497    23033442.040    95664565.892 6      2741.276    23033442.680    95664566.906 6      2741.276
R02  21874733.800   116727770.526 7       177.205    21874733.940   116727770.533 6       177.205    21874746.600    90788306.403 6       137.826    21874746.140    90788311.409 6       137.826
R16  21858299.760   116763114.364 6       374.303    21858298.780   116763114.354 6       374.303    21858316.080    90815820.018 7       291.124    21858315.460    90815816.014 7       291.124
R15  23606100.440   126143843.576 6     -1039.541    23606101.840   126143843.577 6     -1039.541    23606133.900    98112017.757 7      -808.532    23606133.980    98112014.763 7      -808.532
R17  21620446.980   115695366.528 6      1612.115    21620445.880   115695366.564 6      1612.115    21620458.060    89985352.972 5      1253.867    21620459.760    89985353.990 5      1253.867
R04  21851627.000   117014468.241 7      6885.147    21851629.340   117014468.282 7      6885.147    21851648.340    91011345.723 8      5355.114    21851648.580    91011346.727 8      5355.114
G17  23846485.920   125314129.507 6      5552.282    23846484.240   125314129.510 3      5552.282    23846493.460    97647402.478 3      4326.453    23846491.240    97647396.514 6      4326.453
G04  23967360.840   125949351.006 5      5784.944    23967358.540   125949351.008 4      5784.944    23967386.060    98142444.220 3      4507.749    23967386.080    98142442.324 7      4507.749
G22  23972977.440   125978843.965 7      4677.521    23972975.780   125978843.965 3      4677.521    23972983.920    98165356.824 3      3644.822
G32  25113351.000   131971557.917 6      1062.794    25113349.800   131971557.938 3      1062.794    25113363.720   102835005.774 3       828.151    25113360.700   102835022.827 5       828.151
> 2025 04 04 16 59 46.0000000  0 18
G27  24608721.860   129319698.346 5      -381.652    24608718.980   129319698.335 4      -381.652    24608747.840   100768633.113 4      -297.391    24608747.840   100768701.059 6      -297.391
G02  22144134.140   116368211.149 6      1585.234    22144132.280   116368211.149 4      1585.234    22144137.240    90676536.841 4      1235.247
G03  19909058.720   104622810.355 7      3377.664    19909057.540   104622810.363 8      3377.664    19909065.640    81524295.529 8      2631.946    19909065.540    81524295.527 8      2631.946
G14  22281934.720   117092355.956 7      3717.246    22281933.520   117092355.964 5      3717.246    22281941.760    91240796.665 5      2896.555    22281941.940    91240824.665 8      2896.555
R03  19876404.360   106399950.440 8      4060.986    19876403.140   106399950.455 8      4060.986    19876415.260    82755566.933 8      3158.545    19876415.720    82755562.934 8      3158.545
G01  20918437.700   109927130.253 7      2323.727    20918436.900   109927130.258 6      2323.727    20918442.260    85657522.718 6      1810.696    20918442.480    85657521.728 8      1810.696
G08  21418877.960   112556961.025 7       703.038    21418876.900   112556961.030 7       703.038    21418887.500    87706752.572 7       547.822    21418887.760    87706761.577 8       547.822
R18  20626661.640   110106516.087 7      3372.085    20626661.300   110106516.077 7      3372.085    20626671.320    85638445.245 7      2622.733    20626671.060    85638448.258 7      2622.733
R09  23032770.540   122993700.432 6      3524.443    23032770.820   122993700.431 5      3524.443    23032781.560    95661824.731 6      2741.233    23032782.720    95661825.732 6      2741.233
R02  21874700.540   116727593.309 7       177.435    21874700.700   116727593.315 7       177.435    21874713.680    90788168.567 6       138.005    21874712.680    90788173.567 6       138.005
R16  21858229.640   116762739.947 6       374.590    21858228.120   116762739.935 6       374.590    21858246.020    90815528.797 7       291.348    21858245.320    90815524.793 7       291.348
R15  23606295.080   126144882.709 7     -1038.635    23606296.220   126144882.713 6     -1038.635    23606327.760    98112825.979 7      -807.827    23606328.420    98112822.987 7      -807.827
R17  21620146.520   115693754.098 6      1613.032    21620143.580   115693754.100 6      1613.032    21620156.880    89984098.840 5      1254.580    21620158.340    89984099.847 5      1254.580
R04  21850341.800   117007582.853 7      6885.870    21850343.480   117007582.898 7      6885.870    21850362.580    91005990.445 8      5355.676    21850362.500    91005991.451 8      5355.676
G17  23845429.780   125308576.756 6      5553.354    23845427.580   125308576.748 3      5553.354    23845436.800    97643075.671 3      4327.289    23845434.220    97643069.686 6      4327.289
