     3.05           OBSERVATION DATA    MIXED               RINEX VERSION / TYPE
TPS2RIN 1.0.28.3459 TPS-USER            20250407 110045 UTC PGM / RUN BY / DATE
Win64 build Jun 01, 2022 (c) Topcon Positioning Systems     COMMENT
SRC: 20250404_grav_20250404_160111.tps                      COMMENT
Observer            Agency                                  OBSERVER / AGENCY
O0M3X53SBGM         TPS HIPER_SR        4.8 HSR Jul,08,2022 REC # / TYPE / VERS
FW: 4.8 HSR Jul,08,2022 p3                                  COMMENT
SN: HiPer SR 1212-12575                                     COMMENT
000                 TPSHIPER_SR     NONE                    ANT # / TYPE
        1.8000        0.0000        0.0000                  ANTENNA: DELTA H/E/N
DELTA H stands for **SLANT** height here!                   COMMENT
Oro03                                                       MARKER NAME
  5383905.2867 -1594892.2477  3016156.7972                  APPROX POSITION XYZ
  2025     4     4    14     1   36.0000000     GPS         TIME OF FIRST OBS
  2025     4     4    14    16   58.0000000     GPS         TIME OF LAST OBS
     1.000                                                  INTERVAL
   923 EPOCHS                                               COMMENT
G   12 C1C L1C D1C C1W L1W D1W C2W L2W D2W C2X L2X D2X      SYS / # / OBS TYPES
R   12 C1C L1C D1C C1P L1P D1P C2P L2P D2P C2C L2C D2C      SYS / # / OBS TYPES
    15                                                      # OF SATELLITES
   G01   923   923   923   923   923   923   923   923   923PRN / # OF OBS
         923   923   923                                    PRN / # OF OBS
   G02   923   923   923   923   923   923   923   923   923PRN / # OF OBS
           0     0     0                                    PRN / # OF OBS
   G07   923   923   923   923   923   923   923   923   923PRN / # OF OBS
         923   923   923                                    PRN / # OF OBS
   G08   923   923   923   923   923   923   923   923   923PRN / # OF OBS
         923   923   923                                    PRN / # OF OBS
   G10   923   923   923   923   923   923   923   923   923PRN / # OF OBS
         923   923   923                                    PRN / # OF OBS
   G16   923   923   923   923   923   923   923   923   923PRN / # OF OBS
           0     0     0                                    PRN / # OF OBS
   G23   806   806   806   802   802   802   802   802   802PRN / # OF OBS
         798   798   798                                    PRN / # OF OBS
   G26   923   923   923   923   923   923   923   923   923PRN / # OF OBS
         923   923   923                                    PRN / # OF OBS
   G27   923   923   923   923   923   923   923   923   923PRN / # OF OBS
         923   923   923                                    PRN / # OF OBS
   R14   923   923   923   923   923   923   923   923   923PRN / # OF OBS
         923   923   923                                    PRN / # OF OBS
   R15   923   923   923   923   923   923   923   923   923PRN / # OF OBS
         923   923   923                                    PRN / # OF OBS
   R16    51    51    51    51    51    51    51    51    51PRN / # OF OBS
          51    51    51                                    PRN / # OF OBS
   R17   923   923   923   923   923   923   923   923   923PRN / # OF OBS
         923   923   923                                    PRN / # OF OBS
   R18   923   923   923   923   923   923   923   923   923PRN / # OF OBS
         923   923   923                                    PRN / # OF OBS
   R24   923   923   923   923   923   923   923   923   923PRN / # OF OBS
         923   923   923                                    PRN / # OF OBS
G L1C                                                       SYS / PHASE SHIFT
G L1W -0.25000                                              SYS / PHASE SHIFT
G L2W  0.00000                                              SYS / PHASE SHIFT
G L2X  0.25000                                              SYS / PHASE SHIFT
R L1C                                                       SYS / PHASE SHIFT
R L1P -0.25000                                              SYS / PHASE SHIFT
R L2P -0.25000                                              SYS / PHASE SHIFT
R L2C                                                       SYS / PHASE SHIFT
  6 R14 -7 R15  0 R16 -1 R17  4 R18 -3 R24  2               GLONASS SLOT / FRQ #
                                                            GLONASS COD/PHS/BIS
               *** Undefined LeapSeconds ***                COMMENT
                                                            END OF HEADER
> 2025 04 04 14 01 36.0000000  0 14
G10  22341797.080   117406935.512 7      2317.776    22341796.240   117406935.522 7      2317.776    22341806.120    91485967.129 7      1806.059    22341806.580    91485964.128 8      1806.059
R24  21256356.880   113667282.446 7       463.463    21256355.520   113667282.445 7       463.463    21256368.680    88407939.563 8       360.471    21256368.600    88407933.564 8       360.471
G02  21194024.940   111375354.700 7      3595.179    21194023.780   111375354.707 6      3595.179    21194028.220    86786007.712 6      2801.438
G08  21244048.700   111638232.160 7      3826.095    21244047.720   111638232.155 6      3826.095    21244056.540    86990868.683 6      2981.373    21244057.260    86990862.690 8      2981.373
G27  21049247.680   110614546.692 7      2109.902    21049246.120   110614546.700 8      2109.902    21049254.700    86193194.078 8      1644.080    21049255.240    86193179.079 5      1644.080
G23  24409034.500   128270343.917 5       252.322    24409033.540   128270343.919 2       252.322    24409046.020    99950939.851 2       196.615    24409047.440    99950962.903 6       196.615
R15  20518026.940   109642116.237 7      5115.932    20518025.940   109642116.247 7      5115.932    20518036.660    85277241.224 8      3979.058    20518038.180    85277265.231 8      3979.058
R18  22970654.180   122618949.098 6      4914.177    22970652.320   122618949.097 6      4914.177    22970672.660    95370344.046 7      3822.138    22970673.920    95370400.051 7      3822.138
G16  21162989.560   111212245.882 7       759.357    21162987.880   111212245.892 6       759.357    21162994.800    86658910.370 6       591.707
R14  19591375.060   104433037.799 8       940.621    19591374.900   104433037.797 8       940.621    19591384.920    81225750.535 8       731.594    19591385.360    81225738.535 8       731.594
R17  20441013.260   109383992.258 8      2943.422    20441012.320   109383992.265 7      2943.422    20441024.440    85076484.676 8      2289.328    20441024.300    85076487.679 8      2289.328
G26  22991054.400   120818773.572 7      -374.688    22991052.580   120818773.574 7      -374.688    22991067.640    94144539.870 6      -291.964    22991067.660    94144577.873 7      -291.964
G01  22999389.820   120862645.073 7      5421.882    22999388.500   120862645.078 5      5421.882    22999401.520    94178745.364 5      4224.843    22999401.380    94178709.389 7      4224.843
G07  24005201.500   126148187.501 6      3546.850    24005201.000   126148187.506 5      3546.850    24005210.380    98297325.840 5      2763.779    24005208.500    98297318.871 7      2763.779
> 2025 04 04 14 01 37.0000000  0 14
G10  22341356.000   117404617.933 7      2317.355    22341355.200   117404617.941 7      2317.355    22341365.280    91484161.226 7      1805.731    22341365.520    91484158.225 8      1805.731
R24  21256270.120   113666818.940 7       463.497    21256268.760   113666818.941 7       463.497    21256281.980    88407579.062 8       360.498    21256281.980    88407573.061 8       360.498
G02  21193340.980   111371759.711 7      3594.807    21193339.800   111371759.716 6      3594.807    21193344.060    86783206.424 6      2801.149
G08  21243320.460   111634406.066 7      3826.053    21243319.780   111634406.058 6      3826.053    21243328.420    86987887.313 6      2981.340    21243329.240    86987881.320 8      2981.340
G27  21048846.060   110612436.790 8      2109.833    21048844.780   110612436.793 8      2109.833    21048853.300    86191550.000 8      1644.026    21048853.940    86191535.001 5      1644.026
G23  24408986.140   128270091.651 5       252.308    24408985.560   128270091.648 2       252.308    24408998.240    99950743.283 2       196.603    24408999.020    99950766.320 6       196.603
R15  20517069.640   109637000.521 7      5115.483    20517068.720   109637000.533 7      5115.483    20517079.460    85273262.338 8      3978.709    20517081.000    85273286.342 8      3978.709
R18  22969733.520   122614035.060 6      4914.050    22969731.840   122614035.056 6      4914.050    22969752.160    95366522.035 7      3822.039    22969753.420    95366578.048 7      3822.039
G16  21162845.180   111211486.747 7       758.980    21162843.460   111211486.755 6       758.980    21162850.460    86658318.832 6       591.413
R14  19591198.760   104432097.560 8       939.901    19591198.460   104432097.555 8       939.901    19591208.480    81225019.237 8       731.034    19591209.080    81225007.238 8       731.034
R17  20440463.280   109381048.905 7      2943.270    20440462.400   109381048.911 7      2943.270    20440474.600    85074195.407 8      2289.210    20440474.400    85074198.412 8      2289.210
G26  22991125.220   120819148.290 7      -374.806    22991124.080   120819148.292 6      -374.806    22991139.080    94144831.844 6      -292.057    22991139.480    94144869.849 7      -292.057
G01  22998357.860   120857223.311 7      5421.651    22998356.800   120857223.318 5      5421.651    22998369.800    94174520.631 5      4224.663    22998370.100    94174484.652 7      4224.663
G07  24004526.400   126144640.902 6      3546.468    24004525.960   126144640.904 5      3546.468    24004535.460    98294562.254 5      2763.481    24004533.920    98294555.266 7      2763.481
> 2025 04 04 14 01 38.0000000  0 14
G10  22340915.020   117402301.038 8      2316.636    22340914.280   117402301.048 7      2316.636    22340924.440    91482355.857 7      1805.171    22340924.680    91482352.856 8      1805.171
R24  21256183.540   113666355.594 8       463.401    21256182.200   113666355.601 7       463.401    21256195.120    88407218.682 8       360.423    21256195.280    88407212.681 8       360.423
G02  21192657.000   111368165.209 7      3594.347    21192655.700   111368165.217 6      3594.347    21192660.020    86780405.522 6      2800.790
G08  21242592.580   111630580.140 7      3826.035    21242591.580   111630580.135 6      3826.035    21242600.380    86984906.078 6      2981.326    21242601.180    86984900.087 8      2981.326
G27  21048444.600   110610327.130 8      2109.697    21048443.340   110610327.132 8      2109.697    21048451.840    86189906.107 8      1643.920    21048452.280    86189891.110 6      1643.920
G23  24408938.240   128269839.980 5       251.812    24408937.540   128269839.977 2       251.812    24408950.580    99950547.173 2       196.217    24408951.320    99950570.198 6       196.217
R15  20516112.580   109631885.612 7      5114.727    20516111.780   109631885.613 7      5114.727    20516122.240    85269284.071 8      3978.121    20516123.680    85269308.074 8      3978.121
R18  22968812.840   122609121.427 6      4913.456    22968811.740   122609121.431 6      4913.456    22968831.180    95362700.339 7      3821.577    22968832.660    95362756.344 7      3821.577
G16  21162700.520   111210728.117 7       758.575    21162699.140   111210728.125 6       758.575    21162706.000    86657727.692 6       591.097
R14  19591022.380   104431158.224 8       938.985    19591022.060   104431158.219 8       938.985    19591032.480    81224288.641 8       730.321    19591032.720    81224276.641 8       730.321
R17  20439913.100   109378105.936 8      2942.903    20439912.260   109378105.954 7      2942.903    20439924.320    85071906.446 8      2288.925    20439924.160    85071909.451 8      2288.925
G26  22991196.980   120819523.321 7      -374.945    22991195.500   120819523.323 6      -374.945    22991210.540    94145124.064 6      -292.165    22991210.560    94145162.072 7      -292.165
G01  22997326.560   120851801.922 7      5421.372    22997325.300   120851801.927 5      5421.372    22997338.120    94170296.178 5      4224.446    22997338.220    94170260.193 7      4224.446
G07  24003851.820   126141094.867 6      3545.840    24003851.120   126141094.866 5      3545.840    24003860.820    98291799.110 5      2762.993    24003859.080    98291792.130 7      2762.993
> 2025 04 04 14 01 39.0000000  0 14
G10  22340474.280   117399984.587 8      2315.922    22340473.580   117399984.594 7      2315.922    22340483.500    91480550.830 7      1804.615    22340483.860    91480547.831 8      1804.615
R24  21256096.640   113665892.136 8       463.310    21256095.620   113665892.138 7       463.310    21256108.580    88406858.208 8       360.353    21256108.540    88406852.201 8       360.353
G02  21191973.100   111364571.002 7      3593.869    21191971.760   111364571.009 6      3593.869    21191976.100    86777604.842 6      2800.417
G08  21241864.460   111626754.227 7      3825.742    21241863.580   111626754.224 6      3825.742    21241872.340    86981924.853 6      2981.098    21241872.900    86981918.859 8      2981.098
G27  21048043.160   110608217.509 8      2109.379    21048041.780   110608217.511 8      2109.379    21048050.360    86188262.247 8      1643.672    21048050.880    86188247.250 5      1643.672
G23  24408890.660   128269588.650 5       250.693    24408889.720   128269588.649 2       250.693    24408902.700    99950351.329 2       195.345    24408904.060    99950374.334 6       195.345
R15  20515155.380   109626771.232 7      5113.931    20515154.880   109626771.233 7      5113.931    20515165.280    85265306.218 8      3977.502    20515166.640    85265330.225 8      3977.502
R18  22967892.080   122604207.981 6      4913.257    22967891.020   122604207.961 6      4913.257    22967910.920    95358878.772 7      3821.422    22967912.320    95358934.783 7      3821.422
G16  21162556.220   111209969.829 7       757.927    21162554.740   111209969.834 6       757.927    21162561.800    86657136.812 6       590.592
R14  19590846.400   104430219.573 8       938.108    19590846.040   104430219.566 8       938.108    19590856.200    81223558.579 8       729.640    19590856.700    81223546.580 8       729.640
R17  20439362.940   109375163.182 8      2942.441    20439362.280   109375163.189 7      2942.441    20439374.480    85069617.637 8      2288.566    20439374.280    85069620.638 8      2288.566
G26  22991268.140   120819898.496 7      -375.422    22991266.880   120819898.496 6      -375.422    22991281.920    94145416.400 6      -292.537    22991282.060    94145454.398 7      -292.537
G01  22996295.260   120846380.712 7      5420.947    22996293.820   120846380.722 5      5420.947    22996306.460    94166071.867 5      4224.114    22996306.600    94166035.892 7      4224.114
G07  24003177.300   126137549.184 6      3545.333    24003176.500   126137549.184 5      3545.333    24003186.080    98289036.246 5      2762.597    24003184.460    98289029.269 7      2762.597
> 2025 04 04 14 01 40.0000000  0 14
G10  22340033.740   117397668.404 7      2315.818    22340032.800   117397668.414 7      2315.818    22340042.840    91478746.019 7      1804.533    22340043.020    91478743.019 8      1804.533
R24  21256010.240   113665428.357 7       463.731    21256008.780   113665428.361 7       463.731    21256021.960    88406497.493 8       360.680    21256022.140    88406491.486 8       360.680
G02  21191289.200   111360976.915 7      3593.847    21191287.680   111360976.920 6      3593.847    21191292.140    86774804.253 6      2800.400
G08  21241136.420   111622928.125 7      3826.026    21241135.600   111622928.122 6      3826.026    21241144.140    86978943.475 6      2981.319    21241144.820    86978937.485 8      2981.319
G27  21047641.560   110606107.744 8      2109.650    21047640.340   110606107.746 8      2109.650    21047648.920    86186618.278 8      1643.883    21047649.240    86186603.279 5      1643.883
G23  24408842.300   128269337.223 5       251.188    24408841.840   128269337.220 2       251.188    24408855.120    99950155.410 2       195.731    24408855.780    99950178.442 6       195.731
R15  20514198.460   109621657.226 7      5113.581    20514198.040   109621657.227 7      5113.581    20514208.120    85261328.666 8      3977.230    20514209.780    85261352.671 8      3977.230
R18  22966972.060   122599294.530 6      4913.221    22966970.240   122599294.515 6      4913.221    22966990.380    95355057.226 7      3821.394    22966991.580    95355113.237 7      3821.394
G16  21162411.980   111209211.669 7       757.861    21162410.720   111209211.679 6       757.861    21162417.460    86656546.042 6       590.541
R14  19590670.320   104429281.397 8       937.732    19590669.980   104429281.395 8       937.732    19590680.100    81222828.886 8       729.347    19590680.700    81222816.889 8       729.347
R17  20438812.800   109372220.478 7      2942.506    20438812.420   109372220.482 7      2942.506    20438824.620    85067328.867 8      2288.616    20438824.460    85067331.873 8      2288.616
G26  22991339.260   120820273.590 7      -375.314    22991338.220   120820273.593 6      -375.314    22991353.260    94145708.673 6      -292.453    22991353.260    94145746.675 7      -292.453
G01  22995263.500   120840959.509 6      5420.980    22995262.060   120840959.519 5      5420.980    22995274.780    94161847.564 5      4224.141    22995275.220    94161811.591 7      4224.141
G07  24002502.780   126134003.738 6      3545.091    24002501.720   126134003.740 5      3545.091    24002511.280    98286273.563 5      2762.408    24002509.900    98286266.586 7      2762.408
> 2025 04 04 14 01 41.0000000  0 14
G10  22339593.020   117395352.912 7      2315.232    22339592.160   117395352.924 7      2315.232    22339602.220    91476941.741 7      1804.077    22339602.360    91476938.744 8      1804.077
R24  21255923.240   113664964.683 7       463.699    21255922.020   113664964.695 7       463.699    21255935.340    88406136.860 8       360.655    21255935.200    88406130.854 8       360.655
G02  21190605.240   111357383.348 7      3593.419    21190603.800   111357383.355 6      3593.419    21190608.280    86772004.077 6      2800.067
G08  21240408.400   111619102.221 7      3825.891    21240407.560   111619102.218 6      3825.891    21240416.140    86975962.259 6      2981.214    21240416.740    86975956.266 8      2981.214
G27  21047240.080   110603998.228 8      2109.498    21047238.880   110603998.230 8      2109.498    21047247.420    86184974.499 8      1643.764    21047247.820    86184959.500 5      1643.764
G23  24408794.700   128269086.439 5       250.708    24408793.960   128269086.436 2       250.708    24408807.620    99949960.001 2       195.357    24408807.920    99949982.997 6       195.357
R15  20513241.840   109616544.008 7      5112.856    20513241.220   109616544.015 7      5112.856    20513251.260    85257351.727 8      3976.666    20513252.700    85257375.732 8      3976.666
R18  22966051.420   122594381.447 6      4912.898    22966049.980   122594381.445 6      4912.898    22966069.860    95351235.966 7      3821.143    22966071.100    95351291.975 7      3821.143
G16  21162267.960   111208454.058 7       757.372    21162266.400   111208454.069 6       757.372    21162273.300    86655955.692 6       590.160
R14  19590494.360   104428344.078 8       936.972    19590494.040   104428344.074 8       936.972    19590504.400    81222099.859 8       728.756    19590504.560    81222087.860 8       728.756
R17  20438263.360   109369278.224 7      2942.167    20438262.240   109369278.239 7      2942.167    20438274.740    85065040.456 8      2288.352    20438274.440    85065043.459 8      2288.352
G26  22991410.920   120820649.018 7      -375.503    22991409.600   120820649.018 7      -375.503    22991424.740    94146001.206 6      -292.599    22991424.600    94146039.212 7      -292.599
G01  22994231.860   120835538.691 7      5420.753    22994230.380   120835538.698 5      5420.753    22994243.000    94157623.561 5      4223.964    22994243.600    94157587.582 7      4223.964
G07  24001827.980   126130458.872 6      3544.637    24001827.280   126130458.872 5      3544.637    24001836.760    98283511.330 5      2762.054    24001835.760    98283504.344 7      2762.054
> 2025 04 04 14 01 42.0000000  0 14
G10  22339152.560   117393037.919 8      2314.717    22339151.700   117393037.931 7      2314.717    22339161.720    91475137.861 7      1803.676    22339161.800    91475134.859 8      1803.676
R24  21255836.480   113664501.016 7       463.719    21255835.480   113664501.020 7       463.719    21255848.460    88405776.224 8       360.670    21255848.380    88405770.221 8       360.670
G02  21189921.420   111353790.131 7      3593.049    21189919.980   111353790.138 6      3593.049    21189924.580    86769204.172 6      2799.779
G08  21239680.400   111615276.368 7      3825.856    21239679.440   111615276.365 6      3825.856    21239688.100    86972981.081 6      2981.187    21239688.880    86972975.089 8      2981.187
G27  21046838.800   110601888.810 8      2109.384    21046837.560   110601888.809 8      2109.384    21046846.100    86183330.793 8      1643.676    21046846.560    86183315.795 5      1643.676
G23  24408747.100   128268835.934 5       250.181    24408746.560   128268835.939 2       250.181    24408759.960    99949764.804 2       194.946    24408760.060    99949787.831 6       194.946
R15  20512285.180   109611431.410 7      5112.275    20512284.620   109611431.420 7      5112.275    20512294.500    85253375.266 8      3976.214    20512295.880    85253399.275 8      3976.214
R18  22965131.020   122589468.575 6      4912.789    22965129.820   122589468.565 6      4912.789    22965149.180    95347414.851 7      3821.058    22965150.800    95347470.850 7      3821.058
G16  21162123.520   111207696.787 7       757.187    21162122.380   111207696.794 6       757.187    21162129.160    86655365.606 6       590.016
R14  19590318.600   104427407.472 8       936.245    19590318.360   104427407.467 8       936.245    19590328.640    81221371.387 8       728.190    19590329.000    81221359.388 8       728.190
R17  20437713.080   109366336.213 7      2941.961    20437712.700   109366336.228 7      2941.961    20437724.860    85062752.234 8      2288.192    20437724.520    85062755.239 8      2288.192
G26  22991482.500   120821024.622 7      -375.619    22991481.120   120821024.624 7      -375.619    22991496.300    94146293.878 6      -292.690    22991496.320    94146331.880 7      -292.690
G01  22993200.260   120830118.108 7      5420.503    22993198.880   120830118.116 5      5420.503    22993211.420    94153399.741 5      4223.769    22993212.020    94153363.766 7      4223.769
G07  24001153.300   126126914.424 6      3544.258    24001152.760   126126914.424 5      3544.258    24001162.240    98280749.427 5      2761.759    24001161.300    98280742.443 7      2761.759
> 2025 04 04 14 01 43.0000000  0 14
G10  22338712.100   117390723.430 7      2314.242    22338711.240   117390723.443 7      2314.242    22338721.280    91473334.361 7      1803.305    22338721.260    91473331.360 8      1803.305
R24  21255749.980   113664037.368 7       463.615    21255748.520   113664037.372 7       463.615    21255761.960    88405415.613 8       360.589    21255761.840    88405409.606 8       360.589
G02  21189237.700   111350197.239 7      3592.747    21189236.140   111350197.247 6      3592.747    21189240.880    86766404.514 6      2799.543
G08  21238952.300   111611450.539 7      3825.761    21238951.340   111611450.534 6      3825.761    21238960.120    86969999.914 6      2981.112    21238960.800    86969993.921 8      2981.112
G27  21046437.400   110599779.462 8      2109.297    21046436.120   110599779.467 8      2109.297    21046444.740    86181687.149 8      1643.608    21046445.260    86181672.152 5      1643.608
G23  24408698.760   128268585.710 5       250.363    24408698.980   128268585.713 2       250.363    24408712.480    99949569.824 2       195.088    24408712.780    99949592.850 6       195.088
R15  20511328.420   109606319.424 7      5111.628    20511328.160   109606319.431 7      5111.628    20511337.780    85249399.275 8      3975.710    20511339.200    85249423.279 8      3975.710
R18  22964210.640   122584555.948 6      4912.510    22964209.740   122584555.933 6      4912.510    22964228.920    95343593.926 7      3820.841    22964230.400    95343649.935 7      3820.841
G16  21161979.600   111206939.896 7       756.759    21161978.360   111206939.906 6       756.759    21161985.140    86654775.825 6       589.682
R14  19590143.240   104426471.588 8       935.510    19590142.800   104426471.586 8       935.510    19590153.180    81220643.473 8       727.619    19590153.580    81220631.476 8       727.619
R17  20437163.240   109363394.401 8      2941.762    20437163.380   109363394.413 7      2941.762    20437175.240    85060464.162 8      2288.037    20437174.900    85060467.165 8      2288.037
G26  22991554.040   120821400.362 7      -375.680    22991552.620   120821400.369 6      -375.680    22991567.660    94146586.671 6      -292.738    22991567.800    94146624.671 7      -292.738
G01  22992168.880   120824697.736 7      5420.216    22992167.440   120824697.741 5      5420.216    22992179.900    94149176.087 5      4223.545    22992180.580    94149140.120 7      4223.545
G07  24000479.260   126123370.407 7      3543.817    24000478.240   126123370.409 5      3543.817    24000487.900    98277987.853 5      2761.415    24000486.780    98277980.873 7      2761.415
> 2025 04 04 14 01 44.0000000  0 14
G10  22338271.700   117388409.473 7      2313.651    22338271.180   117388409.483 7      2313.651    22338280.960    91471531.279 7      1802.845    22338281.100    91471528.282 8      1802.845
R24  21255662.940   113663573.709 7       463.697    21255662.080   113663573.719 7       463.697    21255675.120    88405054.990 8       360.653    21255674.940    88405048.988 8       360.653
G02  21188553.880   111346604.718 8      3592.319    21188552.680   111346604.726 6      3592.319    21188557.400    86763605.155 6      2799.210
G08  21238224.080   111607624.753 7      3825.791    21238223.280   111607624.747 6      3825.791    21238232.120    86967018.788 6      2981.136    21238232.980    86967012.801 8      2981.136
G27  21046036.140   110597670.217 7      2109.272    21046034.600   110597670.216 8      2109.272    21046043.320    86180043.582 8      1643.588    21046043.560    86180028.584 6      1643.588
G23  24408651.220   128268335.920 5       249.553    24408651.160   128268335.928 2       249.553    24408665.100    99949375.185 2       194.457    24408665.640    99949398.206 6       194.457
R15  20510371.420   109601208.026 7      5111.102    20510371.820   109601208.043 7      5111.102    20510381.320    85245423.755 8      3975.301    20510382.780    85245447.762 8      3975.301
R18  22963290.200   122579643.589 6      4912.171    22963289.280   122579643.568 6      4912.171    22963308.540    95339773.233 7      3820.578    22963310.280    95339829.240 7      3820.578
G16  21161835.540   111206183.373 7       756.508    21161834.280   111206183.381 6       756.508    21161841.280    86654186.329 6       589.487
R14  19589967.820   104425536.434 8       934.828    19589967.460   104425536.429 8       934.828    19589977.760    81219916.131 8       727.089    19589978.140    81219904.132 8       727.089
R17  20436613.640   109360452.848 8      2941.470    20436613.780   109360452.865 7      2941.470    20436625.500    85058176.295 8      2287.810    20436625.300    85058179.298 8      2287.810
G26  22991625.300   120821776.336 7      -376.102    22991624.220   120821776.343 6      -376.102    22991638.960    94146879.619 6      -293.067    22991639.340    94146917.621 7      -293.067
G01  22991137.020   120819277.609 6      5419.936    22991136.180   120819277.614 5      5419.936    22991148.580    94144952.630 5      4223.327    22991149.260    94144916.655 7      4223.327
G07  23999804.680   126119826.816 6      3543.368    23999803.860   126119826.821 5      3543.368    23999813.680    98275226.619 5      2761.066    23999812.140    98275219.642 7      2761.066
> 2025 04 04 14 01 45.0000000  0 14
G10  22337831.680   117386096.035 7      2313.379    22337830.880   117386096.043 7      2313.379    22337840.900    91469728.605 7      1802.633    22337840.600    91469725.610 8      1802.633
R24  21255576.180   113663110.037 7       463.835    21255575.500   113663110.049 7       463.835    21255588.340    88404694.358 8       360.760    21255588.100    88404688.359 8       360.760
G02  21187870.420   111343012.581 7      3592.065    21187869.180   111343012.583 6      3592.065    21187873.880    86760806.085 6      2799.012
G08  21237496.220   111603799.058 7      3825.746    21237495.340   111603799.055 6      3825.746    21237503.960    86964037.733 6      2981.101    21237504.540    86964031.742 8      2981.101
G27  21045634.660   110595561.085 8      2109.252    21045633.380   110595561.092 8      2109.252    21045641.920    86178400.110 8      1643.573    21045642.300    86178385.111 6      1643.573
G23  24408604.360   128268086.472 5       249.311    24408603.860   128268086.482 2       249.311    24408617.480    99949180.811 2       194.268    24408618.560    99949203.830 6       194.268
R15  20509415.020   109596097.304 7      5110.596    20509415.400   109596097.321 7      5110.596    20509425.060    85241448.755 8      3974.908    20509426.300    85241472.762 8      3974.908
R18  22962370.320   122574731.491 6      4912.083    22962369.640   122574731.470 6      4912.083    22962388.260    95335952.725 7      3820.509    22962389.940    95336008.727 7      3820.509
G16  21161691.740   111205427.287 7       756.045    21161690.380   111205427.294 6       756.045    21161697.260    86653597.170 6       589.126
R14  19589792.600   104424602.037 8       934.218    19589792.140   104424602.032 8       934.218    19589802.500    81219189.376 8       726.614    19589802.980    81219177.377 8       726.614
R17  20436064.200   109357511.613 8      2941.314    20436063.820   109357511.628 7      2941.314    20436075.640    85055888.662 8      2287.689    20436075.660    85055891.667 8      2287.689
G26  22991697.040   120822152.460 7      -376.031    22991695.940   120822152.465 6      -376.031    22991710.480    94147172.690 6      -293.011    22991710.680    94147210.686 7      -293.011
G01  22990105.980   120813857.733 7      5419.884    22990104.780   120813857.735 5      5419.884    22990117.240    94140729.354 5      4223.286    22990118.140    94140693.373 7      4223.286
G07  23999130.280   126116283.716 7      3542.997    23999129.460   126116283.718 5      3542.997    23999139.460    98272465.758 5      2760.777    23999137.920    98272458.770 7      2760.777
> 2025 04 04 14 01 46.0000000  0 14
G10  22337391.780   117383783.136 8      2312.711    22337390.880   117383783.144 7      2312.711    22337400.620    91467926.340 7      1802.112    22337400.520    91467923.345 8      1802.112
R24  21255489.580   113662646.309 7       463.745    21255488.920   113662646.319 7       463.745    21255501.480    88404333.674 8       360.691    21255501.560    88404327.675 8       360.691
G02  21187186.940   111339420.772 7      3591.709    21187185.660   111339420.780 6      3591.709    21187190.500    86758007.281 6      2798.734
G08  21236768.300   111599973.405 7      3825.637    21236767.540   111599973.400 6      3825.637    21236775.960    86961056.705 6      2981.016    21236776.500    86961050.714 8      2981.016
G27  21045233.260   110593452.063 7      2109.049    21045232.080   110593452.068 8      2109.049    21045240.620    86176756.715 8      1643.415    21045240.980    86176741.715 6      1643.415
G23  24408556.780   128267837.322 5       248.998    24408556.140   128267837.333 2       248.998    24408570.240    99948986.671 2       194.024    24408571.280    99949009.682 6       194.024
R15  20508458.780   109590987.223 7      5109.778    20508459.180   109590987.237 7      5109.778    20508468.440    85237474.254 8      3974.272    20508469.860    85237498.263 8      3974.272
R18  22961450.280   122569819.609 7      4911.742    22961449.520   122569819.604 6      4911.742    22961467.920    95332132.391 7      3820.243    22961469.740    95332188.404 7      3820.243
G16  21161548.060   111204671.555 7       755.554    21161546.680   111204671.562 6       755.554    21161553.640    86653008.286 6       588.743
R14  19589617.460   104423668.365 8       933.384    19589616.840   104423668.357 8       933.384    19589627.420    81218463.178 8       725.965    19589627.840    81218451.179 8       725.965
R17  20435514.520   109354570.681 7      2940.823    20435514.480   109354570.696 7      2940.823    20435526.220    85053601.276 8      2287.307    20435525.940    85053604.282 8      2287.307
G26  22991768.800   120822528.786 7      -376.374    22991767.520   120822528.791 6      -376.374    22991782.240    94147465.931 6      -293.279    22991782.120    94147503.928 7      -293.279
G01  22989074.460   120808438.115 7      5419.495    22989073.520   120808438.120 5      5419.495    22989085.860    94136506.287 5      4222.983    22989086.400    94136470.304 7      4222.983
G07  23998456.380   126112741.036 6      3542.546    23998455.180   126112741.039 5      3542.546    23998465.060    98269705.226 5      2760.426    23998463.820    98269698.239 7      2760.426
> 2025 04 04 14 01 47.0000000  0 14
G10  22336951.660   117381471.015 7      2311.766    22336950.860   117381471.023 7      2311.766    22336960.820    91466124.695 7      1801.376    22336960.600    91466121.696 8      1801.376
R24  21255402.820   113662182.816 7       463.338    21255402.560   113662182.820 7       463.338    21255415.000    88403973.176 8       360.374    21255414.880    88403967.174 8       360.374
G02  21186503.660   111335829.612 7      3590.877    21186502.200   111335829.620 6      3590.877    21186507.180    86755208.977 6      2798.086
G08  21236040.220   111596148.060 7      3825.229    21236039.540   111596148.049 6      3825.229    21236047.960    86958075.920 6      2980.698    21236048.640    86958069.930 8      2980.698
G27  21044832.040   110591343.396 8      2108.523    21044830.640   110591343.403 8      2108.523    21044839.280    86175113.601 8      1643.005    21044839.820    86175098.604 6      1643.005
G23  24408509.560   128267588.796 5       247.994    24408508.800   128267588.806 2       247.994    24408522.780    99948793.020 2       193.242    24408524.020    99948816.042 6       193.242
R15  20507502.400   109585878.037 7      5108.767    20507503.380   109585878.054 7      5108.767    20507512.700    85233500.451 8      3973.486    20507513.760    85233524.460 8      3973.486
R18  22960530.280   122564908.207 6      4911.074    22960529.260   122564908.195 6      4911.074    22960547.560    95328312.433 7      3819.724    22960549.620    95328368.444 7      3819.724
G16  21161404.400   111203916.475 7       754.707    21161403.040   111203916.477 6       754.707    21161409.920    86652419.912 6       588.083
R14  19589442.440   104422735.682 8       932.206    19589441.800   104422735.677 8       932.206    19589452.300    81217737.762 8       725.049    19589452.540    81217725.765 8       725.049
R17  20434964.880   109351630.292 7      2940.110    20434965.200   109351630.304 7      2940.110    20434976.620    85051314.309 8      2286.753    20434976.580    85051317.310 8      2286.753
G26  22991840.520   120822905.546 7      -376.891    22991839.200   120822905.546 6      -376.891    22991853.840    94147759.496 6      -293.681    22991853.840    94147797.486 7      -293.681
G01  22988043.580   120803018.976 7      5418.898    22988042.240   120803018.983 5      5418.898    22988054.540    94132283.587 5      4222.518    22988054.780    94132247.606 7      4222.518
G07  23997782.560   126109199.066 6      3541.555    23997781.260   126109199.063 5      3541.555    23997791.020    98266945.250 5      2759.653    23997789.620    98266938.268 7      2759.653
> 2025 04 04 14 01 48.0000000  0 14
G10  22336511.720   117379159.449 8      2311.300    22336510.780   117379159.454 7      2311.300    22336520.880    91464323.479 7      1801.013    22336520.840    91464320.480 8      1801.013
R24  21255316.020   113661719.337 7       463.483    21255315.800   113661719.341 7       463.483    21255328.420    88403612.692 8       360.487    21255328.060    88403606.686 8       360.487
G02  21185820.400   111332238.841 7      3590.566    21185818.980   111332238.852 6      3590.566    21185823.680    86752410.980 6      2797.843
G08  21235312.480   111592322.817 7      3825.133    21235311.440   111592322.809 6      3825.133    21235320.020    86955095.216 6      2980.623    21235320.780    86955089.227 8      2980.623
G27  21044430.780   110589234.876 8      2108.401    21044429.500   110589234.883 8      2108.401    21044438.100    86173470.601 8      1642.910    21044438.580    86173455.602 6      1642.910
G23  24408462.540   128267340.596 5       248.174    24408461.400   128267340.611 2       248.174    24408475.520    99948599.623 2       193.383    24408475.860    99948622.661 6       193.383
R15  20506546.120   109580769.535 8      5108.215    20506547.380   109580769.549 7      5108.215    20506556.600    85229527.171 8      3973.056    20506557.860    85229551.176 8      3973.056
R18  22959610.000   122559997.131 6      4910.854    22959610.600   122559997.121 6      4910.854    22959627.880    95324492.721 7      3819.553    22959629.560    95324548.733 7      3819.553
G16  21161261.000   111203161.783 7       754.490    21161259.540   111203161.793 6       754.490    21161266.300    86651831.841 6       587.914
R14  19589267.900   104421803.758 8       931.536    19589266.660   104421803.753 8       931.536    19589277.540    81217012.937 8       724.528    19589277.920    81217000.940 8       724.528
R17  20434415.560   109348690.165 7      2940.017    20434415.460   109348690.174 7      2940.017    20434427.420    85049027.542 8      2286.680    20434427.280    85049030.547 8      2286.680
G26  22991911.940   120823282.529 7      -376.996    22991910.900   120823282.523 6      -376.996    22991925.660    94148053.235 6      -293.763    22991925.760    94148091.235 7      -293.763
G01  22987012.260   120797600.130 7      5418.647    22987011.080   120797600.140 5      5418.647    22987023.400    94128061.125 5      4222.322    22987023.920    94128025.146 7      4222.322
G07  23997108.680   126105657.567 7      3541.239    23997107.300   126105657.566 5      3541.239    23997116.980    98264185.639 5      2759.407    23997115.960    98264178.650 7      2759.407
> 2025 04 04 14 01 49.0000000  0 14
G10  22336071.760   117376848.213 7      2311.232    22336070.860   117376848.221 7      2311.232    22336081.000    91462522.520 7      1800.960    22336081.100    91462519.525 7      1800.960
R24  21255229.720   113661255.684 7       463.901    21255229.200   113661255.696 7       463.901    21255241.720    88403252.072 8       360.812    21255241.520    88403246.069 8       360.812
G02  21185137.080   111328648.231 7      3590.749    21185135.720   111328648.243 6      3590.749    21185140.380    86749613.108 6      2797.986
G08  21234584.540   111588497.417 7      3825.615    21234583.640   111588497.411 6      3825.615    21234592.080    86952114.390 6      2980.999    21234592.820    86952108.404 8      2980.999
G27  21044029.560   110587126.248 8      2108.834    21044028.300   110587126.253 8      2108.834    21044036.860    86171827.514 8      1643.248    21044037.100    86171812.519 6      1643.248
G23  24408415.400   128267092.637 5       247.914    24408413.920   128267092.657 2       247.914    24408428.460    99948406.411 2       193.180    24408428.920    99948429.432 6       193.180
R15  20505590.180   109575661.452 7      5108.032    20505591.760   109575661.469 7      5108.032    20505600.560    85225554.229 8      3972.914    20505602.000    85225578.238 8      3972.914
R18  22958690.340   122555086.122 6      4911.003    22958689.920   122555086.112 6      4911.003    22958707.960    95320673.075 7      3819.669    22958709.660    95320729.077 7      3819.669
G16  21161117.280   111202407.310 7       754.579    21161116.060   111202407.315 6       754.579    21161122.840    86651243.936 6       587.984
R14  19589093.140   104420872.367 8       931.233    19589092.180   104420872.363 8       931.233    19589102.780    81216288.522 8       724.293    19589103.100    81216276.523 8       724.293
R17  20433866.020   109345750.105 7      2940.199    20433865.760   109345750.111 7      2940.199    20433877.880    85046740.835 8      2286.822    20433877.700    85046743.838 8      2286.822
G26  22991984.080   120823659.504 7      -376.795    22991982.680   120823659.504 6      -376.795    22991997.360    94148346.978 6      -293.607    22991997.560    94148384.982 7      -293.607
G01  22985981.320   120792181.306 7      5418.919    22985979.700   120792181.316 5      5418.919    22985992.300    94123838.668 5      4222.534    22985992.800    94123802.699 7      4222.534
G07  23996435.160   126102116.306 6      3541.282    23996433.380   126102116.306 5      3541.282    23996443.060    98261426.213 5      2759.441    23996442.180    98261419.226 7      2759.441
> 2025 04 04 14 01 50.0000000  0 14
G10  22335632.100   117374537.532 8      2310.456    22335631.080   117374537.542 7      2310.456    22335641.320    91460721.991 7      1800.355    22335641.240    91460718.992 8      1800.355
R24  21255142.700   113660792.057 7       463.738    21255142.240   113660792.069 7       463.738    21255155.100    88402891.478 8       360.685    21255154.780    88402885.475 8       360.685
G02  21184454.160   111325058.030 7      3590.121    21184452.460   111325058.037 6      3590.121    21184457.240    86746815.548 6      2797.497
G08  21233856.700   111584672.103 7      3825.473    21233855.660   111584672.095 6      3825.473    21233864.320    86949133.631 6      2980.888    21233865.000    86949127.638 8      2980.888
G27  21043628.280   110585017.752 8      2108.596    21043627.140   110585017.757 8      2108.596    21043635.640    86170184.532 8      1643.062    21043635.880    86170169.535 6      1643.062
G23  24408368.580   128266844.993 5       247.714    24408366.740   128266845.014 2       247.714    24408381.180    99948213.446 2       193.024    24408381.280    99948236.443 6       193.024
R15  20504634.440   109570554.024 8      5107.254    20504635.840   109570554.039 7      5107.254    20504645.020    85221581.789 8      3972.308    20504646.140    85221605.796 8      3972.308
R18  22957770.700   122550175.340 7      4910.831    22957769.600   122550175.335 6      4910.831    22957787.740    95316853.600 7      3819.535    22957789.620    95316909.611 7      3819.535
G16  21160973.800   111201653.233 7       754.029    21160972.480   111201653.241 6       754.029    21160979.180    86650656.345 6       587.555
R14  19588918.480   104419941.728 8       930.416    19588917.600   104419941.724 8       930.416    19588928.160    81215564.687 8       723.657    19588928.560    81215552.690 8       723.657
R17  20433316.680   109342810.328 7      2939.789    20433316.160   109342810.338 7      2939.789    20433328.600    85044454.350 8      2286.502    20433328.380    85044457.351 8      2286.502
G26  22992055.860   120824036.671 7      -377.078    22992054.440   120824036.674 6      -377.078    22992069.060    94148640.872 6      -293.827    22992069.000    94148678.868 7      -293.827
G01  22984950.040   120786762.768 7      5418.574    22984948.640   120786762.775 5      5418.574    22984961.300    94119616.439 5      4222.266    22984961.600    94119580.464 7      4222.266
G07  23995760.880   126098575.489 6      3540.704    23995759.580   126098575.489 5      3540.704    23995769.280    98258667.144 5      2758.990    23995768.520    98258660.177 7      2758.990
> 2025 04 04 14 01 51.0000000  0 14
G10  22335192.480   117372227.369 7      2309.907    22335191.440   117372227.373 7      2309.907    22335201.840    91458921.868 7      1799.928    22335201.760    91458918.873 8      1799.928
R24  21255056.000   113660328.393 7       463.747    21255055.440   113660328.403 7       463.747    21255068.560    88402530.848 8       360.692    21255068.020    88402524.847 8       360.692
G02  21183770.760   111321468.168 7      3589.649    21183769.420   111321468.176 6      3589.649    21183774.020    86744018.256 6      2797.129
G08  21233128.580   111580846.866 7      3825.212    21233127.800   111580846.855 6      3825.212    21233136.420    86946152.926 6      2980.685    21233137.140    86946146.938 8      2980.685
G27  21043227.240   110582909.361 7      2108.354    21043225.940   110582909.366 8      2108.354    21043234.340    86168541.632 8      1642.874    21043234.640    86168526.637 6      1642.874
G23  24408321.420   128266597.723 5       246.989    24408319.840   128266597.735 2       246.989    24408333.900    99948020.763 2       192.459    24408333.640    99948043.777 6       192.459
R15  20503678.860   109565447.200 7      5106.516    20503680.320   109565447.215 7      5106.516    20503689.320    85217609.815 8      3971.734    20503690.680    85217633.822 8      3971.734
R18  22956850.580   122545264.827 7      4910.383    22956850.040   122545264.799 6      4910.383    22956867.320    95313034.325 7      3819.186    22956869.520    95313090.326 7      3819.186
G16  21160830.460   111200899.538 7       753.622    21160829.080   111200899.548 6       753.622    21160835.700    86650069.050 6       587.238
R14  19588744.220   104419011.862 8       929.433    19588743.380   104419011.863 8       929.433    19588753.620    81214841.462 8       722.892    19588754.320    81214829.463 8       722.892
R17  20432767.320   109339870.838 7      2939.378    20432767.120   109339870.850 7      2939.378    20432779.200    85042168.082 8      2286.183    20432778.960    85042171.087 8      2286.183
G26  22992127.700   120824414.027 7      -377.367    22992126.340   120824414.032 6      -377.367    22992140.900    94148934.899 6      -294.052    22992140.700    94148972.904 7      -294.052
G01  22983919.000   120781344.479 7      5418.077    22983917.420   120781344.487 5      5418.077    22983930.100    94115394.410 5      4221.878    22983930.420    94115358.435 7      4221.878
G07  23995086.680   126095035.172 6      3540.114    23995085.860   126095035.169 5      3540.114    23995095.820    98255908.453 5      2758.531    23995094.820    98255901.467 7      2758.531
> 2025 04 04 14 01 52.0000000  0 14
G10  22334753.060   117369917.704 7      2309.299    22334752.140   117369917.709 7      2309.299    22334762.280    91457122.132 7      1799.454    22334762.260    91457119.135 8      1799.454
R24  21254968.980   113659864.676 7       463.682    21254969.000   113659864.682 7       463.682    21254981.740    88402170.177 8       360.641    21254981.280    88402164.172 8       360.641
G02  21183087.840   111317878.650 8      3589.228    21183086.260   111317878.658 6      3589.228    21183090.860    86741221.237 6      2796.801
G08  21232400.620   111577021.631 7      3825.091    21232399.860   111577021.622 6      3825.091    21232408.480    86943172.230 6      2980.590    21232409.460    86943166.243 8      2980.590
G27  21042825.900   110580801.043 7      2108.198    21042824.740   110580801.048 8      2108.198    21042833.120    86166898.789 8      1642.751    21042833.460    86166883.792 6      1642.751
G23  24408274.200   128266350.712 5       246.833    24408272.720   128266350.725 2       246.833    24408286.900    99947828.292 2       192.337    24408287.320    99947851.313 6       192.337
R15  20502723.520   109560340.975 8      5105.870    20502725.140   109560340.984 7      5105.870    20502733.800    85213638.306 8      3971.232    20502734.780    85213662.313 8      3971.232
R18  22955930.300   122540354.477 7      4910.133    22955930.800   122540354.476 7      4910.133    22955947.560    95309215.197 7      3818.992    22955949.800    95309271.202 7      3818.992
G16  21160686.940   111200146.218 7       753.084    21160685.780   111200146.225 6       753.084    21160692.520    86649482.044 6       586.819
R14  19588569.880   104418082.695 8       928.738    19588568.960   104418082.698 8       928.738    19588579.340    81214118.776 8       722.352    19588580.060    81214106.779 8       722.352
R17  20432218.340   109336931.565 7      2939.043    20432217.440   109336931.582 7      2939.043    20432229.900    85039881.993 8      2285.922    20432229.280    85039884.994 8      2285.922
G26  22992199.300   120824791.539 7      -377.614    22992198.140   120824791.538 6      -377.614    22992212.620    94149229.054 6      -294.245    22992213.000    94149267.046 7      -294.245
G01  22982887.660   120775926.372 7      5417.922    22982886.480   120775926.382 5      5417.922    22982899.160    94111172.521 5      4221.757    22982899.900    94111136.546 7      4221.757
G07  23994412.640   126091495.199 6      3539.711    23994412.280   126091495.198 5      3539.711    23994421.940    98253150.044 5      2758.217    23994420.960    98253143.071 7      2758.217
> 2025 04 04 14 01 53.0000000  0 14
G10  22334313.460   117367608.710 7      2308.799    22334312.660   117367608.712 7      2308.799    22334322.700    91455322.915 7      1799.064    22334323.180    91455319.914 8      1799.064
R24  21254882.620   113659401.095 7       463.615    21254882.280   113659401.101 7       463.615    21254895.180    88401809.608 8       360.589    21254894.760    88401803.607 8       360.589
G02  21182404.800   111314289.632 7      3588.876    21182403.220   111314289.639 6      3588.876    21182407.920    86738424.601 6      2796.527
G08  21231672.880   111573196.601 7      3825.053    21231671.900   111573196.590 6      3825.053    21231680.500    86940191.687 6      2980.561    21231681.380    86940185.700 8      2980.561
G27  21042424.680   110578692.973 7      2108.044    21042423.560   110578692.977 8      2108.044    21042432.020    86165256.137 8      1642.632    21042432.340    86165241.142 6      1642.632
G23  24408227.580   128266104.241 5       246.309    24408226.060   128266104.253 2       246.309    24408240.080    99947636.236 2       191.929    24408240.220    99947659.247 6       191.929
R15  20501767.960   109555235.521 8      5105.252    20501769.760   109555235.533 7      5105.252    20501778.420    85209667.402 8      3970.751    20501779.580    85209691.411 8      3970.751
R18  22955010.740   122535444.557 7      4909.828    22955011.060   122535444.558 7      4909.828    22955027.960    95305396.393 7      3818.755    22955030.060    95305452.398 7      3818.755
G16  21160543.900   111199393.421 7       752.657    21160542.420   111199393.426 6       752.657    21160549.140    86648895.449 6       586.486
R14  19588395.400   104417154.430 8       928.008    19588394.760   104417154.431 8       928.008    19588405.280    81213396.791 8       721.784    19588405.740    81213384.792 8       721.784
R17  20431669.060   109333992.719 7      2938.753    20431668.320   109333992.734 7      2938.753    20431680.740    85037596.224 8      2285.697    20431680.640    85037599.230 8      2285.697
G26  22992271.160   120825169.378 7      -377.871    22992269.860   120825169.381 6      -377.871    22992284.620    94149523.464 6      -294.445    22992284.860    94149561.456 7      -294.445
G01  22981857.060   120770508.678 7      5417.706    22981855.480   120770508.688 5      5417.706    22981868.200    94106950.949 5      4221.589    22981868.760    94106914.970 7      4221.589
G07  23993739.560   126087955.867 6      3539.186    23993738.660   126087955.866 5      3539.186    23993748.240    98250392.121 5      2757.807    23993747.280    98250385.142 7      2757.807
> 2025 04 04 14 01 54.0000000  0 14
G10  22333874.280   117365300.226 7      2308.271    22333873.340   117365300.228 7      2308.271    22333883.400    91453524.100 7      1798.653    22333883.400    91453521.105 8      1798.653
R24  21254796.120   113658937.487 7       463.715    21254795.680   113658937.493 7       463.715    21254808.420    88401449.026 8       360.667    21254808.360    88401443.021 8       360.667
G02  21181721.840   111310700.968 7      3588.512    21181720.360   111310700.978 6      3588.512    21181725.140    86735628.244 6      2796.243
G08  21230945.060   111569371.613 7      3825.081    21230944.200   111569371.599 6      3825.081    21230952.580    86937211.181 6      2980.582    21230953.280    86937205.192 8      2980.582
G27  21042023.640   110576584.983 7      2108.018    21042022.480   110576584.988 8      2108.018    21042031.000    86163613.550 8      1642.612    21042031.060    86163598.557 6      1642.612
G23  24408179.880   128265858.116 5       245.895    24408179.380   128265858.129 2       245.895    24408193.300    99947444.453 2       191.606    24408193.660    99947467.449 6       191.606
R15  20500812.780   109550130.725 8      5104.518    20500814.700   109550130.742 7      5104.518    20500823.160    85205697.013 8      3970.180    20500824.240    85205721.018 8      3970.180
R18  22954090.960   122530534.899 7      4909.621    22954091.660   122530534.899 7      4909.621    22954107.980    95301577.784 7      3818.594    22954109.940    95301633.787 7      3818.594
G16  21160400.300   111198640.992 7       752.318    21160399.260   111198640.999 6       752.318    21160405.980    86648309.136 6       586.222
R14  19588221.400   104416226.894 8       927.295    19588220.920   104416226.894 8       927.295    19588231.380    81212675.372 8       721.230    19588231.700    81212663.374 8       721.230
R17  20431119.920   109331054.155 7      2938.441    20431119.200   109331054.164 7      2938.441    20431131.540    85035310.674 8      2285.454    20431131.380    85035313.679 8      2285.454
G26  22992343.020   120825547.399 7      -378.114    22992341.880   120825547.402 6      -378.114    22992356.580    94149818.020 6      -294.634    22992357.000    94149856.012 7      -294.634
G01  22980825.840   120765091.233 7      5417.284    22980824.540   120765091.240 5      5417.284    22980837.100    94102729.574 5      4221.260    22980837.780    94102693.590 7      4221.260
G07  23993066.000   126084416.944 6      3538.821    23993065.240   126084416.944 5      3538.821    23993074.800    98247634.520 5      2757.523    23993074.240    98247627.542 7      2757.523
> 2025 04 04 14 01 55.0000000  0 14
G10  22333435.060   117362992.306 7      2307.612    22333434.160   117362992.316 7      2307.612    22333444.300    91451725.724 7      1798.139    22333444.180    91451722.726 8      1798.139
R24  21254709.400   113658473.938 7       463.474    21254709.000   113658473.953 7       463.474    21254721.660    88401088.486 8       360.480    21254721.600    88401082.483 8       360.480
G02  21181039.020   111307112.712 7      3587.951    21181037.420   111307112.724 6      3587.951    21181042.500    86732832.206 6      2795.806
G08  21230217.020   111565546.735 7      3824.810    21230216.200   111565546.722 6      3824.810    21230224.780    86934230.761 6      2980.372    21230225.340    86934224.770 8      2980.372
G27  21041622.660   110574477.162 7      2107.695    21041621.380   110574477.165 8      2107.695    21041629.820    86161971.092 8      1642.360    21041629.860    86161956.097 6      1642.360
G23  24408133.760   128265612.314 5       245.695    24408132.680   128265612.322 2       245.695    24408146.340    99947252.915 2       191.451    24408147.080    99947275.930 6       191.451
R15  20499857.640   109545026.610 8      5103.722    20499859.340   109545026.627 7      5103.722    20499868.180    85201727.152 8      3969.562    20499869.080    85201751.157 8      3969.562
R18  22953171.380   122525625.542 7      4909.033    22953171.720   122525625.524 7      4909.033    22953188.400    95297759.400 7      3818.137    22953190.380    95297815.398 7      3818.137
G16  21160257.500   111197889.009 7       751.694    21160256.120   111197889.014 6       751.694    21160263.040    86647723.180 6       585.735
R14  19588047.540   104415300.120 8       926.278    19588046.820   104415300.125 8       926.278    19588057.520    81211954.551 8       720.438    19588057.980    81211942.554 8       720.438
R17  20430570.700   109328115.879 7      2938.068    20430570.140   109328115.891 7      2938.068    20430582.540    85033025.355 8      2285.164    20430582.460    85033028.356 8      2285.164
G26  22992415.060   120825925.644 7      -378.473    22992413.980   120825925.646 6      -378.473    22992428.620    94150112.749 6      -294.914    22992428.560    94150150.740 7      -294.914
G01  22979795.180   120759674.040 7      5417.022    22979793.600   120759674.045 5      5417.022    22979806.180    94098508.391 5      4221.056    22979806.740    94098472.405 7      4221.056
G07  23992393.180   126080878.514 6      3538.168    23992391.880   126080878.516 5      3538.168    23992401.400    98244877.305 5      2757.014    23992400.680    98244870.334 7      2757.014
> 2025 04 04 14 01 56.0000000  0 14
G10  22332996.080   117360685.022 7      2307.059    22332995.220   117360685.032 7      2307.059    22333005.320    91449927.846 7      1797.709    22333005.160    91449924.851 8      1797.709
R24  21254622.920   113658010.461 7       463.469    21254622.440   113658010.470 7       463.469    21254635.280    88400728.004 8       360.476    21254635.040    88400722.001 8       360.476
G02  21180356.320   111303524.936 7      3587.545    21180354.700   111303524.946 6      3587.545    21180359.640    86730036.537 6      2795.490
G08  21229489.120   111561722.026 7      3824.578    21229488.400   111561722.015 6      3824.578    21229496.880    86931250.474 6      2980.191    21229497.700    86931244.490 8      2980.191
G27  21041221.720   110572369.552 7      2107.452    21041220.260   110572369.557 8      2107.452    21041228.740    86160328.800 8      1642.170    21041228.800    86160313.805 6      1642.170
G23  24408087.280   128265367.012 5       245.144    24408085.860   128265367.022 2       245.144    24408099.660    99947061.772 2       191.021    24408099.660    99947084.812 6       191.021
R15  20498902.780   109539923.222 8      5103.027    20498904.340   109539923.234 7      5103.027    20498913.180    85197757.853 8      3969.021    20498914.140    85197781.857 8      3969.021
R18  22952251.320   122520716.470 7      4908.911    22952252.140   122520716.463 6      4908.911    22952268.680    95293941.258 7      3818.042    22952270.420    95293997.261 7      3818.042
G16  21160114.300   111197137.518 8       751.215    21160113.320   111197137.523 6       751.215    21160120.000    86647137.598 6       585.363
