     3.05           OBSERVATION DATA    MIXED               RINEX VERSION / TYPE
TPS2RIN 1.0.28.3459 TPS-USER            20250407 105714 UTC PGM / RUN BY / DATE
Win64 build Jun 01, 2022 (c) Topcon Positioning Systems     COMMENT
SRC: 20250404_grav_20250404_183637.tps                      COMMENT
Observer            Agency                                  OBSERVER / AGENCY
O0M3X53SBGM         TPS HIPER_SR        4.8 HSR Jul,08,2022 REC # / TYPE / VERS
FW: 4.8 HSR Jul,08,2022 p3                                  COMMENT
SN: HiPer SR 1212-12575                                     COMMENT
000                 TPSHIPER_SR     NONE                    ANT # / TYPE
        1.8000        0.0000        0.0000                  ANTENNA: DELTA H/E/N
DELTA H stands for **SLANT** height here!                   COMMENT
ORO07b                                                      MARKER NAME
  5382553.0844 -1597598.0834  3016266.6681                  APPROX POSITION XYZ
  2025     4     4    16    37   11.0000000     GPS         TIME OF FIRST OBS
  2025     4     4    16    52   41.0000000     GPS         TIME OF LAST OBS
     1.000                                                  INTERVAL
   931 EPOCHS                                               COMMENT
G   12 C1C L1C D1C C1W L1W D1W C2W L2W D2W C2X L2X D2X      SYS / # / OBS TYPES
R   12 C1C L1C D1C C1P L1P D1P C2P L2P D2P C2C L2C D2C      SYS / # / OBS TYPES
    18                                                      # OF SATELLITES
   G01   931   931   931   931   931   931   931   931   931PRN / # OF OBS
         931   931   931                                    PRN / # OF OBS
   G02   931   931   931   931   931   931   931   931   931PRN / # OF OBS
           0     0     0                                    PRN / # OF OBS
   G03   931   931   931   931   931   931   931   931   931PRN / # OF OBS
         931   931   931                                    PRN / # OF OBS
   G04   350   350   350   345   345   345   345   345   345PRN / # OF OBS
         342   342   342                                    PRN / # OF OBS
   G08   931   931   931   931   931   931   931   931   931PRN / # OF OBS
         931   931   931                                    PRN / # OF OBS
   G14   931   931   931   931   931   931   931   931   931PRN / # OF OBS
         931   931   931                                    PRN / # OF OBS
   G17   931   931   931   931   931   931   931   931   931PRN / # OF OBS
         931   931   931                                    PRN / # OF OBS
   G22   931   931   931   931   931   931   931   931   931PRN / # OF OBS
           0     0     0                                    PRN / # OF OBS
   G27   931   931   931   931   931   931   931   931   931PRN / # OF OBS
         931   931   931                                    PRN / # OF OBS
   G32   931   931   931   931   931   931   931   931   931PRN / # OF OBS
         931   931   931                                    PRN / # OF OBS
   R02   931   931   931   931   931   931   931   931   931PRN / # OF OBS
         931   931   931                                    PRN / # OF OBS
   R03   931   931   931   931   931   931   931   931   931PRN / # OF OBS
         931   931   931                                    PRN / # OF OBS
   R04   931   931   931   931   931   931   931   931   931PRN / # OF OBS
         931   931   931                                    PRN / # OF OBS
   R09   931   931   931   931   931   931   931   931   931PRN / # OF OBS
         931   931   931                                    PRN / # OF OBS
   R15   931   931   931   931   931   931   931   931   931PRN / # OF OBS
         931   931   931                                    PRN / # OF OBS
   R16   931   931   931   931   931   931   931   931   931PRN / # OF OBS
         931   931   931                                    PRN / # OF OBS
   R17   931   931   931   931   931   931   931   931   931PRN / # OF OBS
         931   931   931                                    PRN / # OF OBS
   R18   931   931   931   931   931   931   931   931   931PRN / # OF OBS
         931   931   931                                    PRN / # OF OBS
G L1C                                                       SYS / PHASE SHIFT
G L1W -0.25000                                              SYS / PHASE SHIFT
G L2W  0.00000                                              SYS / PHASE SHIFT
G L2X  0.25000                                              SYS / PHASE SHIFT
R L1C                                                       SYS / PHASE SHIFT
R L1P -0.25000                                              SYS / PHASE SHIFT
R L2P -0.25000                                              SYS / PHASE SHIFT
R L2C                                                       SYS / PHASE SHIFT
  8 R02 -4 R03  5 R04  6 R09 -2 R15  0 R16 -1 R17  4 R18 -3 GLONASS SLOT / FRQ #
                                                            GLONASS COD/PHS/BIS
    18                  GPS                                 LEAP SECONDS
                                                            END OF HEADER
> 2025 04 04 16 37 11.0000000  0 17
G02  21964781.820   115425695.353 7      1673.901    21964780.240   115425695.360 6      1673.901    21964784.440    89942113.423 6      1304.339
G03  20293629.880   106643739.275 8      4259.460    20293628.280   106643739.272 8      4259.460    20293636.180    83099049.831 8      3319.060    20293637.560    83099054.824 8      3319.060
G14  22750175.900   119552975.217 7      4554.543    22750174.500   119552975.232 5      4554.543    22750182.540    93158191.764 5      3548.994    22750183.120    93158194.772 7      3548.994
G08  21076331.640   110756860.820 7      1298.857    21076330.480   110756860.817 7      1298.857    21076339.400    86304081.477 8      1012.096    21076340.220    86304083.478 8      1012.096
G01  20951097.000   110098747.575 7      2588.880    20951095.660   110098747.582 6      2588.880    20951100.800    85791252.416 6      2017.309    20951101.260    85791253.424 8      2017.309
R03  20448191.240   109460768.385 7      5165.891    20448190.900   109460768.409 7      5165.891    20448204.540    85136212.379 8      4017.915    20448204.300    85136212.377 8      4017.915
R18  20900368.480   111567578.015 7      3499.200    20900368.100   111567578.011 7      3499.200    20900378.780    86774828.447 8      2721.600    20900379.220    86774831.452 8      2721.600
R02  21453103.360   114477864.015 7      1251.864    21453102.780   114477864.010 7      1251.864    21453113.840    89038385.824 7       973.672    21453114.460    89038386.823 7       973.672
R17  21459289.720   114832986.255 7      1837.951    21459290.460   114832986.270 7      1837.951    21459303.200    89314598.230 8      1429.517    21459302.760    89314599.229 8      1429.517
R16  21462542.960   114649041.874 8      1282.497    21462543.580   114649041.878 7      1282.497    21462556.560    89171531.039 8       997.497    21462556.900    89171531.037 8       997.497
R04  23029591.700   123322428.091 7      7136.458    23029592.840   123322428.144 7      7136.458    23029621.760    95917604.451 7      5550.578    23029621.520    95917607.454 7      5550.578
R15  22739816.000   121514644.394 7     -1007.827    22739815.080   121514644.393 7     -1007.827    22739839.200    94511471.618 8      -783.865    22739839.060    94511475.619 8      -783.865
G22  24656963.360   129573216.373 7      5263.622    24656961.900   129573216.384 4      5263.622    24656970.840   100966166.088 4      4101.524
G32  24879802.420   130744242.557 6      1783.527    24879802.640   130744242.554 6      1783.527    24879813.820   101878678.312 6      1389.761    24879814.620   101878683.306 7      1389.761
G27  23950119.840   125858699.936 6       -58.174    23950118.360   125858699.954 6       -58.174    23950137.380    98071779.880 6       -45.331    23950137.760    98071781.854 7       -45.331
G17  24679705.280   129692720.765 6      5553.513    24679703.980   129692720.775 4      5553.513    24679713.680   101059273.410 4      4327.413    24679713.960   101059309.422 7      4327.413
R09  23461785.240   125284618.431 6      4570.947    23461784.820   125284618.440 7      4570.947    23461797.740    97443648.425 7      3555.181    23461798.160    97443648.411 7      3555.181
> 2025 04 04 16 37 12.0000000  0 17
G02  21964463.180   115424021.361 7      1674.008    21964461.700   115424021.366 6      1674.008    21964465.780    89940809.017 6      1304.422
G03  20292819.420   106639480.108 7      4258.985    20292817.740   106639480.110 8      4258.985    20292825.740    83095731.009 8      3318.689    20292827.240    83095736.007 8      3318.689
G14  22749309.260   119548420.848 7      4554.081    22749307.760   119548420.861 5      4554.081    22749315.880    93154642.912 5      3548.635    22749316.220    93154645.924 7      3548.635
G08  21076084.560   110755562.056 7      1298.538    21076083.200   110755562.056 7      1298.538    21076092.360    86303069.452 7      1011.848    21076093.260    86303071.450 8      1011.848
G01  20950604.280   110096158.768 7      2588.762    20950603.120   110096158.773 6      2588.762    20950608.120    85789235.168 6      2017.217    20950608.640    85789236.170 8      2017.217
R03  20447226.240   109455602.748 7      5165.281    20447225.480   109455602.768 7      5165.281    20447239.520    85132194.669 8      4017.441    20447239.380    85132194.665 8      4017.441
R18  20899713.080   111564078.751 7      3499.234    20899712.560   111564078.752 7      3499.234    20899723.360    86772106.806 8      2721.627    20899723.380    86772109.811 8      2721.627
R02  21452869.160   114476612.553 8      1251.003    21452868.480   114476612.559 7      1251.003    21452879.360    89037412.476 7       973.002    21452879.680    89037413.480 7       973.002
R17  21458946.680   114831148.269 7      1837.897    21458947.020   114831148.281 7      1837.897    21458959.660    89313168.686 8      1429.476    21458959.160    89313169.683 8      1429.476
R16  21462303.100   114647759.631 7      1281.891    21462303.660   114647759.635 7      1281.891    21462316.620    89170533.733 8       997.026    21462316.880    89170533.733 8       997.026
R04  23028258.620   123315291.431 7      7136.681    23028260.460   123315291.478 7      7136.681    23028289.040    95912053.749 7      5550.752    23028289.160    95912056.752 7      5550.752
R15  22740004.480   121515652.159 7     -1007.731    22740003.940   121515652.144 6     -1007.731    22740027.780    94512255.408 8      -783.790    22740027.700    94512259.409 8      -783.790
G22  24655962.000   129567952.859 6      5263.480    24655960.300   129567952.872 4      5263.480    24655969.220   100962064.648 4      4101.413
G32  24879463.320   130742459.206 6      1783.077    24879463.300   130742459.206 6      1783.077    24879474.480   101877288.696 6      1389.411    24879475.400   101877293.692 7      1389.411
G27  23950131.020   125858758.096 6       -58.225    23950129.440   125858758.114 6       -58.225    23950148.560    98071825.179 6       -45.370    23950148.840    98071827.162 7       -45.370
G17  24678648.280   129687167.072 6      5553.674    24678647.140   129687167.082 4      5553.674    24678656.800   101054945.856 4      4327.538    24678657.560   101054981.860 7      4327.538
R09  23460929.220   125280047.773 6      4570.419    23460929.300   125280047.790 7      4570.419    23460941.440    97440093.468 7      3554.770    23460942.000    97440093.436 7      3554.770
> 2025 04 04 16 37 13.0000000  0 17
G02  21964144.500   115422347.417 7      1674.081    21964143.060   115422347.422 6      1674.081    21964147.220    89939504.644 6      1304.479
G03  20292009.100   106635221.579 7      4258.339    20292007.360   106635221.584 8      4258.339    20292015.300    83092412.686 8      3318.186    20292016.980    83092417.682 8      3318.186
G14  22748442.440   119543867.040 7      4553.791    22748440.980   119543867.058 5      4553.791    22748449.280    93151094.496 5      3548.409    22748449.780    93151097.503 7      3548.409
G08  21075837.280   110754263.694 7      1298.350    21075836.180   110754263.697 7      1298.350    21075845.320    86302057.748 7      1011.701    21075846.160    86302059.748 8      1011.701
G01  20950111.540   110093570.154 7      2588.666    20950110.520   110093570.158 6      2588.666    20950115.600    85787218.066 6      2017.143    20950116.060    85787219.074 8      2017.143
R03  20446261.100   109450437.814 7      5164.740    20446260.840   109450437.829 7      5164.740    20446274.720    85128177.505 8      4017.020    20446274.580    85128177.503 8      4017.020
R18  20899057.740   111560579.517 7      3499.388    20899057.040   111560579.518 7      3499.388    20899067.840    86769385.182 8      2721.746    20899068.140    86769388.188 8      2721.746
R02  21452634.800   114475361.928 7      1250.311    21452634.260   114475361.929 7      1250.311    21452645.060    89036439.766 7       972.464    21452645.400    89036440.768 7       972.464
R17  21458602.800   114829310.378 7      1838.031    21458603.560   114829310.392 7      1838.031    21458616.220    89311739.204 8      1429.580    21458615.780    89311740.205 8      1429.580
R16  21462062.920   114646478.118 7      1281.296    21462063.980   114646478.119 7      1281.296    21462076.720    89169537.000 8       996.564    21462077.000    89169537.001 8       996.564
R04  23026925.980   123308154.856 7      7136.765    23026927.680   123308154.911 7      7136.765    23026956.400    95906503.115 7      5550.817    23026956.140    95906506.124 7      5550.817
R15  22740193.000   121516660.071 7     -1007.965    22740192.360   121516660.054 6     -1007.965    22740216.480    94513039.313 8      -783.973    22740216.380    94513043.320 8      -783.973
G22  24654960.540   129562689.699 6      5263.204    24654958.640   129562689.712 4      5263.204    24654967.720   100957963.489 4      4101.198
G32  24879123.860   130740676.393 7      1782.822    24879123.980   130740676.390 6      1782.822    24879135.380   101875899.487 6      1389.212    24879135.740   101875904.477 7      1389.212
G27  23950142.100   125858816.522 6       -58.254    23950140.640   125858816.537 6       -58.254    23950159.620    98071870.691 6       -45.393    23950159.680    98071872.669 7       -45.393
G17  24677590.900   129681613.325 6      5553.864    24677590.460   129681613.332 4      5553.864    24677600.040   101050618.258 4      4327.686    24677600.580   101050654.266 7      4327.686
R09  23460073.820   125275477.849 6      4569.786    23460073.400   125275477.860 7      4569.786    23460085.760    97436539.093 7      3554.278    23460085.900    97436539.069 7      3554.278
> 2025 04 04 16 37 14.0000000  0 17
G02  21963826.200   115420673.341 7      1674.373    21963824.520   115420673.349 6      1674.373    21963828.640    89938200.176 6      1304.706
G03  20291198.640   106630963.474 8      4258.097    20291197.260   106630963.479 8      4258.097    20291205.020    83089094.686 8      3317.997    20291206.580    83089099.684 8      3317.997
G14  22747576.000   119539313.657 7      4553.346    22747574.540   119539313.669 5      4553.346    22747582.820    93147546.405 5      3548.062    22747583.300    93147549.407 7      3548.062
G08  21075590.260   110752965.601 7      1298.207    21075589.100   110752965.600 8      1298.207    21075598.220    86301046.242 8      1011.590    21075599.360    86301048.244 8      1011.590
G01  20949618.680   110090981.544 7      2588.859    20949617.840   110090981.549 6      2588.859    20949623.060    85785200.974 6      2017.293    20949623.560    85785201.977 8      2017.293
R03  20445296.500   109445273.413 8      5164.403    20445296.020   109445273.434 7      5164.403    20445309.980    85124160.757 8      4016.758    20445310.260    85124160.751 8      4016.758
R18  20898402.160   111557080.149 7      3499.670    20898401.280   111557080.153 7      3499.670    20898412.360    86766663.457 8      2721.966    20898412.740    86766666.464 8      2721.966
R02  21452400.420   114474111.965 7      1249.842    21452399.880   114474111.958 7      1249.842    21452410.800    89035467.575 7       972.099    21452410.900    89035468.572 7       972.099
R17  21458259.480   114827472.411 7      1838.198    21458259.780   114827472.428 7      1838.198    21458272.720    89310309.679 7      1429.710    21458272.440    89310310.682 7      1429.710
R16  21461822.980   114645197.141 7      1280.889    21461823.980   114645197.148 7      1280.889    21461836.860    89168540.685 8       996.247    21461837.040    89168540.688 8       996.247
R04  23025593.180   123301018.201 7      7136.896    23025595.020   123301018.254 7      7136.896    23025623.760    95900952.425 7      5550.919    23025623.460    95900955.430 7      5550.919
R15  22740382.260   121517667.831 7     -1007.260    22740380.940   121517667.808 7     -1007.260    22740405.200    94513823.095 8      -783.425    22740404.880    94513827.098 8      -783.425
G22  24653959.200   129557426.737 6      5263.084    24653956.900   129557426.749 4      5263.084    24653966.160   100953862.487 4      4101.104
G32  24878784.980   130738893.925 6      1782.502    24878784.640   130738893.924 6      1782.502    24878796.400   101874510.569 6      1388.962    24878796.920   101874515.560 7      1388.962
G27  23950153.320   125858875.013 6       -58.179    23950151.780   125858875.026 6       -58.179    23950170.700    98071916.240 6       -45.335    23950171.120    98071918.208 7       -45.335
G17  24676534.140   129676059.320 6      5554.310    24676533.720   129676059.327 4      5554.310    24676543.080   101046290.468 4      4328.034    24676543.860   101046326.478 7      4328.034
R09  23459217.460   125270908.440 7      4569.423    23459217.740   125270908.451 7      4569.423    23459229.880    97432985.108 7      3553.995    23459230.380    97432985.086 7      3553.995
> 2025 04 04 16 37 15.0000000  0 17
G02  21963507.500   115418999.011 7      1674.149    21963505.860   115418999.016 6      1674.149    21963509.980    89936895.501 6      1304.532
G03  20290388.540   106626705.689 7      4257.333    20290386.980   106626705.692 8      4257.333    20290394.820    83085776.934 8      3317.403    20290396.260    83085781.930 8      3317.403
G14  22746709.260   119534760.494 7      4552.705    22746708.100   119534760.504 5      4552.705    22746716.420    93143998.488 5      3547.563    22746717.080    93144001.502 7      3547.563
G08  21075343.400   110751667.618 7      1297.671    21075342.080   110751667.615 8      1297.671    21075351.280    86300034.816 8      1011.172    21075352.260    86300036.821 8      1011.172
G01  20949126.340   110088392.840 7      2588.433    20949125.320   110088392.848 6      2588.433    20949130.500    85783183.808 6      2016.961    20949130.780    85783184.816 8      2016.961
R03  20444331.840   109440109.424 7      5163.522    20444331.260   109440109.445 7      5163.522    20444345.160    85120144.325 8      4016.073    20444345.280    85120144.321 8      4016.073
R18  20897746.480   111553580.555 7      3499.434    20897745.900   111553580.550 7      3499.434    20897756.740    86763941.548 8      2721.782    20897756.980    86763944.553 8      2721.782
R02  21452166.380   114472862.552 7      1248.848    21452165.820   114472862.550 7      1248.848    21452176.880    89034495.811 7       971.326    21452177.040    89034496.806 7       971.326
R17  21457915.940   114825634.252 7      1838.032    21457916.360   114825634.264 7      1838.032    21457929.340    89308879.997 8      1429.580    21457928.840    89308880.996 8      1429.580
R16  21461583.520   114643916.606 7      1279.992    21461584.560   114643916.607 7      1279.992    21461597.120    89167544.706 8       995.550    21461597.540    89167544.709 8       995.550
R04  23024260.660   123293881.289 7      7136.656    23024262.540   123293881.331 7      7136.656    23024291.180    95895401.518 7      5550.733    23024290.720    95895404.527 7      5550.733
R15  22740570.480   121518675.422 7     -1007.767    22740569.740   121518675.413 7     -1007.767    22740593.620    94514606.769 8      -783.819    22740593.720    94514610.774 8      -783.819
G22  24652957.560   129552163.824 6      5262.568    24652955.500   129552163.834 4      5262.568    24652964.680   100949761.520 4      4100.703
G32  24878445.400   130737111.669 6      1781.906    24878445.260   130737111.671 6      1781.906    24878457.200   101873121.808 6      1388.498    24878458.080   101873126.800 7      1388.498
G27  23950164.620   125858933.441 6       -58.702    23950163.000   125858933.451 6       -58.702    23950182.060    98071961.748 6       -45.741    23950182.560    98071963.724 7       -45.741
G17  24675477.200   129670504.989 6      5554.141    24675476.700   129670504.997 4      5554.141    24675485.960   101041962.424 4      4327.902    24675486.540   101041998.441 7      4327.902
R09  23458362.160   125266339.437 7      4568.487    23458361.960   125266339.443 7      4568.487    23458374.100    97429431.450 7      3553.268    23458374.600    97429431.417 7      3553.268
> 2025 04 04 16 37 16.0000000  0 17
G02  21963188.900   115417324.699 7      1674.320    21963187.420   115417324.709 6      1674.320    21963191.440    89935590.848 6      1304.665
G03  20289578.380   106622448.490 8      4256.962    20289576.860   106622448.498 8      4256.962    20289584.680    83082459.644 8      3317.113    20289586.020    83082464.642 8      3317.113
G14  22745842.960   119530207.876 7      4552.363    22745841.560   119530207.888 5      4552.363    22745849.920    93140451.001 5      3547.296    22745850.500    93140454.011 7      3547.296
G08  21075096.400   110750370.023 7      1297.471    21075095.120   110750370.023 7      1297.471    21075104.200    86299023.706 7      1011.016    21075105.360    86299025.708 8      1011.016
G01  20948633.720   110085804.278 7      2588.622    20948632.620   110085804.283 6      2588.622    20948637.900    85781166.743 6      2017.108    20948638.180    85781167.750 8      2017.108
R03  20443367.180   109434946.129 7      5163.007    20443366.860   109434946.146 7      5163.007    20443380.580    85116128.429 8      4015.672    20443380.880    85116128.427 8      4015.672
R18  20897090.460   111550081.011 7      3499.563    20897090.300   111550081.009 7      3499.563    20897101.040    86761219.681 8      2721.882    20897101.560    86761222.686 8      2721.882
R02  21451932.360   114471613.921 7      1248.392    21451931.900   114471613.916 7      1248.392    21451942.800    89033524.660 7       970.972    21451943.280    89033525.659 7       970.972
R17  21457572.540   114823796.178 7      1838.116    21457572.560   114823796.193 7      1838.116    21457585.620    89307450.384 8      1429.646    21457585.400    89307451.386 8      1429.646
R16  21461344.140   114642636.783 7      1279.575    21461344.820   114642636.781 7      1279.575    21461357.360    89166549.284 8       995.225    21461357.760    89166549.283 8       995.225
R04  23022928.300   123286744.361 7      7136.944    23022929.600   123286744.403 7      7136.944    23022958.040    95889850.611 7      5550.956    23022958.020    95889853.615 7      5550.956
R15  22740759.620   121519683.065 7     -1007.654    22740758.480   121519683.060 7     -1007.654    22740782.280    94515390.472 8      -783.731    22740782.160    94515394.479 8      -783.731
G22  24651956.040   129546901.218 6      5262.637    24651953.960   129546901.226 4      5262.637    24651963.360   100945660.787 4      4100.756
G32  24878106.500   130735329.917 6      1781.682    24878106.240   130735329.917 6      1781.682    24878118.160   101871733.435 6      1388.324    24878119.220   101871738.433 7      1388.324
G27  23950175.620   125858992.077 6       -58.692    23950174.120   125858992.084 6       -58.692    23950193.040    98072007.426 6       -45.734    23950194.000    98072009.398 7       -45.734
G17  24674420.340   129664950.572 6      5554.527    24674419.660   129664950.577 4      5554.527    24674429.080   101037634.307 4      4328.203    24674429.480   101037670.307 7      4328.203
R09  23457506.760   125261771.093 6      4568.029    23457506.660   125261771.107 7      4568.029    23457518.480    97425878.294 7      3552.912    23457518.820    97425878.276 7      3552.912
> 2025 04 04 16 37 17.0000000  0 17
G02  21962870.340   115415650.234 7      1674.804    21962868.800   115415650.242 6      1674.804    21962872.800    89934286.071 6      1305.042
G03  20288768.360   106618191.738 8      4256.742    20288766.900   106618191.741 8      4256.742    20288774.660    83079142.696 8      3316.941    20288776.240    83079147.692 8      3316.941
G14  22744976.740   119525655.633 7      4552.226    22744975.320   119525655.643 5      4552.226    22744983.820    93136903.801 5      3547.189    22744984.460    93136906.813 7      3547.189
G08  21074849.480   110749072.671 7      1297.463    21074848.120   110749072.668 7      1297.463    21074857.420    86298012.780 7      1011.010    21074858.240    86298014.786 8      1011.010
G01  20948141.140   110083215.739 7      2588.815    20948140.100   110083215.744 6      2588.815    20948145.260    85779149.704 6      2017.258    20948145.640    85779150.705 8      2017.258
R03  20442402.640   109429783.344 7      5162.776    20442402.300   109429783.362 7      5162.776    20442415.960    85112112.950 8      4015.492    20442416.280    85112112.949 8      4015.492
R18  20896435.040   111546581.326 7      3500.012    20896434.800   111546581.321 7      3500.012    20896445.540    86758497.705 8      2722.232    20896445.740    86758500.710 8      2722.232
R02  21451698.580   114470365.935 8      1247.914    21451697.760   114470365.941 7      1247.914    21451708.960    89032554.008 7       970.599    21451709.260    89032555.007 7       970.599
R17  21457229.020   114821958.045 7      1838.429    21457229.160   114821958.052 7      1838.429    21457242.380    89306020.722 7      1429.889    21457241.800    89306021.723 8      1429.889
R16  21461104.380   114641357.518 7      1279.204    21461105.540   114641357.517 7      1279.204    21461117.900    89165554.303 8       994.937    21461118.400    89165554.304 8       994.937
R04  23021594.940   123279607.267 7      7137.475    23021597.220   123279607.314 7      7137.475    23021625.320    95884299.569 7      5551.370    23021625.160    95884302.575 7      5551.370
R15  22740947.860   121520690.645 7     -1007.453    22740946.600   121520690.630 6     -1007.453    22740970.680    94516174.119 8      -783.574    22740970.800    94516178.124 8      -783.574
G22  24650954.780   129541638.829 7      5262.537    24650952.460   129541638.839 4      5262.537    24650961.940   100941560.231 4      4100.679
G32  24877767.640   130733548.537 6      1781.439    24877767.040   130733548.536 6      1781.439    24877779.160   101870345.342 6      1388.135    24877780.140   101870350.335 7      1388.135
G27  23950186.820   125859050.760 6       -58.488    23950185.160   125859050.767 6       -58.488    23950204.240    98072053.129 6       -45.575    23950205.100    98072055.104 7       -45.575
G17  24673363.540   129659395.923 6      5554.871    24673362.640   129659395.925 4      5554.871    24673372.060   101033306.015 4      4328.471    24673372.320   101033342.028 7      4328.471
R09  23456651.220   125257203.329 6      4567.662    23456651.160   125257203.340 7      4567.662    23456663.300    97422325.590 7      3552.626    23456664.020    97422325.562 7      3552.626
> 2025 04 04 16 37 18.0000000  0 17
G02  21962551.500   115413975.602 7      1674.901    21962550.160   115413975.607 6      1674.901    21962554.140    89932981.160 6      1305.118
G03  20287958.440   106613935.351 8      4256.315    20287956.860   106613935.359 8      4256.315    20287964.680    83075826.046 8      3316.609    20287966.180    83075831.046 8      3316.609
G14  22744110.520   119521103.734 7      4551.825    22744109.160   119521103.744 5      4551.825    22744117.620    93133356.873 5      3546.877    22744117.820    93133359.875 7      3546.877
G08  21074602.520   110747775.507 7      1297.185    21074601.240   110747775.509 7      1297.185    21074610.640    86297002.007 7      1010.794    21074611.600    86297004.009 8      1010.794
G01  20947648.620   110080627.169 7      2588.748    20947647.640   110080627.174 6      2588.748    20947652.800    85777132.638 6      2017.206    20947653.220    85777133.644 8      2017.206
R03  20441438.160   109424621.061 7      5162.278    20441437.920   109424621.078 7      5162.278    20441451.720    85108097.845 8      4015.105    20441451.720    85108097.845 8      4015.105
R18  20895779.220   111543081.435 7      3500.162    20895779.000   111543081.438 7      3500.162    20895789.840    86755775.581 8      2722.348    20895789.900    86755778.589 8      2722.348
R02  21451464.660   114469118.475 7      1247.403    21451464.180   114469118.475 7      1247.403    21451475.120    89031583.766 7       970.203    21451475.400    89031584.767 7       970.203
R17  21456885.780   114820119.822 7      1838.523    21456885.560   114820119.818 7      1838.523    21456898.660    89304590.984 8      1429.963    21456898.340    89304591.987 8      1429.963
R16  21460865.340   114640078.732 8      1278.717    21460865.860   114640078.733 7      1278.717    21460878.540    89164559.689 8       994.558    21460878.700    89164559.694 8       994.558
R04  23020262.640   123272470.039 7      7137.474    23020264.180   123272470.075 7      7137.474    23020292.780    95878748.436 7      5551.368    23020292.260    95878751.441 7      5551.368
R15  22741136.420   121521698.055 7     -1007.114    22741134.780   121521698.040 6     -1007.114    22741159.340    94516957.628 8      -783.311    22741159.260    94516961.638 8      -783.311
G22  24649953.320   129536376.536 6      5262.440    24649950.880   129536376.546 4      5262.440    24649960.680   100937459.744 4      4100.602
G32  24877428.520   130731767.426 6      1781.123    24877428.040   130731767.421 6      1781.123    24877440.180   101868957.472 6      1387.888    24877441.040   101868962.476 7      1387.888
G27  23950197.840   125859109.438 6       -58.477    23950196.260   125859109.448 6       -58.477    23950215.480    98072098.839 6       -45.567    23950216.320    98072100.813 7       -45.567
G17  24672306.140   129653840.975 6      5555.178    24672305.700   129653840.980 4      5555.178    24672315.220   101028977.488 4      4328.710    24672315.560   101029013.496 7      4328.710
R09  23455795.740   125252636.018 7      4567.196    23455796.360   125252636.033 7      4567.196    23455807.520    97418773.238 7      3552.264    23455808.220    97418773.218 7      3552.264
> 2025 04 04 16 37 19.0000000  0 17
G02  21962232.760   115412300.706 7      1674.973    21962231.440   115412300.711 6      1674.973    21962235.220    89931676.051 6      1305.174
G03  20287148.520   106609679.288 8      4255.873    20287147.020   106609679.293 8      4255.873    20287154.840    83072509.630 8      3316.265    20287156.340    83072514.628 8      3316.265
G14  22743244.520   119516552.072 7      4551.436    22743242.920   119516552.082 5      4551.436    22743251.380    93129810.128 5      3546.574    22743251.760    93129813.134 7      3546.574
G08  21074355.520   110746478.467 7      1296.845    21074354.420   110746478.467 7      1296.845    21074363.720    86295991.324 7      1010.529    21074364.580    86295993.329 8      1010.529
G01  20947155.980   110078038.486 7      2588.617    20947155.020   110078038.491 6      2588.617    20947160.100    85775115.487 6      2017.104    20947160.640    85775116.488 8      2017.104
R03  20440473.920   109419459.194 7      5161.609    20440473.560   109419459.204 7      5161.609    20440487.440    85104083.068 8      4014.585    20440487.660    85104083.062 8      4014.585
R18  20895123.560   111539581.301 7      3500.243    20895123.380   111539581.307 7      3500.243    20895134.140    86753053.256 8      2722.412    20895134.480    86753056.261 8      2722.412
R02  21451231.260   114467871.548 7      1246.575    21451230.480   114467871.543 7      1246.575    21451241.480    89030613.928 7       969.558    21451241.920    89030614.927 7       969.558
R17  21456542.260   114818281.392 7      1838.494    21456541.760   114818281.394 7      1838.494    21456555.160    89303161.094 8      1429.940    21456554.660    89303162.098 8      1429.940
R16  21460626.120   114638800.373 7      1278.055    21460626.580   114638800.366 7      1278.055    21460639.160    89163565.406 8       994.043    21460639.500    89163565.409 8       994.043
R04  23018929.880   123265332.548 7      7137.534    23018930.840   123265332.585 7      7137.534    23018959.200    95873197.102 7      5551.415    23018959.360    95873200.112 7      5551.415
R15  22741324.720   121522705.307 7     -1007.155    22741323.960   121522705.298 6     -1007.155    22741347.820    94517741.028 8      -783.343    22741347.760    94517745.031 8      -783.343
G22  24648951.900   129531114.311 6      5262.173    24648949.660   129531114.327 4      5262.173    24648959.420   100933359.309 4      4100.395
G32  24877089.680   130729986.545 6      1780.639    24877089.060   130729986.537 6      1780.639    24877101.320   101867569.778 6      1387.511    24877102.240   101867574.778 7      1387.511
G27  23950208.840   125859168.073 6       -58.703    23950207.580   125859168.083 6       -58.703    23950226.760    98072144.509 6       -45.742    23950227.160    98072146.485 7       -45.742
G17  24671248.980   129648285.672 6      5555.373    24671248.560   129648285.677 4      5555.373    24671258.040   101024648.685 4      4328.862    24671258.340   101024684.685 7      4328.862
R09  23454940.460   125248069.119 7      4566.690    23454941.340   125248069.136 7      4566.690    23454952.680    97415221.203 7      3551.870    23454953.080    97415221.185 7      3551.870
> 2025 04 04 16 37 20.0000000  0 17
G02  21961914.180   115410625.651 8      1675.262    21961912.720   115410625.658 6      1675.262    21961916.480    89930370.815 6      1305.399
G03  20286338.800   106605423.642 8      4255.650    20286337.100   106605423.641 8      4255.650    20286345.020    83069193.544 8      3316.091    20286346.580    83069198.542 8      3316.091
G14  22742378.400   119512000.770 7      4551.285    22742376.720   119512000.780 5      4551.285    22742385.280    93126263.663 5      3546.456    22742385.640    93126266.671 7      3546.456
G08  21074108.840   110745181.622 7      1296.926    21074107.680   110745181.619 8      1296.926    21074117.020    86294980.797 8      1010.592    21074117.960    86294982.806 8      1010.592
G01  20946663.200   110075449.780 7      2588.853    20946662.360   110075449.782 6      2588.853    20946667.460    85773098.311 6      2017.288    20946667.820    85773099.314 8      2017.288
R03  20439509.940   109414297.802 7      5161.303    20439509.420   109414297.811 7      5161.303    20439523.240    85100068.654 8      4014.347    20439523.360    85100068.650 8      4014.347
R18  20894467.920   111536081.042 7      3500.503    20894467.720   111536081.043 7      3500.503    20894478.460    86750330.830 8      2722.614    20894478.820    86750333.837 8      2722.614
R02  21450997.800   114466625.230 8      1246.184    21450996.960   114466625.236 7      1246.184    21451008.180    89029644.579 7       969.254    21451008.480    89029645.576 7       969.254
R17  21456198.440   114816442.832 7      1838.786    21456197.940   114816442.841 7      1838.786    21456211.800    89301731.109 8      1430.167    21456211.040    89301732.110 8      1430.167
R16  21460386.920   114637522.524 7      1277.838    21460387.180   114637522.520 7      1277.838    21460399.920    89162571.517 8       993.874    21460400.140    89162571.524 8       993.874
R04  23017597.220   123258194.902 7      7138.029    23017598.100   123258194.944 7      7138.029    23017626.620    95867645.623 7      5551.801    23017626.380    95867648.632 7      5551.801
R15  22741513.180   121523712.458 7     -1006.895    22741512.280   121523712.454 7     -1006.895    22741536.360    94518524.349 8      -783.140    22741536.600    94518528.354 8      -783.140
G22  24647950.500   129525852.258 6      5262.106    24647948.540   129525852.265 4      5262.106    24647958.140   100929259.010 4      4100.343
G32  24876750.680   130728205.981 6      1780.528    24876750.160   130728205.973 6      1780.528    24876762.620   101866182.326 6      1387.424    24876763.620   101866187.326 7      1387.424
G27  23950220.100   125859226.722 6       -58.516    23950218.620   125859226.732 6       -58.516    23950237.900    98072190.197 6       -45.597    23950238.040    98072192.175 7       -45.597
G17  24670192.280   129642730.096 6      5555.953    24670191.480   129642730.098 4      5555.953    24670200.840   101020319.669 4      4329.314    24670200.780   101020355.677 7      4329.314
R09  23454085.280   125243502.735 7      4566.309    23454086.060   125243502.752 7      4566.309    23454097.560    97411669.569 6      3551.573    23454097.920    97411669.547 7      3551.573
> 2025 04 04 16 37 21.0000000  0 17
G02  21961595.460   115408950.579 7      1675.224    21961593.920   115408950.584 6      1675.224    21961597.660    89929065.564 6      1305.370
G03  20285528.940   106601168.547 8      4254.972    20285527.440   106601168.552 8      4254.972    20285535.360    83065877.893 8      3315.563    20285536.860    83065882.893 8      3315.563
G14  22741512.380   119507449.999 7      4550.571    22741510.760   119507450.006 5      4550.571    22741519.280    93122717.609 5      3545.899    22741519.460    93122720.619 7      3545.899
G08  21073862.200   110743885.154 7      1296.412    21073861.000   110743885.154 8      1296.412    21073870.400    86293970.559 7      1010.191    21073871.480    86293972.562 8      1010.191
G01  20946170.620   110072861.196 7      2588.699    20946169.680   110072861.199 6      2588.699    20946174.840    85771081.237 6      2017.168    20946175.260    85771082.240 8      2017.168
R03  20438546.060   109409137.041 8      5160.658    20438545.560   109409137.056 7      5160.658    20438559.240    85096054.741 8      4013.845    20438559.180    85096054.741 8      4013.845
R18  20893812.460   111532580.761 7      3500.479    20893811.980   111532580.765 7      3500.479    20893822.880    86747608.396 8      2722.595    20893822.980    86747611.403 8      2722.595
R02  21450764.240   114465379.755 8      1245.279    21450763.440   114465379.755 7      1245.279    21450774.480    89028675.878 7       968.550    21450774.920    89028676.876 7       968.550
R17  21455854.900   114814604.351 7      1838.571    21455854.540   114814604.358 7      1838.571    21455868.160    89300301.176 8      1430.000    21455867.720    89300302.179 8      1430.000
R16  21460147.640   114636245.375 7      1276.965    21460147.920   114636245.370 7      1276.965    21460160.700    89161578.185 8       993.195    21460161.300    89161578.190 8       993.195
R04  23016264.040   123251057.283 7      7137.708    23016264.920   123251057.331 7      7137.708    23016293.680    95862094.189 7      5551.550    23016293.620    95862097.199 7      5551.550
R15  22741702.040   121524719.667 7     -1007.125    22741700.940   121524719.668 7     -1007.125    22741725.000    94519307.713 8      -783.319    22741724.860    94519311.718 8      -783.319
G22  24646949.100   129520590.464 6      5261.883    24646947.280   129520590.472 4      5261.883    24646957.000   100925158.917 4      4100.169
G32  24876412.080   130726425.846 6      1780.158    24876411.300   130726425.843 6      1780.158    24876423.960   101864795.213 6      1387.136    24876425.080   101864800.209 7      1387.136
G27  23950231.460   125859285.581 6       -58.841    23950229.840   125859285.591 6       -58.841    23950249.080    98072236.053 6       -45.850    23950249.280    98072238.037 7       -45.850
G17  24669134.980   129637174.420 6      5556.049    24669134.280   129637174.422 5      5556.049    24669143.660   101015990.572 4      4329.389    24669144.000   101016026.574 7      4329.389
R09  23453230.340   125238936.979 7      4565.579    23453231.240   125238936.991 7      4565.579    23453242.220    97408118.425 7      3551.006    23453242.840    97408118.413 7      3551.006
> 2025 04 04 16 37 22.0000000  0 17
G02  21961276.460   115407275.163 7      1675.435    21961274.900   115407275.168 6      1675.435    21961278.860    89927760.048 6      1305.534
G03  20284719.140   106596913.669 8      4254.712    20284717.740   106596913.671 8      4254.712    20284725.640    83062562.409 8      3315.360    20284727.040    83062567.411 8      3315.360
G14  22740646.400   119502899.353 7      4550.405    22740645.000   119502899.363 5      4550.405    22740653.280    93119171.656 5      3545.770    22740653.500    93119174.662 7      3545.770
G08  21073615.580   110742588.700 7      1296.284    21073614.220   110742588.703 7      1296.284    21073623.640    86292960.335 7      1010.091    21073624.660    86292962.342 8      1010.091
G01  20945678.180   110070272.424 7      2588.781    20945677.220   110070272.424 6      2588.781    20945682.340    85769064.012 6      2017.232    20945682.600    85769065.015 8      2017.232
R03  20437582.040   109403976.590 8      5160.188    20437581.480   109403976.611 7      5160.188    20437595.220    85092041.066 8      4013.480    20437595.360    85092041.064 8      4013.480
R18  20893156.800   111529080.152 7      3500.633    20893156.260   111529080.148 7      3500.633    20893167.340    86744885.700 8      2722.714    20893167.360    86744888.705 8      2722.714
R02  21450530.880   114464134.738 7      1244.731    21450529.980   114464134.739 7      1244.731    21450541.380    89027707.528 7       968.124    21450541.780    89027708.525 7       968.124
R17  21455511.300   114812765.579 7      1838.887    21455511.100   114812765.573 7      1838.887    21455524.340    89298871.007 7      1430.246    21455524.100    89298872.006 8      1430.246
R16  21459908.520   114634968.549 7      1276.489    21459908.760   114634968.550 7      1276.489    21459921.720    89160585.096 8       992.825    21459922.400    89160585.101 8       992.825
R04  23014930.520   123243919.268 7      7138.076    23014932.040   123243919.313 7      7138.076    23014960.740    95856542.437 7      5551.837    23014960.660    95856545.444 7      5551.837
R15  22741890.420   121525726.543 7     -1006.785    22741889.300   121525726.536 7     -1006.785    22741913.220    94520090.797 8      -783.055    22741913.440    94520094.796 8      -783.055
G22  24645947.960   129515328.689 7      5261.591    24645946.040   129515328.702 4      5261.591    24645955.500   100921058.837 4      4099.941
G32  24876073.620   130724645.879 6      1779.796    24876072.260   130724645.881 6      1779.796    24876085.160   101863408.232 6      1386.854    24876086.440   101863413.228 7      1386.854
G27  23950242.340   125859344.259 6       -58.782    23950240.960   125859344.264 6       -58.782    23950260.440    98072281.755 6       -45.804    23950260.440    98072283.737 7       -45.804
G17  24668077.540   129631618.299 6      5556.244    24668077.100   129631618.304 5      5556.244    24668086.360   101011661.134 5      4329.541    24668086.900   101011697.155 7      4329.541
R09  23452375.140   125234371.548 7      4565.183    23452376.480   125234371.554 7      4565.183    23452387.560    97404567.536 7      3550.698    23452388.140    97404567.517 7      3550.698
> 2025 04 04 16 37 23.0000000  0 17
G02  21960957.520   115405599.748 7      1675.346    21960956.080   115405599.753 6      1675.346    21960960.280    89926454.529 6      1305.464
G03  20283909.820   106592659.392 8      4253.921    20283908.260   106592659.397 8      4253.921    20283916.100    83059247.388 8      3314.743    20283917.540    83059252.390 8      3314.743
G14  22739780.760   119498349.249 7      4549.818    22739779.080   119498349.252 5      4549.818    22739787.240    93115626.120 5      3545.313    22739787.740    93115629.126 7      3545.313
G08  21073368.900   110741292.633 7      1295.813    21073367.580   110741292.635 7      1295.813    21073377.040    86291950.412 7      1009.725    21073377.860    86291952.417 8      1009.725
G01  20945185.680   110067683.804 7      2588.472    20945184.560   110067683.806 6      2588.472    20945189.740    85767046.909 6      2016.991    20945190.020    85767047.915 8      2016.991
R03  20436618.160   109398816.825 7      5159.378    20436617.720   109398816.840 7      5159.378    20436631.360    85088027.921 8      4012.850    20436631.160    85088027.917 8      4012.850
R18  20892501.080   111525579.527 7      3500.589    20892500.500   111525579.520 7      3500.589    20892511.340    86742162.998 8      2722.680    20892511.160    86742166.003 8      2722.680
R02  21450297.660   114462890.509 7      1243.786    21450296.800   114462890.505 7      1243.786    21450308.180    89026739.797 7       967.389    21450308.480    89026740.794 7       967.389
R17  21455167.500   114810926.898 7      1838.573    21455167.260   114810926.902 7      1838.573    21455180.720    89297440.934 8      1430.001    21455180.380    89297441.933 8      1430.001
R16  21459669.800   114633692.431 7      1275.720    21459669.900   114633692.426 7      1275.720    21459683.060    89159592.554 8       992.227    21459683.440    89159592.561 8       992.227
R04  23013597.340   123236781.261 7      7138.013    23013599.140   123236781.308 7      7138.013    23013627.400    95850990.687 7      5551.788    23013627.660    95850993.692 7      5551.788
R15  22742078.660   121526733.490 7     -1007.076    22742077.640   121526733.481 6     -1007.076    22742101.940    94520873.955 8      -783.281    22742101.860    94520877.956 8      -783.281
G22  24644946.740   129510067.209 7      5261.194    24644944.900   129510067.214 4      5261.194    24644954.200   100916958.983 4      4099.632
G32  24875734.860   130722866.387 6      1779.192    24875733.640   130722866.392 6      1779.192    24875746.600   101862021.623 6      1386.384    24875747.600   101862026.619 7      1386.384
G27  23950253.540   125859403.136 6       -59.138    23950252.100   125859403.144 6       -59.138    23950271.640    98072327.622 6       -46.081    23950271.980    98072329.600 7       -46.081
G17  24667020.080   129626062.103 6      5556.273    24667019.780   129626062.111 5      5556.273    24667029.020   101007331.637 5      4329.563    24667029.100   101007367.639 7      4329.563
R09  23451520.500   125229806.801 7      4564.456    23451521.560   125229806.805 7      4564.456    23451532.780    97401017.173 7      3550.132    23451533.260    97401017.156 7      3550.132
> 2025 04 04 16 37 24.0000000  0 17
G02  21960638.740   115403924.400 7      1675.472    21960637.400   115403924.408 6      1675.472    21960641.280    89925149.065 6      1305.563
G03  20283100.160   106588405.730 8      4253.515    20283098.820   106588405.732 8      4253.515    20283106.680    83055932.856 8      3314.427    20283108.240    83055937.858 8      3314.427
G14  22738914.780   119493799.742 7      4549.324    22738913.140   119493799.747 5      4549.324    22738921.460    93112081.052 5      3544.928    22738922.020    93112084.051 7      3544.928
G08  21073122.220   110739997.006 7      1295.581    21073120.980   110739997.011 7      1295.581    21073130.460    86290940.829 7      1009.544    21073131.260    86290942.834 8      1009.544
G01  20944693.060   110065095.397 7      2588.473    20944691.940   110065095.399 6      2588.473    20944697.200    85765029.967 6      2016.992    20944697.560    85765030.972 8      2016.992
R03  20435654.100   109393657.793 8      5158.801    20435654.020   109393657.816 7      5158.801    20435667.580    85084015.351 8      4012.401    20435667.540    85084015.352 8      4012.401
R18  20891845.020   111522078.983 7      3500.649    20891844.760   111522078.981 7      3500.649    20891855.540    86739440.350 8      2722.727    20891855.600    86739443.359 8      2722.727
R02  21450064.920   114461647.059 7      1243.256    21450063.840   114461647.055 7      1243.256    21450075.140    89025772.663 7       966.977    21450075.620    89025773.664 7       966.977
R17  21454824.180   114809088.335 7      1838.566    21454823.640   114809088.339 7      1838.566    21454837.220    89296010.928 7      1429.996    21454836.860    89296011.931 8      1429.996
R16  21459430.520   114632417.060 7      1275.200    21459430.900   114632417.059 7      1275.200    21459444.180    89158600.609 8       991.822    21459444.740    89158600.614 8       991.822
R04  23012264.200   123229643.372 7      7137.917    23012266.340   123229643.416 7      7137.917    23012294.820    95845439.031 7      5551.713    23012294.440    95845442.038 7      5551.713
R15  22742267.420   121527740.544 7     -1006.981    22742266.300   121527740.527 7     -1006.981    22742290.340    94521657.197 7      -783.207    22742290.300    94521661.204 7      -783.207
G22  24643945.720   129504806.104 6      5260.983    24643943.760   129504806.111 4      5260.983    24643952.940   100912859.427 4      4099.467
G32  24875396.220   130721087.439 6      1778.778    24875394.960   130721087.444 6      1778.778    24875408.200   101860635.426 6      1386.061    24875409.280   101860640.424 7      1386.061
G27  23950264.440   125859462.292 6       -59.292    23950263.560   125859462.294 6       -59.292    23950282.980    98072373.688 6       -46.202    23950283.080    98072375.664 7       -46.202
G17  24665963.120   129620505.865 6      5556.426    24665962.500   129620505.867 5      5556.426    24665971.680   101003002.099 5      4329.682    24665971.680   101003038.107 7      4329.682
R09  23450666.160   125225242.801 7      4563.730    23450666.720   125225242.810 7      4563.730    23450677.800    97397467.410 7      3549.568    23450678.320    97397467.395 7      3549.568
> 2025 04 04 16 37 25.0000000  0 17
G02  21960319.900   115402249.022 7      1675.274    21960318.500   115402249.026 6      1675.274    21960322.540    89923843.573 6      1305.408
G03  20282290.820   106584152.609 8      4252.772    20282289.480   106584152.614 8      4252.772    20282297.360    83052618.736 8      3313.848    20282298.720    83052623.738 8      3313.848
G14  22738049.300   119489250.684 7      4548.690    22738047.340   119489250.688 5      4548.690    22738055.900    93108536.337 5      3544.434    22738056.420    93108539.343 7      3544.434
G08  21072875.940   110738701.711 7      1295.080    21072874.540   110738701.718 7      1295.080    21072883.920    86289931.510 7      1009.153    21072884.840    86289933.515 8      1009.153
G01  20944200.660   110062507.087 7      2588.179    20944199.320   110062507.092 6      2588.179    20944204.580    85763013.106 6      2016.763    20944204.920    85763014.109 8      2016.763
R03  20434690.500   109388499.390 7      5158.008    20434690.480   109388499.413 7      5158.008    20434703.860    85080003.267 8      4011.784    20434703.980    85080003.265 8      4011.784
R18  20891189.060   111518578.392 7      3500.515    20891189.060   111518578.401 7      3500.515    20891199.820    86736717.686 8      2722.623    20891199.780    86736720.693 8      2722.623
R02  21449832.200   114460404.346 8      1242.251    21449831.160   114460404.341 7      1242.251    21449842.260    89024806.114 7       966.195    21449842.680    89024807.109 7       966.195
R17  21454480.460   114807249.772 7      1838.463    21454480.140   114807249.773 7      1838.463    21454493.740    89294580.934 8      1429.915    21454493.160    89294581.934 8      1429.915
R16  21459192.100   114631142.344 7      1274.342    21459192.400   114631142.343 7      1274.342    21459205.640    89157609.151 8       991.155    21459205.940    89157609.154 8       991.155
R04  23010931.240   123222505.442 7      7137.894    23010933.380   123222505.484 7      7137.894    23010961.820    95839887.343 7      5551.695    23010961.700    95839890.350 7      5551.695
R15  22742455.440   121528747.644 7     -1007.291    22742454.760   121528747.643 7     -1007.291    22742478.740    94522440.470 7      -783.449    22742478.680    94522444.471 7      -783.449
G22  24642944.740   129499545.274 7      5260.567    24642942.520   129499545.287 4      5260.567    24642951.800   100908760.086 4      4099.143
G32  24875057.340   130719308.938 6      1778.216    24875056.400   130719308.940 6      1778.216    24875069.780   101859249.581 6      1385.623    24875071.200   101859254.575 7      1385.623
G27  23950275.580   125859521.572 6       -59.558    23950274.660   125859521.584 6       -59.558    23950294.300    98072419.876 6       -46.409    23950294.420    98072421.858 7       -46.409
G17  24664905.720   129614949.466 6      5556.431    24664905.180   129614949.471 5      5556.431    24664914.380   100998672.441 5      4329.686    24664914.040   100998708.447 7      4329.686
R09  23449811.580   125220679.445 7      4563.009    23449812.040   125220679.446 7      4563.009    23449823.360    97393918.125 7      3549.007    23449823.900    97393918.111 7      3549.007
> 2025 04 04 16 37 26.0000000  0 17
G02  21960001.360   115400573.569 7      1675.515    21959999.740   115400573.574 6      1675.515    21960003.700    89922538.030 6      1305.596
G03  20281481.500   106579899.990 8      4252.466    20281480.180   106579899.997 8      4252.466    20281488.100    83049305.019 8      3313.610    20281489.580    83049310.021 8      3313.610
G14  22737183.600   119484702.083 7      4548.465    22737181.700   119484702.093 5      4548.465    22737190.400    93104991.979 5      3544.259    22737191.040    93104994.989 7      3544.259
G08  21072629.620   110737406.731 8      1294.924    21072628.240   110737406.736 7      1294.924    21072637.560    86288922.431 7      1009.032    21072638.540    86288924.435 8      1009.032
G01  20943708.160   110059918.867 7      2588.288    20943706.940   110059918.874 6      2588.288    20943712.180    85760996.315 6      2016.848    20943712.500    85760997.318 8      2016.848
R03  20433726.780   109383341.587 8      5157.542    20433726.720   109383341.615 7      5157.542    20433740.340    85075991.652 8      4011.422    20433740.340    85075991.650 8      4011.422
R18  20890533.460   111515077.797 8      3500.676    20890533.500   111515077.798 7      3500.676    20890544.180    86733994.992 8      2722.748    20890544.080    86733998.001 8      2722.748
R02  21449599.040   114459162.326 7      1241.761    21449598.360   114459162.321 7      1241.761    21449609.620    89023840.102 7       965.814    21449610.000    89023841.100 7       965.814
R17  21454137.160   114805411.216 7      1838.641    21454136.400   114805411.226 7      1838.641    21454150.160    89293150.953 7      1430.054    21454149.880    89293151.952 8      1430.054
R16  21458953.540   114629868.205 8      1273.935    21458953.980   114629868.206 7      1273.935    21458967.140    89156618.160 8       990.838    21458967.520    89156618.165 8       990.838
R04  23009598.120   123215367.478 7      7138.192    23009599.920   123215367.522 7      7138.192    23009628.580    95834335.629 7      5551.927    23009628.720    95834338.636 7      5551.927
R15  22742644.040   121529754.717 7     -1007.065    22742643.340   121529754.716 7     -1007.065    22742667.400    94523223.741 8      -783.273    22742667.520    94523227.748 8      -783.273
G22  24641943.100   129494284.684 6      5260.599    24641941.380   129494284.697 4      5260.599    24641950.780   100904660.931 4      4099.168
G32  24874719.280   130717530.823 6      1778.060    24874717.940   130717530.831 6      1778.060    24874731.520   101857864.045 6      1385.501    24874732.880   101857869.041 7      1385.501
G27  23950287.100   125859580.996 6       -59.454    23950285.960   125859581.003 6       -59.454    23950305.620    98072466.162 6       -46.328    23950305.800    98072468.150 7       -46.328
G17  24663848.200   129609392.918 6      5556.655    24663847.800   129609392.923 5      5556.655    24663856.960   100994342.672 5      4329.861    24663856.580   100994378.688 7      4329.861
R09  23448957.540   125216116.722 6      4562.552    23448957.700   125216116.718 7      4562.552    23448968.860    97390369.336 7      3548.652    23448969.060    97390369.314 7      3548.652
> 2025 04 04 16 37 27.0000000  0 17
G02  21959682.240   115398897.909 7      1675.614    21959680.860   115398897.911 6      1675.614    21959684.660    89921232.319 6      1305.673
G03  20280672.540   106575647.741 8      4251.958    20280671.040   106575647.743 8      4251.958    20280678.940    83045991.579 8      3313.214    20280680.460    83045996.581 8      3313.214
G14  22736318.540   119480153.813 7      4547.881    22736316.300   119480153.825 5      4547.881    22736324.940    93101447.876 5      3543.803    22736325.200    93101450.882 7      3543.803
G08  21072383.240   110736111.930 7      1294.537    21072381.740   110736111.932 7      1294.537    21072391.140    86287913.495 7      1008.730    21072392.220    86287915.497 8      1008.730
G01  20943215.360   110057330.599 7      2588.106    20943214.460   110057330.604 6      2588.106    20943219.560    85758979.485 6      2016.706    20943219.980    85758980.486 8      2016.706
R03  20432763.640   109378184.260 8      5156.924    20432763.620   109378184.280 7      5156.924    20432777.080    85071980.400 8      4010.941    20432776.820    85071980.398 8      4010.941
R18  20889877.160   111511576.964 7      3500.844    20889877.480   111511576.965 7      3500.844    20889888.420    86731272.122 8      2722.879    20889888.380    86731275.127 8      2722.879
R02  21449366.560   114457920.938 8      1240.884    21449365.720   114457920.941 7      1240.884    21449376.880    89022874.583 7       965.132    21449377.400    89022875.580 7       965.132
R17  21453793.560   114803572.549 7      1838.562    21453793.380   114803572.561 7      1838.562    21453806.720    89291720.876 8      1429.993    21453806.120    89291721.878 8      1429.993
R16  21458715.040   114628594.560 7      1273.226    21458715.360   114628594.561 7      1273.226    21458728.800    89155627.548 8       990.287    21458729.220    89155627.552 8       990.287
R04  23008265.080   123208229.315 7      7138.188    23008266.520   123208229.368 7      7138.188    23008295.920    95828783.770 7      5551.924    23008295.560    95828786.773 7      5551.924
R15  22742832.480   121530761.649 7     -1007.011    22742831.680   121530761.639 7     -1007.011    22742855.760    94524006.862 8      -783.231    22742856.080    94524010.869 8      -783.231
G22  24640942.160   129489024.244 6      5260.150    24640940.340   129489024.254 4      5260.150    24640949.600   100900561.887 4      4098.818
G32  24874380.920   130715752.990 6      1777.713    24874379.740   130715752.992 6      1777.713    24874393.080   101856478.729 6      1385.231    24874394.280   101856483.733 7      1385.231
