     3.05           OBSERVATION DATA    MIXED               RINEX VERSION / TYPE
TPS2RIN 1.0.28.3459 TPS-USER            20250407 105758 UTC PGM / RUN BY / DATE
Win64 build Jun 01, 2022 (c) Topcon Positioning Systems     COMMENT
SRC: 20250404_grav_20250404_174124.tps                      COMMENT
Observer            Agency                                  OBSERVER / AGENCY
O0M3X53SBGM         TPS HIPER_SR        4.8 HSR Jul,08,2022 REC # / TYPE / VERS
FW: 4.8 HSR Jul,08,2022 p3                                  COMMENT
SN: HiPer SR 1212-12575                                     COMMENT
000                 TPSHIPER_SR     NONE                    ANT # / TYPE
        1.8000        0.0000        0.0000                  ANTENNA: DELTA H/E/N
DELTA H stands for **SLANT** height here!                   COMMENT
Oro06                                                       MARKER NAME
  5383293.5445 -1598747.9814  3014606.1604                  APPROX POSITION XYZ
  2025     4     4    15    41   47.0000000     GPS         TIME OF FIRST OBS
  2025     4     4    15    56   53.0000000     GPS         TIME OF LAST OBS
     1.000                                                  INTERVAL
   907 EPOCHS                                               COMMENT
G   12 C1C L1C D1C C1W L1W D1W C2W L2W D2W C2X L2X D2X      SYS / # / OBS TYPES
R   12 C1C L1C D1C C1P L1P D1P C2P L2P D2P C2C L2C D2C      SYS / # / OBS TYPES
    13                                                      # OF SATELLITES
   G01   907   907   907   907   907   907   907   907   907PRN / # OF OBS
         907   907   907                                    PRN / # OF OBS
   G02   907   907   907   907   907   907   907   907   907PRN / # OF OBS
           0     0     0                                    PRN / # OF OBS
   G03   907   907   907   907   907   907   907   907   907PRN / # OF OBS
         907   907   907                                    PRN / # OF OBS
   G07   469   469   469   467   467   467   466   466   466PRN / # OF OBS
         469   469   469                                    PRN / # OF OBS
   G08   907   907   907   907   907   907   907   907   907PRN / # OF OBS
         907   907   907                                    PRN / # OF OBS
   G27   907   907   907   907   907   907   907   907   907PRN / # OF OBS
         907   907   907                                    PRN / # OF OBS
   G32   907   907   907   907   907   907   907   907   907PRN / # OF OBS
         907   907   907                                    PRN / # OF OBS
   R02   907   907   907   907   907   907   907   907   907PRN / # OF OBS
         907   907   907                                    PRN / # OF OBS
   R03   907   907   907   907   907   907   907   907   907PRN / # OF OBS
         907   907   907                                    PRN / # OF OBS
   R15   907   907   907   907   907   907   907   907   907PRN / # OF OBS
         907   907   907                                    PRN / # OF OBS
   R16   700   700   700   678   678   678   678   678   678PRN / # OF OBS
         674   674   674                                    PRN / # OF OBS
   R17   907   907   907   907   907   907   907   907   907PRN / # OF OBS
         907   907   907                                    PRN / # OF OBS
   R18   230   230   230   219   219   219   219   219   219PRN / # OF OBS
         217   217   217                                    PRN / # OF OBS
G L1C                                                       SYS / PHASE SHIFT
G L1W -0.25000                                              SYS / PHASE SHIFT
G L2W  0.00000                                              SYS / PHASE SHIFT
G L2X  0.25000                                              SYS / PHASE SHIFT
R L1C                                                       SYS / PHASE SHIFT
R L1P -0.25000                                              SYS / PHASE SHIFT
R L2P -0.25000                                              SYS / PHASE SHIFT
R L2C                                                       SYS / PHASE SHIFT
  6 R02 -4 R03  5 R15  0 R16 -1 R17  4 R18 -3               GLONASS SLOT / FRQ #
                                                            GLONASS COD/PHS/BIS
    18                  GPS                                 LEAP SECONDS
                                                            END OF HEADER
> 2025 04 04 15 41 47.0000000  0 12
G02  21228562.880   111556848.038 7      1730.782    21228561.580   111556848.046 6      1730.782    21228564.900    86927421.001 6      1348.661
G03  21708823.240   114080635.892 7      5773.896    21708822.100   114080635.894 6      5773.896    21708833.300    88894046.379 6      4499.140    21708834.100    88894048.378 7      4499.140
G08  20460129.240   107518699.595 8      2392.914    20460128.120   107518699.598 8      2392.914    20460135.400    83780833.644 8      1864.608    20460136.120    83780835.646 8      1864.608
G01  20965849.780   110176281.834 7      3209.146    20965849.180   110176281.836 6      3209.146    20965854.260    85851666.943 6      2500.633    20965854.720    85851666.947 8      2500.633
R15  20545003.120   109786260.621 8        44.539    20545003.420   109786260.627 7        44.539    20545014.720    85389364.906 8        34.642    20545014.920    85389365.910 7        34.642
R17  20820362.880   111413963.300 6      1853.500    20820362.420   111413963.289 6      1853.500    20820374.620    86655354.051 7      1441.611    20820373.760    86655352.060 7      1441.611
G27  22324006.980   117313442.679 7       624.130    22324005.960   117313442.681 7       624.130    22324016.960    91413111.921 7       486.335    22324017.280    91413113.923 7       486.335
R02  21254837.520   113419886.832 8      3846.950    21254837.800   113419886.835 8      3846.950    21254849.540    88215514.515 8      2992.072    21254850.020    88215517.515 8      2992.072
R18  21272075.040   113551784.051 6      3490.198    21272079.760   113551784.043 5      3490.198    21272082.800    88318096.128 5      2714.598    21272085.080    88318103.135 5      2714.598
R03  22344888.640   119613945.067 6      6430.328    22344887.300   119613945.087 6      6430.328    22344911.120    93033157.619 7      5001.366    22344910.960    93033157.615 7      5001.366
G32  24684640.000   129718659.612 7      3224.416    24684639.660   129718659.614 6      3224.416    24684655.000   101079537.536 6      2512.532    24684655.540   101079538.545 7      2512.532
G07  24468236.260   128581443.966 6      1073.607    24468233.560   128581443.968 2      1073.607    24468254.140   100193383.409 3       836.577    24468256.340   100193413.310 6       836.577
> 2025 04 04 15 41 48.0000000  0 12
G02  21228233.540   111555116.762 7      1732.039    21228232.000   111555116.766 6      1732.039    21228235.360    86926071.966 6      1349.641
G03  21707724.220   114074861.601 7      5774.862    21707723.260   114074861.606 6      5774.862    21707734.500    88889546.948 6      4499.892    21707735.060    88889548.953 7      4499.892
G08  20459673.860   107516306.184 8      2394.014    20459672.680   107516306.186 8      2394.014    20459679.880    83778968.656 8      1865.465    20459680.740    83778970.663 8      1865.465
G01  20965239.240   110173072.258 7      3210.175    20965238.520   110173072.263 6      3210.175    20965243.520    85849165.991 6      2501.435    20965244.020    85849165.997 8      2501.435
R15  20544994.660   109786215.782 8        45.400    20544995.280   109786215.788 7        45.400    20545006.200    85389330.039 8        35.311    20545006.560    85389331.041 7        35.311
R17  20820016.400   111412109.015 6      1855.161    20820016.240   111412108.987 6      1855.161    20820027.640    86653911.829 7      1442.903    20820027.240    86653909.838 7      1442.903
G27  22323888.060   117312818.168 7       625.210    22323887.200   117312818.175 7       625.210    22323898.160    91412625.295 7       487.176    22323898.520    91412627.294 8       487.176
R02  21254116.840   113416039.619 8      3847.661    21254116.760   113416039.620 7      3847.661    21254128.600    88212522.245 8      2992.625    21254129.120    88212525.244 7      2992.625
R18  21271420.580   113548293.419 6      3491.470    21271426.580   113548293.433 5      3491.470    21271428.580    88315381.204 5      2715.588    21271430.920    88315388.211 5      2715.588
R03  22343687.700   119607514.133 6      6431.611    22343686.020   119607514.158 6      6431.611    22343710.020    93028155.807 7      5002.364    22343709.800    93028155.796 7      5002.364
G32  24684026.240   129715434.594 7      3225.727    24684025.940   129715434.591 6      3225.727    24684041.260   101077024.543 6      2513.553    24684041.680   101077025.557 7      2513.553
G07  24468031.780   128580369.810 6      1074.872    24468029.300   128580369.813 2      1074.872    24468049.940   100192546.392 3       837.562    24468052.220   100192576.303 6       837.562
> 2025 04 04 15 41 49.0000000  0 12
G02  21227903.920   111553384.518 7      1732.474    21227902.560   111553384.520 6      1732.474    21227905.760    86924722.170 6      1349.980
G03  21706625.340   114069086.590 7      5775.065    21706624.280   114069086.592 6      5775.065    21706635.660    88885046.954 6      4500.051    21706635.980    88885048.959 7      4500.051
G08  20459218.140   107513912.022 8      2394.209    20459217.120   107513912.021 8      2394.209    20459224.360    83777103.081 8      1865.618    20459225.240    83777105.084 8      1865.618
G01  20964628.240   110169861.878 8      3210.487    20964627.600   110169861.883 6      3210.487    20964632.480    85846664.409 6      2501.678    20964633.040    85846664.419 8      2501.678
R15  20544985.900   109786170.480 7        45.346    20544986.680   109786170.484 8        45.346    20544997.940    85389294.813 8        35.269    20544997.840    85389295.815 8        35.269
R17  20819669.560   111410253.668 6      1855.737    20819669.440   111410253.637 6      1855.737    20819681.680    86652468.787 7      1443.351    20819680.640    86652466.796 7      1443.351
G27  22323769.040   117312192.824 7       625.508    22323768.140   117312192.831 7       625.508    22323779.180    91412138.020 7       487.409    22323779.380    91412140.021 8       487.409
R02  21253396.200   113412192.049 8      3847.556    21253395.760   113412192.047 7      3847.556    21253407.500    88209529.704 8      2992.544    21253408.200    88209532.704 7      2992.544
R18  21270766.180   113544801.826 6      3491.498    21270771.780   113544801.829 5      3491.498    21270775.080    88312665.517 5      2715.610    21270776.900    88312672.516 5      2715.610
R03  22342485.660   119601082.238 6      6432.081    22342484.840   119601082.253 6      6432.081    22342508.660    93023153.259 7      5002.730    22342508.220    93023153.255 7      5002.730
G32  24683412.360   129712208.935 7      3225.745    24683411.960   129712208.937 6      3225.745    24683427.220   101074511.067 6      2513.568    24683427.660   101074512.083 7      2513.568
G07  24467826.900   128579294.783 6      1075.320    24467824.660   128579294.787 2      1075.320    24467845.320   100191708.704 3       837.912    24467848.360   100191738.619 6       837.912
> 2025 04 04 15 41 50.0000000  0 12
G02  21227574.420   111551651.615 7      1733.255    21227572.660   111551651.622 6      1733.255    21227575.980    86923371.868 6      1350.588
G03  21705526.560   114063311.159 7      5775.660    21705525.260   114063311.164 6      5775.660    21705536.640    88880546.641 6      4500.514    21705537.180    88880548.642 7      4500.514
G08  20458762.480   107511517.373 8      2394.919    20458761.360   107511517.378 8      2394.919    20458768.660    83775237.135 8      1866.170    20458769.500    83775239.140 8      1866.170
G01  20964017.100   110166651.023 7      3211.179    20964016.520   110166651.028 6      3211.179    20964021.400    85844162.453 6      2502.217    20964021.960    85844162.458 8      2502.217
R15  20544977.640   109786125.000 8        45.645    20544977.980   109786125.001 7        45.645    20544989.280    85389259.448 8        35.502    20544989.500    85389260.450 8        35.502
R17  20819322.680   111408397.518 6      1856.670    20819322.540   111408397.511 6      1856.670    20819334.320    86651025.136 7      1444.077    20819333.380    86651023.145 7      1444.077
G27  22323650.080   117311566.970 7       626.151    22323648.920   117311566.972 7       626.151    22323660.020    91411650.346 7       487.910    22323660.540    91411652.345 8       487.910
R02  21252675.300   113408344.401 8      3847.802    21252674.660   113408344.402 7      3847.802    21252686.340    88206537.110 8      2992.735    21252686.860    88206540.110 7      2992.735
R18  21270111.600   113541309.488 6      3492.570    21270117.820   113541309.492 5      3492.570    21270120.580    88309949.263 5      2716.443    21270122.400    88309956.259 5      2716.443
R03  22341283.480   119594649.682 6      6432.933    22341283.220   119594649.713 6      6432.933    22341306.400    93018150.204 7      5003.393    22341306.300    93018150.198 7      5003.393
G32  24682798.360   129708982.903 7      3226.241    24682798.020   129708982.908 6      3226.241    24682813.440   101071997.296 6      2513.954    24682814.020   101071998.300 6      2513.954
G07  24467622.440   128578219.072 6      1076.152    24467620.040   128578219.074 3      1076.152    24467640.460   100190870.480 3       838.560    24467643.060   100190900.405 5       838.560
> 2025 04 04 15 41 51.0000000  0 12
G02  21227244.540   111549917.881 7      1734.160    21227242.740   111549917.889 6      1734.160    21227246.040    86922020.917 6      1351.294
G03  21704427.140   114057535.147 7      5776.311    21704426.020   114057535.152 6      5776.311    21704437.400    88876045.869 6      4501.022    21704437.840    88876047.874 7      4501.022
G08  20458306.580   107509122.125 8      2395.590    20458305.620   107509122.127 8      2395.590    20458312.800    83773370.719 8      1866.694    20458313.620    83773372.721 8      1866.694
G01  20963406.080   110163439.523 7      3211.833    20963405.540   110163439.528 6      3211.833    20963410.340    85841659.993 6      2502.727    20963410.740    85841659.999 8      2502.727
R15  20544969.180   109786079.173 8        46.050    20544969.640   109786079.176 7        46.050    20544980.780    85389223.806 8        35.817    20544980.660    85389224.811 8        35.817
R17  20818976.160   111406540.464 6      1857.555    20818975.600   111406540.457 6      1857.555    20818987.240    86649580.773 7      1444.765    20818986.720    86649578.777 7      1444.765
G27  22323530.760   117310940.423 7       626.928    22323529.700   117310940.425 7       626.928    22323540.900    91411162.131 7       488.516    22323541.080    91411164.132 8       488.516
R02  21251953.920   113404496.511 8      3848.047    21251953.620   113404496.512 7      3848.047    21251965.360    88203544.323 8      2992.925    21251965.880    88203547.325 7      2992.925
R18  21269457.720   113537816.259 5      3493.810    21269462.840   113537816.249 5      3493.810    21269466.760    88307232.300 5      2717.408    21269468.320    88307239.303 5      2717.408
R03  22340082.040   119588216.371 6      6433.565    22340081.660   119588216.391 6      6433.565    22340104.720    93013146.541 7      5003.884    22340104.320    93013146.530 7      5003.884
G32  24682184.620   129705756.311 7      3226.995    24682184.000   129705756.316 6      3226.995    24682199.620   101069483.079 6      2514.542    24682200.220   101069484.087 7      2514.542
G07  24467417.400   128577142.591 6      1076.870    24467415.160   128577142.590 3      1076.870    24467435.380   100190031.657 3       839.119    24467436.540   100190061.586 5       839.119
> 2025 04 04 15 41 52.0000000  0 12
G02  21226914.560   111548183.491 7      1734.605    21226912.720   111548183.496 6      1734.605    21226916.040    86920669.450 6      1351.640
G03  21703328.080   114051758.733 7      5776.413    21703326.900   114051758.741 6      5776.413    21703338.160    88871544.788 6      4501.101    21703338.880    88871546.792 8      4501.101
G08  20457850.740   107506726.438 8      2395.736    20457849.580   107506726.435 8      2395.736    20457857.040    83771503.958 8      1866.808    20457857.740    83771505.961 8      1866.808
G01  20962794.840   110160227.522 7      3212.065    20962794.180   110160227.532 6      3212.065    20962799.200    85839157.151 6      2502.908    20962799.480    85839157.159 8      2502.908
R15  20544960.360   109786033.198 8        45.906    20544960.880   109786033.199 7        45.906    20544972.240    85389188.055 8        35.705    20544971.980    85389189.059 8        35.705
R17  20818628.660   111404682.628 6      1858.060    20818628.640   111404682.624 6      1858.060    20818640.000    86648135.800 7      1445.158    20818639.160    86648133.809 7      1445.158
G27  22323411.380   117310313.358 7       627.175    22323410.380   117310313.363 7       627.175    22323421.680    91410673.518 7       488.708    22323421.900    91410675.520 8       488.708
R02  21251232.720   113400648.570 8      3847.725    21251232.500   113400648.570 7      3847.725    21251244.200    88200551.489 8      2992.675    21251244.500    88200554.492 7      2992.675
R18  21268804.760   113534322.294 5      3494.136    21268808.320   113534322.295 5      3494.136    21268811.680    88304514.805 5      2717.661    21268813.500    88304521.797 5      2717.661
R03  22338880.020   119581782.330 6      6434.057    22338879.060   119581782.355 6      6434.057    22338902.540    93008142.336 7      5004.267    22338902.440    93008142.334 7      5004.267
G32  24681570.740   129702529.367 6      3226.977    24681569.840   129702529.375 6      3226.977    24681585.480   101066968.602 6      2514.527    24681586.200   101066969.620 7      2514.527
G07  24467212.620   128576065.482 6      1077.295    24467210.360   128576065.484 3      1077.295    24467230.420   100189192.341 3       839.450    24467231.820   100189222.234 5       839.450
> 2025 04 04 15 41 53.0000000  0 12
G02  21226584.420   111546448.341 7      1735.637    21226582.460   111546448.346 6      1735.637    21226585.920    86919317.396 6      1352.445
G03  21702228.820   114045981.802 7      5777.294    21702227.640   114045981.807 6      5777.294    21702238.860    88867043.301 6      4501.787    21702239.580    88867045.306 8      4501.787
G08  20457394.840   107504330.192 8      2396.537    20457393.720   107504330.192 8      2396.537    20457401.020    83769636.759 8      1867.431    20457401.560    83769638.762 8      1867.431
G01  20962183.720   110157014.946 7      3212.948    20962182.880   110157014.950 6      3212.948    20962187.700    85836653.857 6      2503.596    20962187.980    85836653.863 8      2503.596
R15  20544951.600   109785986.983 8        46.427    20544952.400   109785986.984 7        46.427    20544963.640    85389152.118 7        36.110    20544963.440    85389153.118 7        36.110
R17  20818280.920   111402823.998 6      1859.164    20818281.200   111402823.975 6      1859.164    20818292.880    86646690.194 7      1446.016    20818291.980    86646688.203 7      1446.016
G27  22323292.140   117309685.696 7       627.991    22323290.960   117309685.699 7       627.991    22323302.060    91410184.435 7       489.344    22323302.040    91410186.433 7       489.344
R02  21250511.640   113396800.490 8      3848.208    21250511.800   113396800.488 7      3848.208    21250523.040    88197558.554 8      2993.051    21250523.520    88197561.552 8      2993.051
R18  21268150.120   113530827.565 5      3494.978    21268152.680   113530827.563 5      3494.978    21268157.580    88301796.670 5      2718.316    21268159.420    88301803.654 5      2718.316
R03  22337677.800   119575347.560 6      6435.124    22337677.840   119575347.580 6      6435.124    22337700.240    93003137.545 7      5005.096    22337700.180    93003137.534 7      5005.096
G32  24680956.820   129699301.969 7      3227.714    24680955.680   129699301.974 6      3227.714    24680971.700   101064453.763 6      2515.102    24680971.740   101064454.778 6      2515.102
G07  24467007.600   128574987.656 6      1078.139    24467005.220   128574987.658 3      1078.139    24467025.320   100188352.469 3       840.108    24467027.840   100188382.349 5       840.108
> 2025 04 04 15 41 54.0000000  0 12
G02  21226254.020   111544712.193 7      1736.484    21226252.180   111544712.193 6      1736.484    21226255.480    86917964.562 6      1353.104
G03  21701129.540   114040204.106 7      5777.960    21701128.080   114040204.108 6      5777.960    21701139.420    88862541.211 6      4502.306    21701140.120    88862543.217 8      4502.306
G08  20456938.600   107501933.134 8      2397.242    20456937.720   107501933.139 8      2397.242    20456944.920    83767768.936 8      1867.981    20456945.740    83767770.939 8      1867.981
G01  20961572.140   110153801.526 7      3213.666    20961571.300   110153801.536 6      3213.666    20961576.320    85834149.909 6      2504.155    20961576.700    85834149.918 8      2504.155
R15  20544943.220   109785940.239 8        46.931    20544943.600   109785940.238 7        46.931    20544954.900    85389115.762 8        36.502    20544954.920    85389116.764 8        36.502
R17  20817933.020   111400964.254 6      1859.961    20817933.260   111400964.248 6      1859.961    20817944.740    86645243.748 7      1446.636    20817944.480    86645241.751 7      1446.636
G27  22323172.360   117309057.147 7       628.787    22323171.320   117309057.149 7       628.787    22323182.540    91409694.658 7       489.964    22323182.680    91409696.661 8       489.964
R02  21249790.840   113392952.050 8      3848.445    21249790.460   113392952.051 7      3848.445    21249801.800    88194565.340 8      2993.235    21249802.200    88194568.339 7      2993.235
R18  21267495.380   113527331.747 5      3495.886    21267497.940   113527331.742 5      3495.886    21267502.080    88299077.729 5      2719.023    21267504.700    88299084.722 5      2719.023
R03  22336475.460   119568911.779 6      6436.127    22336475.300   119568911.805 6      6436.127    22336498.440    92998131.981 7      5005.877    22336498.060    92998131.973 7      5005.877
G32  24680342.460   129696073.848 7      3228.294    24680341.540   129696073.847 6      3228.294    24680357.360   101061938.356 6      2515.554    24680357.140   101061939.357 7      2515.554
G07  24466801.980   128573908.802 6      1079.235    24466799.920   128573908.802 3      1079.235    24466820.180   100187511.795 3       840.962    24466821.820   100187541.706 5       840.962
> 2025 04 04 15 41 55.0000000  0 12
G02  21225923.340   111542975.110 7      1737.603    21225921.740   111542975.112 6      1737.603    21225924.760    86916611.002 6      1353.976
G03  21700030.040   114034425.740 7      5778.826    21700028.620   114034425.742 6      5778.826    21700039.900    88858038.612 6      4502.981    21700040.400    88858040.619 8      4502.981
G08  20456482.320   107499535.353 8      2398.305    20456481.380   107499535.358 8      2398.305    20456488.720    83765900.542 8      1868.809    20456489.640    83765902.546 8      1868.809
G01  20960960.460   110150587.359 8      3214.752    20960959.660   110150587.369 6      3214.752    20960964.720    85831645.375 6      2505.001    20960965.120    85831645.387 8      2505.001
R15  20544934.260   109785893.065 8        47.499    20544934.860   109785893.072 8        47.499    20544946.260    85389079.077 8        36.943    20544946.120    85389080.081 8        36.943
R17  20817585.680   111399103.457 6      1861.460    20817586.680   111399103.442 6      1861.460    20817596.680    86643796.470 7      1447.802    20817596.820    86643794.472 7      1447.802
G27  22323052.760   117308427.817 7       629.898    22323051.600   117308427.817 7       629.898    22323062.720    91409204.277 7       490.830    22323063.060    91409206.276 8       490.830
R02  21249069.420   113389103.343 8      3848.972    21249069.260   113389103.346 7      3848.972    21249080.540    88191571.916 8      2993.645    21249080.860    88191574.915 7      2993.645
R18  21266840.560   113523834.869 5      3497.700    21266842.160   113523834.873 5      3497.700    21266847.120    88296357.940 5      2720.433    21266849.280    88296364.932 5      2720.433
R03  22335273.200   119562475.133 6      6437.261    22335272.240   119562475.148 6      6437.261    22335295.800    92993125.736 7      5006.759    22335295.660    92993125.730 7      5006.759
G32  24679727.960   129692845.072 7      3229.106    24679726.980   129692845.080 6      3229.106    24679742.860   101059422.446 6      2516.187    24679742.940   101059423.470 7      2516.187
G07  24466596.680   128572829.079 6      1080.294    24466594.460   128572829.079 3      1080.294    24466614.700   100186670.448 3       841.788    24466616.040   100186700.365 5       841.788
> 2025 04 04 15 41 56.0000000  0 12
G02  21225592.720   111541237.209 7      1738.290    21225590.860   111541237.217 6      1738.290    21225594.100    86915256.802 6      1354.512
G03  21698930.180   114028646.809 7      5779.196    21698928.980   114028646.814 6      5779.196    21698940.180    88853535.574 6      4503.270    21698941.120    88853537.574 8      4503.270
G08  20456025.980   107497136.974 8      2398.688    20456024.900   107497136.978 8      2398.688    20456032.240    83764031.687 8      1869.108    20456033.080    83764033.691 8      1869.108
G01  20960348.640   110147372.568 7      3215.108    20960348.000   110147372.573 6      3215.108    20960352.980    85829140.354 6      2505.279    20960353.180    85829140.361 8      2505.279
R15  20544925.700   109785845.562 8        47.648    20544926.000   109785845.569 7        47.648    20544937.300    85389042.139 8        37.060    20544937.640    85389043.141 8        37.060
R17  20817238.140   111397241.723 6      1862.143    20817237.560   111397241.705 6      1862.143    20817249.100    86642348.454 7      1448.333    20817249.020    86642346.457 7      1448.333
G27  22322932.980   117307797.822 7       630.340    22322931.720   117307797.819 7       630.340    22322942.820    91408713.376 7       491.174    22322943.040    91408715.375 7       491.174
R02  21248347.680   113385254.439 8      3848.975    21248347.880   113385254.437 7      3848.975    21248359.260    88188578.336 8      2993.647    21248359.660    88188581.335 7      2993.647
R18  21266184.940   113520337.228 5      3497.965    21266186.980   113520337.243 5      3497.965    21266193.340    88293637.571 5      2720.640    21266194.260    88293644.560 5      2720.640
R03  22334071.160   119556037.711 6      6437.859    22334069.680   119556037.723 6      6437.859    22334093.120    92988118.875 7      5007.223    22334092.980    92988118.863 7      5007.223
G32  24679113.500   129689615.766 7      3229.572    24679112.460   129689615.774 6      3229.572    24679128.320   101056906.126 6      2516.549    24679128.600   101056907.135 7      2516.549
G07  24466391.020   128571748.578 6      1080.912    24466389.060   128571748.580 3      1080.912    24466408.960   100185828.489 3       842.269    24466410.940   100185858.380 5       842.269
> 2025 04 04 15 41 57.0000000  0 12
G02  21225262.000   111539498.644 7      1738.872    21225260.080   111539498.651 6      1738.872    21225263.220    86913902.090 6      1354.965
G03  21697830.240   114022867.426 7      5779.660    21697829.080   114022867.431 6      5779.660    21697840.320    88849032.175 6      4503.631    21697841.220    88849034.182 8      4503.631
G08  20455569.380   107494738.123 8      2399.120    20455568.480   107494738.126 8      2399.120    20455575.780    83762162.459 8      1869.444    20455576.560    83762164.462 8      1869.444
G01  20959736.860   110144157.266 7      3215.576    20959736.060   110144157.271 6      3215.576    20959741.160    85826634.933 6      2505.644    20959741.380    85826634.943 8      2505.644
R15  20544916.760   109785797.899 8        47.723    20544917.120   109785797.908 7        47.723    20544928.500    85389005.071 8        37.118    20544928.620    85389006.072 8        37.118
R17  20816890.160   111395379.194 6      1862.949    20816889.880   111395379.174 6      1862.949    20816900.760    86640899.829 6      1448.961    20816900.620    86640897.830 6      1448.961
G27  22322812.820   117307167.300 7       630.757    22322811.720   117307167.294 7       630.757    22322822.860    91408222.062 7       491.499    22322823.320    91408224.062 8       491.499
R02  21247626.500   113381405.420 8      3849.073    21247626.360   113381405.420 7      3849.073    21247637.960    88185584.673 8      2993.723    21247638.400    88185587.673 7      2993.723
R18  21265529.900   113516838.813 5      3498.775    21265531.680   113516838.812 5      3498.775    21265537.100    88290916.596 5      2721.270    21265538.700    88290923.591 5      2721.270
R03  22332868.620   119549599.604 6      6438.357    22332867.160   119549599.619 6      6438.357    22332890.180    92983111.496 7      5007.611    22332890.200    92983111.492 7      5007.611
G32  24678498.480   129686386.106 7      3229.739    24678497.860   129686386.116 6      3229.739    24678513.760   101054389.527 6      2516.680    24678514.220   101054390.535 7      2516.680
G07  24466185.200   128570667.431 6      1081.373    24466183.340   128570667.430 3      1081.373    24466203.500   100184986.027 3       842.628    24466204.920   100185015.962 5       842.628
> 2025 04 04 15 41 58.0000000  0 12
G02  21224930.840   111537759.185 7      1739.880    21224929.100   111537759.195 6      1739.880    21224932.240    86912546.676 6      1355.751
G03  21696730.320   114017087.439 7      5780.310    21696729.180   114017087.441 6      5780.310    21696740.520    88844528.305 6      4504.138    21696741.080    88844530.312 8      4504.138
G08  20455112.820   107492338.593 8      2399.935    20455111.860   107492338.595 8      2399.935    20455119.180    83760292.707 8      1870.079    20455120.000    83760294.708 8      1870.079
G01  20959124.980   110140941.235 7      3216.437    20959124.140   110140941.242 6      3216.437    20959129.040    85824128.946 6      2506.315    20959129.280    85824128.959 8      2506.315
R15  20544907.700   109785749.827 8        48.281    20544908.260   109785749.831 8        48.281    20544919.460    85388967.680 8        37.552    20544919.680    85388968.680 8        37.552
R17  20816541.800   111393515.718 6      1864.010    20816541.100   111393515.704 6      1864.010    20816552.440    86639450.469 6      1449.786    20816552.520    86639448.472 7      1449.786
G27  22322692.820   117306536.012 7       631.675    22322691.660   117306536.012 7       631.675    22322702.800    91407730.160 7       492.214    22322703.140    91407732.162 8       492.214
R02  21246905.220   113377556.099 8      3849.462    21246905.160   113377556.094 8      3849.462    21246916.700    88182590.772 8      2994.026    21246916.880    88182593.775 7      2994.026
R18  21264874.120   113513339.416 5      3500.167    21264876.140   113513339.420 5      3500.167    21264881.400    88288194.851 5      2722.352    21264883.120    88288201.844 5      2722.352
R03  22331665.740   119543160.587 6      6439.327    22331664.100   119543160.607 6      6439.327    22331687.400    92978103.409 7      5008.365    22331687.200    92978103.401 7      5008.365
G32  24677883.940   129683155.822 7      3230.499    24677883.300   129683155.830 6      3230.499    24677898.960   101051872.438 6      2517.272    24677899.200   101051873.452 7      2517.272
G07  24465979.700   128569585.400 6      1082.415    24465977.400   128569585.403 3      1082.415    24465997.700   100184142.884 3       843.440    24465998.720   100184172.797 5       843.440
> 2025 04 04 15 41 59.0000000  0 12
G02  21224599.960   111536019.054 7      1740.397    21224597.980   111536019.064 6      1740.397    21224601.220    86911190.742 6      1356.154
G03  21695630.340   114011306.994 7      5780.760    21695629.260   114011306.999 6      5780.760    21695640.420    88840024.083 6      4504.488    21695640.920    88840026.088 8      4504.488
G08  20454656.220   107489938.610 8      2400.216    20454655.180   107489938.610 8      2400.216    20454662.480    83758422.593 8      1870.298    20454663.460    83758424.593 8      1870.298
G01  20958512.940   110137724.722 8      3216.758    20958512.080   110137724.729 6      3216.758    20958517.180    85821622.583 6      2506.565    20958517.180    85821622.594 8      2506.565
R15  20544898.780   109785701.619 8        48.259    20544899.160   109785701.618 8        48.259    20544910.460    85388930.181 8        37.535    20544910.440    85388931.185 8        37.535
R17  20816193.300   111391651.496 6      1864.538    20816192.680   111391651.484 6      1864.538    20816204.000    86638000.531 6      1450.196    20816204.000    86637998.530 7      1450.196
G27  22322572.500   117305904.212 7       631.976    22322571.480   117305904.212 7       631.976    22322582.540    91407237.846 7       492.449    22322582.640    91407239.847 8       492.449
R02  21246183.760   113373706.733 8      3849.347    21246183.900   113373706.734 8      3849.347    21246195.300    88179596.833 8      2993.937    21246195.760    88179599.830 7      2993.937
R18  21264219.100   113509839.355 5      3500.267    21264219.880   113509839.388 5      3500.267    21264226.140    88285472.625 5      2722.430    21264227.380    88285479.613 5      2722.430
R03  22330462.480   119536720.917 6      6439.816    22330461.380   119536720.942 6      6439.816    22330484.280    92973094.825 7      5008.746    22330484.580    92973094.816 7      5008.746
G32  24677269.100   129679925.189 7      3230.718    24677268.520   129679925.192 6      3230.718    24677284.160   101049355.074 6      2517.443    24677284.560   101049356.075 6      2517.443
G07  24465773.940   128568502.734 6      1082.995    24465771.460   128568502.739 3      1082.995    24465791.600   100183299.238 3       843.893    24465792.880   100183329.145 5       843.893
> 2025 04 04 15 42  0.0000000  0 12
G02  21224268.680   111534278.252 7      1741.073    21224266.700   111534278.257 6      1741.073    21224269.980    86909834.279 6      1356.680
G03  21694530.440   114005526.161 7      5780.965    21694529.100   114005526.169 6      5780.965    21694540.380    88835519.556 6      4504.648    21694540.880    88835521.565 8      4504.648
G08  20454199.480   107487538.149 8      2400.652    20454198.360   107487538.149 8      2400.652    20454205.620    83756552.114 8      1870.638    20454206.700    83756554.115 8      1870.638
G01  20957900.900   110134507.718 7      3217.113    20957899.860   110134507.728 6      3217.113    20957904.840    85819115.843 6      2506.841    20957905.060    85819115.852 8      2506.841
R15  20544889.780   109785653.240 8        48.397    20544889.880   109785653.238 8        48.397    20544901.400    85388892.563 8        37.642    20544901.560    85388893.561 8        37.642
R17  20815844.620   111389786.449 6      1865.354    20815843.920   111389786.435 6      1865.354    20815855.120    86636549.952 6      1450.831    20815855.540    86636547.955 7      1450.831
G27  22322452.160   117305271.869 7       632.555    22322451.080   117305271.868 7       632.555    22322462.220    91406745.121 7       492.900    22322462.260    91406747.120 8       492.900
R02  21245462.540   113369857.333 8      3849.311    21245462.460   113369857.336 8      3849.311    21245473.980    88176602.869 8      2993.909    21245474.120    88176605.871 7      2993.909
R18  21263563.240   113506338.556 5      3501.346    21263563.600   113506338.552 5      3501.346    21263569.720    88282749.765 5      2723.269    21263571.900    88282756.762 5      2723.269
R03  22329259.420   119530280.585 6      6440.619    22329258.520   119530280.592 6      6440.619    22329281.100    92968085.695 7      5009.371    22329281.360    92968085.689 7      5009.371
G32  24676654.300   129676694.139 7      3231.216    24676653.580   129676694.144 6      3231.216    24676669.160   101046837.382 6      2517.831    24676669.300   101046838.384 7      2517.831
G07  24465567.940   128567419.425 6      1083.441    24465565.420   128567419.429 3      1083.441    24465585.500   100182455.090 3       844.240    24465587.140   100182484.993 5       844.240
> 2025 04 04 15 42  1.0000000  0 12
G02  21223937.100   111532536.762 7      1742.036    21223935.280   111532536.770 6      1742.036    21223938.480    86908477.282 6      1357.431
G03  21693430.180   113999744.884 7      5781.581    21693429.040   113999744.891 6      5781.581    21693440.340    88831014.687 6      4505.128    21693440.580    88831016.686 8      4505.128
G08  20453742.680   107485137.210 8      2401.370    20453741.540   107485137.210 8      2401.370    20453748.780    83754681.265 8      1871.197    20453749.680    83754683.270 8      1871.197
G01  20957288.400   110131290.189 7      3217.948    20957287.540   110131290.199 6      3217.948    20957292.540    85816608.686 6      2507.492    20957292.760    85816608.690 8      2507.492
R15  20544880.360   109785604.660 8        48.836    20544880.740   109785604.664 7        48.836    20544892.360    85388854.785 8        37.984    20544892.220    85388855.787 8        37.984
R17  20815496.480   111387920.648 6      1866.343    20815495.640   111387920.637 6      1866.343    20815505.960    86635098.780 6      1451.600    20815506.660    86635096.776 6      1451.600
G27  22322332.000   117304638.999 7       633.241    22322330.660   117304638.999 7       633.241    22322341.920    91406251.983 7       493.435    22322341.920    91406253.983 8       493.435
R02  21244741.380   113366007.913 8      3849.498    21244741.080   113366007.914 7      3849.498    21244752.540    88173608.891 8      2994.054    21244752.880    88173611.893 7      2994.054
R18  21262906.460   113502837.000 5      3502.352    21262908.800   113502837.001 5      3502.352    21262914.740    88280026.349 5      2724.051    21262916.240    88280033.348 5      2724.051
R03  22328056.380   119523839.582 6      6441.513    22328055.680   119523839.597 6      6441.513    22328078.040    92963076.069 7      5010.066    22328077.760    92963076.061 7      5010.066
G32  24676039.340   129673462.704 7      3231.742    24676038.680   129673462.709 6      3231.742    24676054.360   101044319.402 6      2518.240    24676054.680   101044320.403 7      2518.240
G07  24465361.480   128566335.487 6      1084.454    24465359.200   128566335.489 3      1084.454    24465379.480   100181610.451 3       845.029    24465380.560   100181640.372 5       845.029
> 2025 04 04 15 42  2.0000000  0 12
G02  21223605.480   111530794.437 7      1742.695    21223603.640   111530794.442 6      1742.695    21223607.000    86907119.638 6      1357.944
G03  21692329.760   113993962.999 7      5782.114    21692328.780   113993963.012 6      5782.114    21692339.940    88826509.333 6      4505.543    21692340.420    88826511.344 8      4505.543
G08  20453285.600   107482735.641 8      2401.863    20453284.520   107482735.640 8      2401.863    20453291.860    83752809.922 8      1871.581    20453292.620    83752811.925 8      1871.581
G01  20956676.020   110128071.984 7      3218.490    20956675.100   110128071.991 6      3218.490    20956680.140    85814101.008 6      2507.915    20956680.280    85814101.020 8      2507.915
R15  20544871.560   109785555.741 8        49.025    20544871.680   109785555.743 7        49.025    20544883.200    85388816.745 7        38.130    20544883.280    85388817.748 7        38.130
R17  20815147.200   111386053.839 6      1867.382    20815146.920   111386053.832 6      1867.382    20815157.060    86633646.829 6      1452.408    20815157.800    86633644.832 6      1452.408
G27  22322211.460   117304005.413 7       633.882    22322210.040   117304005.415 7       633.882    22322221.240    91405758.283 7       493.934    22322221.280    91405760.281 8       493.934
R02  21244019.800   113362158.241 8      3849.684    21244019.700   113362158.241 7      3849.684    21244031.220    88170614.720 8      2994.199    21244031.380    88170617.721 7      2994.199
R18  21262250.200   113499334.576 5      3502.958    21262252.040   113499334.574 5      3502.958    21262258.000    88277302.248 5      2724.523    21262260.140    88277309.232 6      2724.523
R03  22326852.880   119517397.773 6      6442.049    22326852.380   119517397.799 6      6442.049    22326874.440    92958065.824 7      5010.483    22326874.780    92958065.820 7      5010.483
G32  24675424.400   129670230.700 7      3232.243    24675423.640   129670230.705 6      3232.243    24675439.040   101041800.971 6      2518.631    24675439.780   101041801.993 7      2518.631
G07  24465154.940   128565250.692 6      1085.155    24465152.740   128565250.697 3      1085.155    24465172.980   100180765.147 3       845.575    24465174.600   100180795.066 5       845.575
> 2025 04 04 15 42  3.0000000  0 12
G02  21223273.720   111529051.326 7      1743.420    21223271.900   111529051.331 6      1743.420    21223275.180    86905761.382 6      1358.509
G03  21691229.360   113988180.597 7      5782.623    21691228.320   113988180.605 6      5782.623    21691239.620    88822003.586 6      4505.940    21691240.020    88822005.590 7      4505.940
G08  20452828.500   107480333.498 8      2402.397    20452827.440   107480333.498 8      2402.397    20452834.680    83750938.131 8      1871.998    20452835.340    83750940.134 8      1871.998
G01  20956063.300   110124853.188 7      3219.065    20956062.620   110124853.198 6      3219.065    20956067.580    85811592.870 6      2508.362    20956067.740    85811592.878 8      2508.362
R15  20544862.320   109785506.561 8        49.259    20544862.460   109785506.559 8        49.259    20544873.840    85388778.494 8        38.313    20544874.040    85388779.492 8        38.313
R17  20814797.940   111384186.186 6      1868.154    20814798.440   111384186.180 6      1868.154    20814807.880    86632194.227 6      1453.009    20814808.740    86632192.228 6      1453.009
G27  22322090.720   117303371.193 7       634.619    22322089.300   117303371.193 7       634.619    22322100.540    91405264.090 7       494.508    22322100.720    91405266.092 7       494.508
R02  21243298.240   113358308.411 8      3849.842    21243298.260   113358308.414 7      3849.842    21243309.620    88167620.428 8      2994.321    21243310.100    88167623.432 7      2994.321
R18  21261594.340   113495831.282 5      3503.666    21261595.860   113495831.302 5      3503.666    21261601.600    88274577.520 5      2725.074    21261604.200    88274584.504 6      2725.074
R03  22325648.720   119510955.189 6      6442.775    22325648.520   119510955.206 6      6442.775    22325670.880    92953054.962 7      5011.047    22325671.220    92953054.953 7      5011.047
G32  24674809.240   129666998.228 7      3232.630    24674808.500   129666998.235 6      3232.630    24674823.960   101039282.195 6      2518.933    24674824.300   101039283.212 7      2518.933
G07  24464948.260   128564165.183 6      1085.755    24464946.300   128564165.188 3      1085.755    24464966.400   100179919.289 3       846.043    24464968.720   100179949.210 5       846.043
> 2025 04 04 15 42  4.0000000  0 12
G02  21222941.840   111527307.450 7      1744.314    21222940.080   111527307.458 6      1744.314    21222943.400    86904402.530 6      1359.205
G03  21690128.980   113982397.691 7      5783.048    21690127.880   113982397.696 6      5783.048    21690139.140    88817497.448 6      4506.271    21690139.860    88817499.450 8      4506.271
G08  20452371.100   107477930.815 8      2403.035    20452370.120   107477930.812 8      2403.035    20452377.460    83749065.914 8      1872.495    20452378.060    83749067.919 8      1872.495
G01  20955450.680   110121633.811 7      3219.699    20955449.940   110121633.821 6      3219.699    20955455.020    85809084.275 6      2508.856    20955455.040    85809084.285 8      2508.856
R15  20544853.000   109785457.083 7        49.730    20544853.220   109785457.087 7        49.730    20544864.620    85388740.024 8        38.679    20544864.740    85388741.026 8        38.679
R17  20814448.900   111382317.678 6      1868.959    20814448.900   111382317.698 6      1868.959    20814459.080    86630740.964 6      1453.635    20814459.520    86630738.970 6      1453.635
G27  22321969.880   117302736.380 7       635.103    22321968.620   117302736.377 7       635.103    22321979.820    91404769.438 7       494.885    22321980.060    91404771.437 7       494.885
R02  21242576.740   113354458.420 8      3850.092    21242576.920   113354458.421 7      3850.092    21242588.340    88164626.006 8      2994.516    21242588.600    88164629.003 8      2994.516
R18  21260936.600   113492327.198 5      3504.585    21260938.820   113492327.229 5      3504.585    21260945.800    88271852.127 5      2725.788    21260947.440    88271859.126 6      2725.788
R03  22324444.920   119504511.908 6      6443.484    22324444.800   119504511.933 6      6443.484    22324466.880    92948043.548 7      5011.599    22324467.660    92948043.544 7      5011.599
G32  24674194.000   129663765.306 7      3233.217    24674193.240   129663765.311 6      3233.217    24674208.760   101036763.058 6      2519.390    24674209.020   101036764.065 6      2519.390
G07  24464741.480   128563078.923 6      1086.788    24464739.760   128563078.925 3      1086.788    24464759.740   100179072.840 3       846.848    24464761.340   100179102.747 5       846.848
> 2025 04 04 15 42  5.0000000  0 12
G02  21222609.880   111525562.747 7      1745.301    21222608.000   111525562.754 6      1745.301    21222611.340    86903043.025 6      1359.975
G03  21689028.560   113976614.154 7      5784.021    21689027.280   113976614.159 6      5784.021    21689038.600    88812990.810 6      4507.030    21689039.220    88812992.816 7      4507.030
G08  20451913.880   107475527.493 8      2403.732    20451912.720   107475527.497 8      2403.732    20451920.160    83747193.214 8      1873.038    20451920.880    83747195.219 8      1873.038
G01  20954837.960   110118413.757 7      3220.571    20954837.140   110118413.767 6      3220.571    20954842.200    85806575.150 6      2509.536    20954842.420    85806575.160 8      2509.536
R15  20544843.580   109785407.251 8        50.111    20544844.100   109785407.255 7        50.111    20544855.360    85388701.273 8        38.975    20544855.320    85388702.273 8        38.975
R17  20814099.580   111380448.249 6      1869.964    20814099.520   111380448.256 6      1869.964    20814108.920    86629286.965 6      1454.417    20814110.100    86629284.966 6      1454.417
G27  22321849.040   117302100.852 7       636.000    22321847.700   117302100.851 7       636.000    22321858.800    91404274.223 7       495.585    22321858.760    91404276.222 7       495.585
R02  21241855.380   113350608.193 8      3850.483    21241855.080   113350608.193 7      3850.483    21241866.640    88161631.382 8      2994.820    21241867.080    88161634.380 7      2994.820
R18  21260279.400   113488822.258 5      3505.583    21260281.920   113488822.242 5      3505.583    21260289.820    88269126.054 5      2726.564    21260290.740    88269133.051 6      2726.564
R03  22323241.980   119498067.744 6      6444.734    22323240.800   119498067.756 6      6444.734    22323263.300    92943031.447 7      5012.571    22323263.320    92943031.443 7      5012.571
G32  24673578.780   129660531.794 7      3233.870    24673577.860   129660531.799 6      3233.870    24673593.340   101034243.435 6      2519.899    24673593.840   101034244.447 6      2519.899
G07  24464534.400   128561991.877 6      1087.633    24464532.840   128561991.879 3      1087.633    24464552.880   100178225.783 3       847.506    24464555.000   100178255.706 5       847.506
> 2025 04 04 15 42  6.0000000  0 12
G02  21222277.960   111523817.171 7      1746.025    21222275.840   111523817.179 6      1746.025    21222279.080    86901682.847 6      1360.539
G03  21687927.960   113970830.021 7      5784.616    21687926.680   113970830.028 6      5784.616    21687937.800    88808483.717 6      4507.493    21687938.500    88808485.724 8      4507.493
G08  20451456.260   107473123.514 8      2404.380    20451455.240   107473123.511 8      2404.380    20451462.660    83745319.988 8      1873.543    20451463.320    83745321.990 8      1873.543
G01  20954225.080   110115193.035 7      3221.066    20954224.300   110115193.042 6      3221.066    20954229.280    85804065.504 6      2509.922    20954229.580    85804065.519 8      2509.922
R15  20544834.420   109785357.031 8        50.440    20544834.580   109785357.035 7        50.440    20544846.120    85388662.211 8        39.231    20544846.240    85388663.209 8        39.231
R17  20813749.920   111378577.814 6      1870.936    20813750.180   111378577.837 6      1870.936    20813759.620    86627832.199 6      1455.173    20813760.520    86627830.210 6      1455.173
G27  22321727.680   117301464.611 7       636.649    22321726.460   117301464.611 7       636.649    22321737.560    91403778.460 7       496.090    22321738.040    91403780.454 7       496.090
R02  21241133.900   113346757.746 8      3850.557    21241133.540   113346757.744 7      3850.557    21241145.060    88158636.620 7      2994.878    21241145.460    88158639.619 7      2994.878
R18  21259623.240   113485316.417 5      3506.197    21259625.800   113485316.397 5      3506.197    21259632.720    88266399.304 6      2727.042    21259634.500    88266406.299 6      2727.042
R03  22322037.940   119491622.776 6      6445.485    22322036.920   119491622.786 6      6445.485    22322059.380    92938018.733 7      5013.155    22322059.420    92938018.727 7      5013.155
G32  24672963.300   129657297.742 7      3234.395    24672962.440   129657297.747 6      3234.395    24672977.940   101031723.420 6      2520.308    24672978.380   101031724.431 6      2520.308
G07  24464327.680   128560903.982 6      1088.262    24464325.860   128560903.987 3      1088.262    24464346.120   100177378.061 3       847.996    24464348.240   100177407.990 5       847.996
> 2025 04 04 15 42  7.0000000  0 12
G02  21221945.520   111522070.823 7      1746.656    21221943.520   111522070.825 6      1746.656    21221946.960    86900322.064 6      1361.031
G03  21686826.980   113965045.396 7      5784.753    21686825.780   113965045.403 6      5784.753    21686837.100    88803976.238 6      4507.600    21686837.740    88803978.249 8      4507.600
G08  20450998.900   107470718.964 8      2404.782    20450997.760   107470718.964 8      2404.782    20451005.040    83743446.327 8      1873.856    20451005.960    83743448.330 8      1873.856
G01  20953612.120   110111971.688 7      3221.522    20953611.440   110111971.692 6      3221.522    20953616.420    85801555.378 6      2510.277    20953616.620    85801555.388 8      2510.277
R15  20544824.980   109785306.554 8        50.559    20544825.020   109785306.553 7        50.559    20544836.760    85388622.958 8        39.324    20544836.660    85388623.958 8        39.324
R17  20813400.140   111376706.525 6      1871.714    20813400.920   111376706.545 6      1871.714    20813409.460    86626376.755 6      1455.778    20813410.540    86626374.768 6      1455.778
G27  22321606.380   117300827.730 7       637.158    22321605.280   117300827.727 7       637.158    22321616.400    91403282.191 7       496.487    22321616.880    91403284.187 7       496.487
R02  21240412.540   113342907.161 8      3850.545    21240411.980   113342907.159 7      3850.545    21240423.340    88155641.734 7      2994.868    21240423.640    88155644.736 7      2994.868
R18  21258967.300   113481809.675 5      3507.128    21258968.740   113481809.647 5      3507.128    21258976.120    88263671.831 6      2727.766    21258976.960    88263678.822 6      2727.766
R03  22320833.300   119485177.022 6      6446.206    22320832.720   119485177.043 6      6446.206    22320855.120    92933005.410 7      5013.716    22320855.440    92933005.406 7      5013.716
G32  24672347.860   129654063.194 7      3234.801    24672347.000   129654063.197 6      3234.801    24672362.440   101029203.005 6      2520.624    24672363.160   101029204.019 6      2520.624
G07  24464120.780   128559815.315 6      1088.974    24464118.840   128559815.319 3      1088.974    24464139.020   100176529.740 3       848.551    24464140.960   100176559.680 6       848.551
> 2025 04 04 15 42  8.0000000  0 12
G02  21221613.140   111520323.944 7      1747.182    21221611.020   111520323.949 6      1747.182    21221614.620    86898960.874 6      1361.440
G03  21685726.280   113959260.469 7      5785.089    21685724.860   113959260.479 6      5785.089    21685736.240    88799468.517 6      4507.861    21685737.100    88799470.528 8      4507.861
G08  20450541.180   107468314.105 7      2405.036    20450539.940   107468314.107 8      2405.036    20450547.400    83741572.421 8      1874.054    20450548.400    83741574.422 8      1874.054
G01  20952999.120   110108749.999 7      3221.839    20952998.200   110108750.006 6      3221.839    20953003.340    85799044.987 6      2510.524    20953003.820    85799044.998 8      2510.524
R15  20544815.460   109785256.091 8        50.525    20544815.540   109785256.092 7        50.525    20544827.180    85388583.715 7        39.297    20544827.160    85388584.717 7        39.297
R17  20813050.720   111374834.616 6      1872.220    20813051.520   111374834.636 6      1872.220    20813059.980    86624920.842 6      1456.171    20813060.840    86624918.853 6      1456.171
G27  22321484.920   117300190.475 7       637.391    22321484.000   117300190.480 7       637.391    22321495.080    91402785.639 7       496.669    22321495.320    91402787.642 7       496.669
R02  21239690.940   113339056.672 8      3850.482    21239690.500   113339056.673 7      3850.482    21239701.840    88152646.928 8      2994.819    21239702.340    88152649.928 7      2994.819
R18  21258308.560   113478302.354 5      3507.591    21258312.140   113478302.368 5      3507.591    21258319.340    88260943.965 6      2728.126    21258320.420    88260950.959 6      2728.126
R03  22319629.160   119478730.789 6      6446.595    22319628.360   119478730.810 6      6446.595    22319650.800    92927991.704 7      5014.018    22319651.460    92927991.700 7      5014.018
G32  24671732.260   129650828.426 7      3234.834    24671731.420   129650828.428 6      3234.834    24671746.720   101026682.423 6      2520.650    24671747.500   101026683.430 6      2520.650
G07  24463913.720   128558726.203 6      1089.312    24463911.640   128558726.206 3      1089.312    24463932.020   100175681.070 3       848.815    24463932.540   100175710.997 6       848.815
> 2025 04 04 15 42  9.0000000  0 12
G02  21221280.320   111518576.432 7      1747.979    21221278.540   111518576.434 6      1747.979    21221282.020    86897599.181 6      1362.062
G03  21684625.000   113953475.166 7      5785.602    21684624.100   113953475.168 6      5785.602    21684635.380    88794960.501 6      4508.262    21684635.860    88794962.510 8      4508.262
G08  20450083.460   107465908.815 7      2405.602    20450082.360   107465908.817 8      2405.602    20450089.760    83739698.173 8      1874.495    20450090.620    83739700.178 8      1874.495
G01  20952385.900   110105527.842 7      3222.502    20952385.140   110105527.847 6      3222.502    20952390.120    85796534.222 6      2511.041    20952390.560    85796534.231 8      2511.041
R15  20544805.840   109785205.489 8        50.786    20544806.160   109785205.490 7        50.786    20544817.920    85388544.366 7        39.500    20544817.780    85388545.366 8        39.500
R17  20812700.340   111372961.971 6      1873.090    20812701.240   111372961.996 6      1873.090    20812710.020    86623464.348 6      1456.847    20812710.780    86623462.357 6      1456.847
G27  22321363.760   117299552.722 7       638.064    22321362.560   117299552.724 7       638.064    22321373.740    91402288.694 7       497.192    22321374.320    91402290.695 7       497.192
R02  21238969.420   113335206.156 8      3850.667    21238969.000   113335206.157 7      3850.667    21238980.120    88149652.095 8      2994.963    21238980.760    88149655.093 7      2994.963
R18  21257652.120   113474794.474 5      3508.008    21257654.700   113474794.411 5      3508.008    21257660.520    88258215.583 6      2728.450    21257663.360    88258222.580 6      2728.450
R03  22318424.420   119472283.879 6      6447.465    22318423.840   119472283.913 6      6447.465    22318446.720    92922977.493 7      5014.695    22318446.960    92922977.491 7      5014.695
G32  24671116.920   129647593.300 7      3235.333    24671115.720   129647593.307 6      3235.333    24671131.140   101024161.566 6      2521.038    24671131.760   101024162.579 6      2521.038
G07  24463706.460   128557636.440 6      1090.193    24463704.320   128557636.445 3      1090.193    24463724.740   100174831.896 3       849.501    24463726.060   100174861.819 6       849.501
> 2025 04 04 15 42 10.0000000  0 12
G02  21220947.780   111516828.000 7      1749.013    21220945.800   111516828.005 6      1749.013    21220949.260    86896236.779 6      1362.867
G03  21683524.140   113947689.172 7      5786.433    21683523.160   113947689.177 6      5786.433    21683534.380    88790451.953 6      4508.909    21683534.960    88790453.962 8      4508.909
G08  20449625.580   107463502.800 7      2406.452    20449624.540   107463502.802 8      2406.452    20449631.980    83737823.366 8      1875.158    20449632.680    83737825.369 8      1875.158
G01  20951772.600   110102304.945 7      3223.320    20951771.580   110102304.955 6      3223.320    20951776.880    85794022.892 6      2511.678    20951777.260    85794022.900 8      2511.678
R15  20544796.400   109785154.449 8        51.327    20544796.620   109785154.450 7        51.327    20544808.080    85388504.672 8        39.921    20544808.240    85388505.677 8        39.921
R17  20812350.140   111371088.333 6      1874.142    20812351.360   111371088.342 6      1874.142    20812359.720    86622007.075 6      1457.666    20812360.360    86622005.085 6      1457.666
G27  22321242.220   117298914.193 7       638.942    22321241.140   117298914.198 7       638.942    22321252.200    91401791.147 7       497.877    22321252.680    91401793.146 7       497.877
R02  21238247.600   113331355.325 8      3851.026    21238247.220   113331355.329 8      3851.026    21238258.500    88146657.019 8      2995.243    21238259.080    88146660.017 7      2995.243
R18  21256995.140   113471285.405 5      3509.680    21256997.080   113471285.360 5      3509.680    21257003.720    88255486.321 6      2729.751    21257005.660    88255493.316 6      2729.751
R03  22317220.360   119465836.142 6      6448.235    22317220.000   119465836.176 6      6448.235    22317241.940    92917962.615 7      5015.294    22317242.300    92917962.613 7      5015.294
