     3.05           OBSERVATION DATA    MIXED               RINEX VERSION / TYPE
TPS2RIN 1.0.28.3459 TPS-USER            20250407 105607 UTC PGM / RUN BY / DATE
Win64 build Jun 01, 2022 (c) Topcon Positioning Systems     COMMENT
SRC: 20250404_grav_20250404_192339.tps                      COMMENT
Observer            Agency                                  OBSERVER / AGENCY
O0M3X53SBGM         TPS HIPER_SR        4.8 HSR Jul,08,2022 REC # / TYPE / VERS
FW: 4.8 HSR Jul,08,2022 p3                                  COMMENT
SN: HiPer SR 1212-12575                                     COMMENT
000                 TPSHIPER_SR     NONE                    ANT # / TYPE
        1.8000        0.0000        0.0000                  ANTENNA: DELTA H/E/N
DELTA H stands for **SLANT** height here!                   COMMENT
Oro01                                                       MARKER NAME
  5382445.5442 -1596050.9771  3017149.8930                  APPROX POSITION XYZ
  2025     4     4    17    24    6.0000000     GPS         TIME OF FIRST OBS
  2025     4     4    17    39   20.0000000     GPS         TIME OF LAST OBS
     1.000                                                  INTERVAL
   915 EPOCHS                                               COMMENT
G   12 C1C L1C D1C C1W L1W D1W C2W L2W D2W C2X L2X D2X      SYS / # / OBS TYPES
R   12 C1C L1C D1C C1P L1P D1P C2P L2P D2P C2C L2C D2C      SYS / # / OBS TYPES
    14                                                      # OF SATELLITES
   G01   915   915   915   915   915   915   915   915   915PRN / # OF OBS
         915   915   915                                    PRN / # OF OBS
   G02   915   915   915   915   915   915   915   915   915PRN / # OF OBS
           0     0     0                                    PRN / # OF OBS
   G03   915   915   915   915   915   915   915   915   915PRN / # OF OBS
         915   915   915                                    PRN / # OF OBS
   G04   915   915   915   915   915   915   915   915   915PRN / # OF OBS
         915   915   915                                    PRN / # OF OBS
   G08   915   915   915   915   915   915   915   915   915PRN / # OF OBS
         915   915   915                                    PRN / # OF OBS
   G14   915   915   915   915   915   915   915   915   915PRN / # OF OBS
         915   915   915                                    PRN / # OF OBS
   G17   417   417   417   415   415   415   415   415   415PRN / # OF OBS
         411   411   411                                    PRN / # OF OBS
   G22   915   915   915   915   915   915   915   915   915PRN / # OF OBS
           0     0     0                                    PRN / # OF OBS
   R02   915   915   915   915   915   915   915   915   915PRN / # OF OBS
         915   915   915                                    PRN / # OF OBS
   R03   915   915   915   915   915   915   915   915   915PRN / # OF OBS
         915   915   915                                    PRN / # OF OBS
   R04   915   915   915   915   915   915   915   915   915PRN / # OF OBS
         915   915   915                                    PRN / # OF OBS
   R16   915   915   915   915   915   915   915   915   915PRN / # OF OBS
         915   915   915                                    PRN / # OF OBS
   R17   915   915   915   915   915   915   915   915   915PRN / # OF OBS
         915   915   915                                    PRN / # OF OBS
   R18   915   915   915   915   915   915   915   915   915PRN / # OF OBS
         915   915   915                                    PRN / # OF OBS
G L1C                                                       SYS / PHASE SHIFT
G L1W -0.25000                                              SYS / PHASE SHIFT
G L2W  0.00000                                              SYS / PHASE SHIFT
G L2X  0.25000                                              SYS / PHASE SHIFT
R L1C                                                       SYS / PHASE SHIFT
R L1P -0.25000                                              SYS / PHASE SHIFT
R L2P -0.25000                                              SYS / PHASE SHIFT
R L2C                                                       SYS / PHASE SHIFT
  6 R02 -4 R03  5 R04  6 R16 -1 R17  4 R18 -3               GLONASS SLOT / FRQ #
                                                            GLONASS COD/PHS/BIS
    18                  GPS                                 LEAP SECONDS
                                                            END OF HEADER
> 2025 04 04 17 24  6.0000000  0 13
G02  22637008.560   118958280.583 7      1444.950    22637007.680   118958280.583 6      1444.950    22637012.920    92694781.390 6      1125.935
G03  20021208.760   105212161.819 8      2413.992    20021208.260   105212161.821 8      2413.992    20021214.880    81983527.131 8      1881.032    20021215.560    81983530.133 8      1881.032
G14  22301711.040   117196281.506 7      2733.563    22301710.180   117196281.513 5      2733.563    22301718.020    91321805.287 5      2130.049    22301718.300    91321808.301 8      2130.049
R03  19870322.980   106367392.426 8      2674.513    19870323.500   106367392.455 8      2674.513    19870333.980    82730240.249 8      2080.177    19870333.700    82730239.248 8      2080.177
G01  21227042.260   111548861.138 7      2046.505    21227041.680   111548861.143 6      2046.505    21227046.660    86921206.811 6      1594.679    21227047.000    86921207.823 8      1594.679
R18  20650865.700   110235723.191 7      3123.835    20650864.880   110235723.191 7      3123.835    20650876.220    85738939.732 8      2429.649    20650876.180    85738940.734 8      2429.649
G08  22227456.580   116806070.203 7        70.010    22227455.100   116806070.207 6        70.010    22227466.000    91017755.248 6        54.553    22227467.640    91017761.243 7        54.553
R04  20967192.460   112278365.401 7      6246.120    20967192.760   112278365.427 6      6246.120    20967209.200    87327687.314 8      4858.093    20967209.360    87327686.318 8      4858.093
G22  23695484.300   124520613.836 6      3889.950    23695482.580   124520613.807 1      3889.950    23695492.400    97029043.451 1      3031.130
R17  22142608.120   118489571.051 7      1240.997    22142606.840   118489571.047 7      1240.997    22142624.300    92158619.086 7       965.220    22142623.820    92158617.097 7       965.220
G04  23282746.780   122351659.835 7      5682.287    23282745.920   122351659.845 5      5682.287    23282760.840    95339008.048 5      4427.756    23282760.940    95339013.062 7      4427.756
R02  22877554.540   122079010.864 7      -775.521    22877553.160   122079010.846 7      -775.521    22877567.780    94950400.257 7      -603.183    22877567.840    94950398.268 7      -603.183
R16  22775216.700   121661117.174 7      -322.728    22775217.420   121661117.186 7      -322.728    22775236.460    94625394.946 7      -251.011    22775236.480    94625394.944 7      -251.011
> 2025 04 04 17 24  7.0000000  0 13
G02  22636733.660   118956835.204 7      1445.974    22636732.520   118956835.209 6      1445.974    22636737.760    92693655.130 6      1126.733
G03  20020749.460   105209747.597 8      2414.588    20020748.880   105209747.602 8      2414.588    20020755.320    81981645.936 8      1881.497    20020756.140    81981648.936 8      1881.497
G14  22301190.760   117193547.636 7      2734.242    22301189.960   117193547.644 6      2734.242    22301197.820    91319675.006 5      2130.578    22301198.180    91319678.018 8      2130.578
R03  19869823.160   106364717.779 8      2674.776    19869823.920   106364717.805 8      2674.776    19869834.420    82728159.981 8      2080.381    19869834.200    82728158.982 8      2080.381
G01  21226652.980   111546814.108 7      2047.597    21226652.340   111546814.115 6      2047.597    21226657.160    86919611.737 6      1595.530    21226657.620    86919612.748 8      1595.530
R18  20650280.700   110232599.020 7      3124.722    20650279.360   110232599.020 7      3124.722    20650291.080    85736509.832 8      2430.340    20650291.060    85736510.835 8      2430.340
G08  22227443.140   116805999.838 7        70.785    22227441.840   116805999.840 6        70.785    22227452.760    91017700.426 6        55.157    22227454.340    91017706.427 7        55.157
R04  20966026.080   112272119.010 7      6246.741    20966026.580   112272119.041 6      6246.741    20966042.640    87322829.032 8      4858.577    20966042.940    87322828.037 8      4858.577
G22  23694743.800   124516723.741 6      3890.622    23694743.600   124516723.722 1      3890.622    23694752.060    97026012.208 1      3031.654
R17  22142375.920   118488329.545 7      1242.112    22142374.940   118488329.541 7      1242.112    22142392.420    92157653.475 7       966.087    22142391.880    92157651.486 7       966.087
G04  23281665.320   122345977.050 7      5683.364    23281664.760   122345977.058 5      5683.364    23281679.520    95334579.930 5      4428.595    23281679.600    95334584.936 7      4428.595
R02  22877700.180   122079786.154 7      -774.875    22877698.520   122079786.149 7      -774.875    22877712.580    94951003.283 7      -602.680    22877713.040    94951001.294 7      -602.680
R16  22775277.540   121661439.593 7      -321.938    22775277.760   121661439.604 7      -321.938    22775297.040    94625645.708 7      -250.396    22775296.640    94625645.704 7      -250.396
> 2025 04 04 17 24  8.0000000  0 13
G02  22636457.940   118955388.435 7      1447.576    22636457.300   118955388.443 6      1447.576    22636462.420    92692527.794 6      1127.981
G03  20020289.860   105207332.528 8      2415.642    20020289.360   105207332.532 8      2415.642    20020295.800    81979764.076 8      1882.318    20020296.620    81979767.078 8      1882.318
G14  22300670.400   117190812.963 7      2735.197    22300669.500   117190812.973 6      2735.197    22300677.580    91317544.106 5      2131.323    22300677.860    91317547.120 8      2131.323
R03  19869323.520   106362042.589 8      2675.698    19869324.220   106362042.618 8      2675.698    19869334.760    82726079.290 8      2081.098    19869334.360    82726078.289 8      2081.098
G01  21226263.220   111544765.771 7      2049.241    21226262.440   111544765.781 6      2049.241    21226267.120    86918015.638 6      1596.811    21226267.800    86918016.646 8      1596.811
R18  20649695.000   110229473.485 7      3126.433    20649693.840   110229473.480 7      3126.433    20649705.460    85734078.866 8      2431.670    20649705.440    85734079.872 8      2431.670
G08  22227429.660   116805928.388 7        72.223    22227428.180   116805928.382 6        72.223    22227439.240    91017644.736 6        56.278    22227440.740    91017650.736 7        56.278
R04  20964859.720   112265871.641 7      6248.112    20964859.980   112265871.664 7      6248.112    20964876.160    87317969.980 8      4859.643    20964876.240    87317968.983 8      4859.643
G22  23694003.900   124512832.695 6      3891.910    23694001.740   124512832.689 1      3891.910    23694010.600    97022980.236 1      3032.658
R17  22142143.880   118487086.801 7      1243.620    22142142.360   118487086.802 7      1243.620    22142160.440    92156686.921 7       967.260    22142159.580    92156684.934 7       967.260
G04  23280583.540   122340292.915 7      5684.952    23280582.900   122340292.925 5      5684.952    23280597.740    95330150.762 5      4429.833    23280597.680    95330155.777 7      4429.833
R02  22877845.260   122080560.502 7      -773.578    22877843.880   122080560.495 7      -773.578    22877857.860    94951605.570 7      -601.672    22877858.200    94951603.575 7      -601.672
R16  22775337.820   121661760.831 7      -320.469    22775337.740   121661760.840 7      -320.469    22775357.100    94625895.558 7      -249.254    22775356.860    94625895.558 7      -249.254
> 2025 04 04 17 24  9.0000000  0 13
G02  22636182.680   118953940.568 7      1448.247    22636181.840   118953940.573 6      1448.247    22636186.880    92691399.594 6      1128.504
G03  20019830.300   105204916.877 8      2415.712    20019829.720   105204916.882 8      2415.712    20019836.100    81977881.769 8      1882.373    20019836.760    81977884.773 8      1882.373
G14  22300149.800   117188077.738 7      2735.317    22300149.060   117188077.746 6      2735.317    22300157.120    91315412.778 5      2131.416    22300157.360    91315415.796 8      2131.416
R03  19868823.640   106359367.172 8      2675.401    19868824.260   106359367.195 8      2675.401    19868834.860    82723998.424 8      2080.868    19868834.500    82723997.423 8      2080.868
G01  21225872.940   111542716.420 7      2049.733    21225872.460   111542716.425 6      2049.733    21225877.360    86916418.754 6      1597.195    21225877.720    86916419.766 8      1597.195
R18  20649109.800   110226346.962 7      3126.852    20649108.380   110226346.955 7      3126.852    20649119.880    85731647.135 8      2431.996    20649119.720    85731648.139 8      2431.996
G08  22227415.640   116805856.123 7        72.488    22227414.320   116805856.123 6        72.488    22227425.580    91017588.435 6        56.484    22227427.200    91017594.434 7        56.484
R04  20963692.920   112259623.598 7      6248.232    20963692.580   112259623.616 7      6248.232    20963709.340    87313110.408 8      4859.736    20963709.600    87313109.410 8      4859.736
G22  23693263.220   124508941.081 6      3891.759    23693260.860   124508941.065 1      3891.759    23693270.780    97019947.830 1      3032.540
R17  22141911.600   118485843.192 7      1243.829    22141909.920   118485843.188 7      1243.829    22141928.140    92155719.668 7       967.422    22141927.300    92155717.677 7       967.422
G04  23279501.820   122334607.731 7      5685.494    23279500.920   122334607.741 5      5685.494    23279515.700    95325720.776 5      4430.255    23279515.840    95325725.790 7      4430.255
R02  22877990.220   122081334.234 7      -773.535    22877988.380   122081334.219 7      -773.535    22878003.040    94952207.366 7      -601.639    22878003.060    94952205.370 7      -601.639
R16  22775397.860   121662081.212 7      -320.156    22775398.180   121662081.227 7      -320.156    22775417.060    94626144.749 7      -249.010    22775417.000    94626144.746 7      -249.010
> 2025 04 04 17 24 10.0000000  0 13
G02  22635906.860   118952491.558 7      1449.630    22635906.080   118952491.560 6      1449.630    22635910.940    92690270.512 6      1129.582
G03  20019370.620   105202500.596 8      2416.774    20019369.900   105202500.598 8      2416.774    20019376.300    81975998.963 8      1883.200    20019376.960    81976001.969 8      1883.200
G14  22299629.320   117185341.948 7      2736.265    22299628.540   117185341.959 6      2736.265    22299636.500    91313281.006 6      2132.154    22299636.580    91313284.012 8      2132.154
R03  19868323.740   106356691.473 8      2675.919    19868324.460   106356691.496 8      2675.919    19868334.900    82721917.337 8      2081.270    19868334.660    82721916.334 8      2081.270
G01  21225482.700   111540665.995 8      2051.129    21225482.260   111540666.000 6      2051.129    21225487.000    86914821.032 6      1598.283    21225487.540    86914822.042 8      1598.283
R18  20648524.020   110223219.388 7      3128.191    20648522.520   110223219.392 7      3128.191    20648533.920    85729214.598 8      2433.037    20648534.000    85729215.604 8      2433.037
G08  22227401.780   116805783.023 7        73.707    22227400.440   116805783.022 6        73.707    22227411.920    91017531.480 6        57.434    22227413.100    91017537.483 7        57.434
R04  20962525.940   112253374.832 7      6249.299    20962525.460   112253374.855 6      6249.299    20962542.220    87308250.273 8      4860.566    20962542.560    87308249.280 8      4860.566
G22  23692522.400   124505048.778 6      3892.754    23692520.780   124505048.749 1      3892.754    23692531.900    97016914.873 1      3033.314
R17  22141678.780   118484598.604 7      1245.212    22141677.840   118484598.592 7      1245.212    22141695.620    92154751.655 7       968.498    22141695.060    92154749.658 7       968.498
G04  23278419.720   122328921.454 7      5686.809    23278418.640   122328921.464 5      5686.809    23278433.720    95321289.939 5      4431.280    23278434.060    95321294.952 7      4431.280
R02  22878135.380   122082107.264 7      -772.506    22878133.720   122082107.249 7      -772.506    22878148.080    94952808.624 7      -600.838    22878148.000    94952806.628 7      -600.838
R16  22775457.520   121662400.653 7      -318.859    22775457.960   121662400.665 7      -318.859    22775476.880    94626393.209 7      -248.002    22775476.720    94626393.212 7      -248.002
> 2025 04 04 17 24 11.0000000  0 13
G02  22635631.060   118951041.044 7      1451.088    22635630.100   118951041.044 6      1451.088    22635634.960    92689140.241 6      1130.718
G03  20018910.500   105200083.348 8      2417.622    20018909.900   105200083.353 8      2417.622    20018916.340    81974115.410 8      1883.862    20018917.040    81974118.416 8      1883.862
G14  22299108.640   117182605.207 7      2737.094    22299107.860   117182605.218 6      2737.094    22299115.720    91311148.495 6      2132.801    22299115.920    91311151.501 8      2132.801
R03  19867823.540   106354015.086 8      2676.566    19867824.620   106354015.109 8      2676.566    19867834.920    82719835.718 8      2081.774    19867834.800    82719834.715 8      2081.774
G01  21225092.460   111538614.148 8      2052.462    21225091.780   111538614.153 6      2052.462    21225096.600    86913222.198 6      1599.321    21225097.140    86913223.206 8      1599.321
R18  20647937.500   110220090.405 7      3129.607    20647936.420   110220090.403 7      3129.607    20647947.760    85726780.957 8      2434.139    20647947.800    85726781.961 8      2434.139
G08  22227387.560   116805708.743 7        74.671    22227386.360   116805708.745 6        74.671    22227397.780    91017473.607 6        58.185    22227398.920    91017479.608 7        58.185
R04  20961358.980   112247124.997 7      6250.298    20961358.860   112247125.007 6      6250.298    20961375.020    87303389.307 8      4861.343    20961375.560    87303388.314 8      4861.343
G22  23691781.980   124501155.370 6      3893.948    23691777.820   124501155.367 1      3893.948    23691791.120    97013881.069 1      3034.245
R17  22141446.040   118483352.662 7      1246.469    22141445.160   118483352.653 7      1246.469    22141462.480    92153782.598 7       969.476    22141462.060    92153780.604 7       969.476
G04  23277337.360   122323233.693 7      5688.318    23277336.180   122323233.695 5      5688.318    23277351.140    95316857.946 5      4432.456    23277351.700    95316862.950 7      4432.456
R02  22878280.060   122082879.243 7      -771.542    22878278.560   122082879.228 7      -771.542    22878292.700    94953409.060 7      -600.088    22878292.720    94953407.063 7      -600.088
R16  22775517.200   121662718.788 7      -317.491    22775517.800   121662718.802 7      -317.491    22775536.420    94626640.635 7      -246.937    22775536.360    94626640.631 7      -246.937
> 2025 04 04 17 24 12.0000000  0 13
G02  22635354.680   118949589.180 7      1452.399    22635353.800   118949589.185 6      1452.399    22635358.640    92688008.937 6      1131.739
G03  20018450.260   105197665.286 8      2418.429    20018449.700   105197665.290 8      2418.429    20018456.180    81972231.217 8      1884.490    20018456.740    81972234.221 8      1884.490
G14  22298587.740   117179867.681 7      2737.981    22298586.840   117179867.696 6      2737.981    22298594.720    91309015.370 5      2133.491    22298594.920    91309018.384 8      2133.491
R03  19867323.880   106351338.178 8      2677.159    19867324.340   106351338.203 8      2677.159    19867334.720    82717753.695 8      2082.235    19867334.600    82717752.691 8      2082.235
G01  21224701.700   111536561.018 7      2053.735    21224701.080   111536561.026 6      2053.735    21224705.880    86911622.378 6      1600.313    21224706.600    86911623.388 8      1600.313
R18  20647351.420   110216960.175 7      3130.815    20647350.020   110216960.176 7      3130.815    20647361.340    85724346.342 8      2435.079    20647361.220    85724347.348 8      2435.079
G08  22227373.120   116805633.394 7        75.711    22227371.900   116805633.398 6        75.711    22227383.360    91017414.902 6        58.995    22227384.560    91017420.911 7        58.995
R04  20960191.240   112240874.207 7      6251.231    20960191.340   112240874.227 6      6251.231    20960207.820    87298527.615 8      4862.069    20960207.920    87298526.620 8      4862.069
G22  23691040.560   124497261.147 6      3894.700    23691038.140   124497261.144 2      3894.700    23691050.540    97010846.642 1      3034.831
R17  22141213.380   118482105.506 7      1247.701    22141212.020   118482105.502 7      1247.701    22141229.580    92152812.604 7       970.434    22141229.180    92152810.610 7       970.434
G04  23276254.860   122317544.634 7      5689.660    23276253.740   122317544.633 5      5689.660    23276268.380    95312424.942 5      4433.501    23276268.900    95312429.954 7      4433.501
R02  22878424.340   122083650.277 7      -770.470    22878423.120   122083650.254 7      -770.470    22878437.040    94954008.758 7      -599.254    22878437.140    94954006.760 7      -599.254
R16  22775576.820   121663035.825 7      -316.565    22775577.580   121663035.842 7      -316.565    22775595.680    94626887.223 7      -246.217    22775595.360    94626887.222 7      -246.217
> 2025 04 04 17 24 13.0000000  0 13
G02  22635078.240   118948136.195 7      1453.531    22635077.280   118948136.197 6      1453.531    22635082.100    92686876.751 6      1132.622
G03  20017990.020   105195246.637 8      2418.902    20017989.540   105195246.637 8      2418.902    20017995.860    81970346.569 8      1884.858    20017996.680    81970349.574 8      1884.858
G14  22298066.460   117177129.637 7      2738.301    22298065.920   117177129.649 5      2738.301    22298073.620    91306881.837 5      2133.741    22298074.200    91306884.843 8      2133.741
R03  19866823.560   106348660.980 8      2677.359    19866824.420   106348661.006 8      2677.359    19866834.480    82715671.447 8      2082.390    19866834.400    82715670.443 8      2082.390
G01  21224310.980   111534506.864 8      2054.640    21224310.260   111534506.872 6      2054.640    21224315.040    86910021.749 6      1601.018    21224315.540    86910022.754 8      1601.018
R18  20646764.660   110213828.859 7      3131.777    20646763.620   110213828.855 7      3131.777    20646774.840    85721910.889 8      2435.827    20646774.880    85721911.894 8      2435.827
G08  22227358.700   116805557.248 7        76.456    22227357.480   116805557.242 6        76.456    22227369.100    91017355.572 6        59.576    22227370.600    91017361.581 7        59.576
R04  20959023.800   112234622.755 7      6251.641    20959023.840   112234622.778 6      6251.641    20959040.440    87293665.402 8      4862.388    20959040.680    87293664.407 8      4862.388
G22  23690299.020   124493366.246 6      3895.266    23690298.140   124493366.238 2      3895.266    23690308.080    97007811.665 2      3035.272
R17  22140980.080   118480857.368 7      1248.584    22140978.200   118480857.364 7      1248.584    22140996.320    92151841.833 7       971.121    22140995.700    92151839.836 7       971.121
G04  23275172.360   122311854.505 7      5690.636    23275171.160   122311854.507 5      5690.636    23275185.900    95307991.104 5      4434.262    23275186.260    95307996.118 7      4434.262
R02  22878568.720   122084420.580 7      -769.910    22878566.840   122084420.560 7      -769.910    22878581.400    94954607.897 7      -598.819    22878581.400    94954605.895 7      -598.819
R16  22775635.380   121663351.972 7      -315.733    22775636.420   121663351.987 7      -315.733    22775654.920    94627133.114 7      -245.570    22775654.760    94627133.115 7      -245.570
> 2025 04 04 17 24 14.0000000  0 13
G02  22634801.380   118946681.914 7      1454.727    22634800.500   118946681.918 6      1454.727    22634805.300    92685743.555 6      1133.554
G03  20017529.600   105192827.211 8      2419.502    20017529.100   105192827.216 8      2419.502    20017535.460    81968461.320 8      1885.326    20017536.140    81968464.324 8      1885.326
G14  22297545.240   117174390.828 7      2738.893    22297544.760   117174390.835 5      2738.893    22297552.400    91304747.710 6      2134.202    22297552.880    91304750.722 8      2134.202
R03  19866323.400   106345983.328 8      2677.585    19866324.100   106345983.356 8      2677.585    19866334.500    82713588.840 8      2082.566    19866334.220    82713587.839 8      2082.566
G01  21223919.880   111532451.470 7      2055.733    21223919.140   111532451.475 6      2055.733    21223923.880    86908420.153 6      1601.870    21223924.360    86908421.165 8      1601.870
R18  20646177.740   110210696.289 7      3132.931    20646176.460   110210696.293 7      3132.931    20646187.840    85719474.466 8      2436.724    20646187.820    85719475.472 8      2436.724
G08  22227344.000   116805480.073 7        77.432    22227342.700   116805480.067 6        77.432    22227354.500    91017295.437 6        60.336    22227355.900    91017301.450 7        60.336
R04  20957855.720   112228370.420 7      6252.284    20957856.000   112228370.454 6      6252.284    20957872.900    87288802.506 8      4862.888    20957873.020    87288801.510 8      4862.888
G22  23689558.540   124489470.518 6      3896.001    23689557.280   124489470.528 2      3896.001    23689566.220    97004776.053 2      3035.845
R17  22140746.680   118479608.100 7      1249.608    22140744.700   118479608.077 7      1249.608    22140762.860    92150870.179 7       971.917    22140762.380    92150868.181 7       971.917
G04  23274089.140   122306163.112 7      5691.737    23274088.140   122306163.117 5      5691.737    23274103.100    95303556.281 5      4435.119    23274103.380    95303561.301 7      4435.119
R02  22878712.720   122085189.971 7      -769.163    22878711.440   122085189.953 7      -769.163    22878725.640    94955206.324 7      -598.238    22878725.840    94955204.327 7      -598.238
R16  22775694.820   121663667.049 7      -314.685    22775695.900   121663667.058 7      -314.685    22775713.920    94627378.171 7      -244.755    22775713.800    94627378.170 7      -244.755
> 2025 04 04 17 24 15.0000000  0 13
G02  22634524.520   118945226.681 7      1455.995    22634523.580   118945226.686 6      1455.995    22634528.500    92684609.618 6      1134.541
G03  20017069.280   105190407.348 8      2420.262    20017068.620   105190407.353 8      2420.262    20017074.960    81966575.725 8      1885.918    20017075.660    81966578.731 8      1885.918
G14  22297024.140   117171651.633 7      2739.606    22297023.640   117171651.643 5      2739.606    22297031.200    91302613.285 5      2134.758    22297031.640    91302616.295 8      2134.758
R03  19865823.180   106343305.541 8      2678.030    19865823.740   106343305.570 8      2678.030    19865834.180    82711506.130 8      2082.912    19865833.820    82711505.129 8      2082.912
G01  21223528.540   111530395.201 7      2056.932    21223527.840   111530395.206 6      2056.932    21223532.480    86906817.876 6      1602.804    21223533.240    86906818.887 8      1602.804
R18  20645590.660   110207562.875 7      3134.098    20645589.760   110207562.881 7      3134.098    20645600.840    85717037.379 8      2437.632    20645601.080    85717038.386 8      2437.632
G08  22227328.920   116805402.259 7        78.362    22227327.920   116805402.256 6        78.362    22227339.800    91017234.809 6        61.061    22227340.980    91017240.822 7        61.061
R04  20956688.160   112222117.587 7      6253.311    20956688.120   112222117.615 6      6253.311    20956705.240    87283939.206 8      4863.686    20956705.180    87283938.210 8      4863.686
G22  23688816.740   124485574.295 6      3896.943    23688815.380   124485574.313 2      3896.943    23688825.220    97001740.039 2      3036.579
R17  22140513.020   118478358.059 7      1250.668    22140511.360   118478358.034 7      1250.668    22140529.220    92149897.931 7       972.742    22140528.540    92149895.934 7       972.742
G04  23273005.940   122300470.834 7      5692.884    23273004.780   122300470.844 5      5692.884    23273019.960    95299120.770 5      4436.014    23273020.460    95299125.791 7      4436.014
R02  22878856.800   122085958.802 7      -768.304    22878855.540   122085958.789 7      -768.304    22878869.820    94955804.318 7      -597.570    22878869.900    94955802.327 7      -597.570
R16  22775753.620   121663981.407 7      -313.660    22775754.360   121663981.419 7      -313.660    22775772.880    94627622.662 7      -243.958    22775772.600    94627622.663 7      -243.958
> 2025 04 04 17 24 16.0000000  0 13
G02  22634247.460   118943770.190 7      1457.098    22634246.760   118943770.195 6      1457.098    22634251.300    92683474.700 6      1135.401
G03  20016608.520   105187986.748 8      2420.962    20016608.000   105187986.750 8      2420.962    20016614.320    81964689.553 8      1886.464    20016614.920    81964692.557 8      1886.464
G14  22296502.960   117168911.738 7      2740.108    22296502.300   117168911.743 6      2740.108    22296509.580    91300478.311 6      2135.149    22296510.200    91300481.325 8      2135.149
R03  19865322.800   106340627.332 8      2678.405    19865323.580   106340627.360 8      2678.405    19865333.800    82709423.091 8      2083.204    19865333.720    82709422.088 8      2083.204
G01  21223137.160   111528337.742 7      2058.002    21223136.380   111528337.747 6      2058.002    21223141.100    86905214.673 6      1603.638    21223141.540    86905215.685 8      1603.638
R18  20645003.540   110204428.306 7      3135.109    20645002.300   110204428.315 7      3135.109    20645013.640    85714599.393 8      2438.418    20645013.640    85714600.400 8      2438.418
G08  22227313.820   116805323.470 7        79.249    22227313.080   116805323.472 6        79.249    22227324.860    91017173.425 6        61.752    22227326.180    91017179.435 7        61.752
R04  20955521.100   112215863.913 7      6254.024    20955520.520   112215863.931 6      6254.024    20955537.320    87279075.252 8      4864.241    20955537.340    87279074.254 8      4864.241
G22  23688075.100   124481677.282 6      3897.595    23688073.840   124481677.292 2      3897.595    23688084.320    96998703.403 2      3037.087
R17  22140278.940   118477106.865 7      1251.740    22140277.440   118477106.851 7      1251.740    22140295.540    92148924.795 7       973.575    22140294.720    92148922.801 7       973.575
G04  23271922.580   122294777.300 7      5694.100    23271921.320   122294777.310 5      5694.100    23271936.500    95294684.279 5      4436.961    23271937.340    95294689.304 7      4436.961
R02  22879000.860   122086726.826 7      -767.603    22878999.620   122086726.808 7      -767.603    22879013.520    94956401.675 7      -597.025    22879013.380    94956399.682 7      -597.025
R16  22775812.560   121664294.729 7      -312.895    22775813.240   121664294.733 7      -312.895    22775831.380    94627866.352 7      -243.363    22775831.200    94627866.351 7      -243.363
> 2025 04 04 17 24 17.0000000  0 13
G02  22633970.200   118942312.646 7      1458.060    22633969.340   118942312.651 6      1458.060    22633974.020    92682338.964 6      1136.151
G03  20016147.820   105185565.632 8      2421.411    20016147.300   105185565.634 8      2421.411    20016153.560    81962802.986 8      1886.814    20016154.380    81962805.989 8      1886.814
G14  22295981.220   117166171.327 7      2740.692    22295980.760   117166171.337 5      2740.692    22295988.120    91298342.941 5      2135.604    22295988.560    91298345.957 8      2135.604
R03  19864822.320   106337948.906 8      2678.543    19864823.220   106337948.942 8      2678.543    19864833.620    82707339.891 8      2083.311    19864833.360    82707338.888 8      2083.311
G01  21222745.480   111526279.292 7      2058.969    21222744.720   111526279.299 6      2058.969    21222749.500    86903610.700 6      1604.391    21222749.940    86903611.716 8      1604.391
R18  20644415.860   110201292.783 7      3136.054    20644415.240   110201292.790 7      3136.054    20644426.480    85712160.666 8      2439.153    20644426.440    85712161.673 8      2439.153
G08  22227299.020   116805243.951 7        79.940    22227297.900   116805243.950 6        79.940    22227309.700    91017111.466 6        62.291    22227311.040    91017117.480 7        62.291
R04  20954353.120   112209609.580 7      6254.609    20954352.160   112209609.603 6      6254.609    20954369.260    87274210.794 8      4864.696    20954369.520    87274209.802 8      4864.696
G22  23687333.520   124477779.727 6      3897.773    23687331.900   124477779.734 2      3897.773    23687342.700    96995666.372 2      3037.226
R17  22140045.140   118475854.796 7      1252.588    22140043.680   118475854.790 7      1252.588    22140061.160    92147950.974 7       974.235    22140061.000    92147948.978 7       974.235
G04  23270838.860   122289082.778 7      5694.996    23270837.780   122289082.791 4      5694.996    23270852.620    95290247.020 5      4437.659    23270853.140    95290252.042 7      4437.659
R02  22879144.480   122087494.259 7      -767.192    22879143.200   122087494.246 7      -767.192    22879157.500    94956998.588 7      -596.705    22879157.080    94956996.588 7      -596.705
R16  22775870.640   121664607.183 7      -311.974    22775871.760   121664607.186 7      -311.974    22775889.980    94628109.380 7      -242.646    22775889.900    94628109.385 7      -242.646
> 2025 04 04 17 24 18.0000000  0 13
G02  22633692.380   118940854.134 7      1459.101    22633691.800   118940854.137 6      1459.101    22633696.540    92681202.469 6      1136.962
G03  20015687.140   105183144.078 8      2421.853    20015686.520   105183144.080 8      2421.853    20015692.860    81960916.072 8      1887.158    20015693.300    81960919.076 8      1887.158
G14  22295459.760   117163430.547 7      2741.068    22295459.220   117163430.555 6      2741.068    22295466.640    91296207.279 5      2135.897    22295467.100    91296210.287 8      2135.897
R03  19864321.880   106335270.391 8      2678.615    19864322.880   106335270.414 8      2678.615    19864333.220    82705256.607 8      2083.367    19864332.940    82705255.603 8      2083.367
G01  21222353.640   111524219.970 7      2059.865    21222352.880   111524219.977 6      2059.865    21222357.680    86902006.046 6      1605.089    21222357.940    86902007.058 8      1605.089
R18  20643828.500   110198156.386 7      3136.974    20643827.600   110198156.392 7      3136.974    20643838.640    85709721.257 8      2439.869    20643838.720    85709722.265 8      2439.869
G08  22227283.640   116805163.764 7        80.498    22227282.660   116805163.764 6        80.498    22227294.420    91017048.992 6        62.726    22227295.540    91017055.005 7        62.726
R04  20953184.940   112203354.715 7      6255.172    20953184.140   112203354.733 6      6255.172    20953201.200    87269345.915 8      4865.134    20953201.280    87269344.920 8      4865.134
G22  23686591.640   124473881.597 6      3898.513    23686591.240   124473881.594 2      3898.513    23686600.900    96992628.868 2      3037.802
R17  22139811.200   118474601.981 7      1253.308    22139809.460   118474601.964 7      1253.308    22139827.180    92146976.562 7       974.795    22139826.740    92146974.560 7       974.795
G04  23269754.900   122283387.313 7      5696.158    23269754.140   122283387.323 4      5696.158    23269768.860    95285809.024 4      4438.565    23269769.280    95285814.038 7      4438.565
R02  22879287.820   122088261.150 7      -766.552    22879287.220   122088261.137 7      -766.552    22879301.060    94957595.066 7      -596.207    22879300.960    94957593.065 7      -596.207
R16  22775928.600   121664918.942 7      -311.271    22775930.180   121664918.948 7      -311.271    22775948.320    94628351.860 7      -242.100    22775948.240    94628351.858 7      -242.100
> 2025 04 04 17 24 19.0000000  0 13
G02  22633414.740   118939394.640 7      1460.068    22633414.120   118939394.645 6      1460.068    22633418.660    92680065.214 6      1137.715
G03  20015226.160   105180722.055 8      2422.322    20015225.560   105180722.058 8      2422.322    20015231.900    81959028.799 8      1887.523    20015232.560    81959031.805 8      1887.523
G14  22294937.940   117160689.316 7      2741.608    22294937.620   117160689.323 6      2741.608    22294944.920    91294071.265 5      2136.318    22294945.420    91294074.281 8      2136.318
R03  19863821.980   106332591.727 8      2678.787    19863822.500   106332591.750 8      2678.787    19863832.800    82703173.216 8      2083.501    19863832.620    82703172.214 8      2083.501
G01  21221961.540   111522159.725 8      2060.785    21221960.840   111522159.735 6      2060.785    21221965.680    86900400.677 6      1605.807    21221966.100    86900401.687 8      1605.807
R18  20643240.560   110195019.062 7      3137.897    20643239.760   110195019.068 7      3137.897    20643251.080    85707281.131 8      2440.586    20643251.140    85707282.137 8      2440.586
G08  22227268.220   116805082.884 7        81.252    22227267.280   116805082.881 6        81.252    22227278.940    91016985.976 6        63.313    22227279.960    91016991.986 7        63.313
R04  20952017.060   112197099.290 7      6255.836    20952015.900   112197099.308 6      6255.836    20952033.260    87264480.613 8      4865.650    20952033.240    87264479.616 8      4865.650
G22  23685849.640   124469982.957 6      3899.265    23685849.920   124469982.959 2      3899.265    23685858.460    96989590.977 2      3038.388
R17  22139576.880   118473348.296 7      1254.232    22139575.500   118473348.284 7      1254.232    22139592.400    92146001.484 7       975.514    22139592.360    92145999.487 7       975.514
G04  23268671.040   122277690.933 7      5696.965    23268670.240   122277690.941 4      5696.965    23268684.860    95281370.313 4      4439.194    23268685.260    95281375.344 7      4439.194
R02  22879431.780   122089027.472 7      -765.871    22879430.640   122089027.465 7      -765.871    22879444.580    94958191.105 7      -595.677    22879444.580    94958189.110 7      -595.677
R16  22775987.260   121665229.980 7      -310.654    22775988.440   121665229.992 7      -310.654    22776006.420    94628593.780 7      -241.620    22776006.400    94628593.777 7      -241.620
> 2025 04 04 17 24 20.0000000  0 13
G02  22633136.900   118937934.145 7      1460.974    22633136.120   118937934.152 6      1460.974    22633140.720    92678927.178 6      1138.421
G03  20014765.140   105178299.560 8      2422.725    20014764.560   105178299.560 8      2422.725    20014770.940    81957141.150 8      1887.838    20014771.660    81957144.154 8      1887.838
G14  22294416.320   117157947.661 7      2741.904    22294415.780   117157947.669 5      2741.904    22294423.240    91291934.925 5      2136.548    22294423.740    91291937.941 8      2136.548
R03  19863321.280   106329912.905 8      2678.906    19863321.900   106329912.925 8      2678.906    19863332.380    82701089.700 8      2083.593    19863332.220    82701088.701 8      2083.593
G01  21221569.380   111520098.558 7      2061.617    21221568.540   111520098.566 6      2061.617    21221573.160    86898794.581 6      1606.455    21221573.760    86898795.593 8      1606.455
R18  20642653.040   110191880.785 7      3138.751    20642651.980   110191880.794 7      3138.751    20642663.060    85704840.266 8      2441.251    20642663.180    85704841.273 8      2441.251
G08  22227252.900   116805001.305 7        81.915    22227251.800   116805001.302 6        81.915    22227263.540    91016922.414 6        63.830    22227264.500    91016928.417 7        63.830
R04  20950848.680   112190843.305 7      6256.416    20950848.000   112190843.323 6      6256.416    20950864.840    87259614.868 8      4866.101    20950864.800    87259613.875 8      4866.101
G22  23685107.760   124466083.805 6      3899.373    23685107.260   124466083.815 2      3899.373    23685116.400    96986552.675 2      3038.473
R17  22139342.600   118472093.790 7      1254.966    22139341.020   118472093.780 7      1254.966    22139357.800    92145025.767 7       976.085    22139357.880    92145023.770 7       976.085
G04  23267586.560   122271993.584 7      5697.781    23267586.140   122271993.592 4      5697.781    23267600.760    95276930.851 4      4439.829    23267601.020    95276935.879 7      4439.829
R02  22879575.300   122089793.250 7      -765.449    22879574.480   122089793.227 7      -765.449    22879588.200    94958786.711 7      -595.349    22879588.180    94958784.711 7      -595.349
R16  22776045.460   121665540.228 7      -309.838    22776046.840   121665540.240 7      -309.838    22776064.600    94628835.076 7      -240.985    22776064.660    94628835.077 7      -240.985
> 2025 04 04 17 24 21.0000000  0 13
G02  22632858.780   118936472.441 7      1462.324    22632857.940   118936472.449 6      1462.324    22632862.600    92677788.202 6      1139.473
G03  20014304.000   105175876.382 8      2423.565    20014303.400   105175876.382 8      2423.565    20014309.720    81955252.976 8      1888.492    20014310.480    81955255.982 8      1888.492
G14  22293894.640   117155205.379 7      2742.577    22293893.920   117155205.384 6      2742.577    22293901.340    91289798.094 5      2137.073    22293901.960    91289801.110 8      2137.073
R03  19862820.620   106327233.727 8      2679.372    19862821.320   106327233.755 8      2679.372    19862831.960    82699005.917 8      2083.956    19862831.740    82699004.914 8      2083.956
G01  21221176.900   111518036.243 7      2063.008    21221176.060   111518036.248 6      2063.008    21221180.820    86897187.595 6      1607.539    21221181.500    86897188.604 8      1607.539
R18  20642064.660   110188741.400 7      3140.011    20642063.660   110188741.406 7      3140.011    20642074.960    85702398.535 8      2442.231    20642075.000    85702399.540 8      2442.231
G08  22227237.220   116804918.814 7        82.925    22227236.040   116804918.811 6        82.925    22227248.020    91016858.144 6        64.617    22227248.920    91016864.153 7        64.617
R04  20949680.020   112184586.584 7      6257.171    20949679.660   112184586.597 6      6257.171    20949696.680    87254748.549 8      4866.689    20949696.440    87254747.553 8      4866.689
G22  23684366.240   124462183.909 6      3900.267    23684365.080   124462183.927 2      3900.267    23684373.880    96983513.811 2      3039.169
R17  22139107.620   118470838.243 7      1256.037    22139105.920   118470838.247 7      1256.037    22139123.240    92144049.253 7       976.918    22139123.160    92144047.260 7       976.918
G04  23266502.280   122266295.068 7      5699.218    23266501.600   122266295.071 4      5699.218    23266516.480    95272490.475 4      4440.949    23266516.960    95272495.492 7      4440.949
R02  22879718.540   122090558.228 7      -764.553    22879717.620   122090558.207 7      -764.553    22879731.420    94959381.706 7      -594.653    22879731.780    94959379.706 7      -594.653
R16  22776103.300   121665849.517 7      -308.747    22776104.620   121665849.528 7      -308.747    22776122.340    94629075.634 7      -240.136    22776122.320    94629075.632 7      -240.136
> 2025 04 04 17 24 22.0000000  0 13
G02  22632580.380   118935009.728 7      1463.256    22632579.640   118935009.733 6      1463.256    22632584.180    92676648.434 6      1140.199
G03  20013842.900   105173452.728 8      2423.860    20013842.120   105173452.730 8      2423.860    20013848.560    81953364.429 8      1888.722    20013849.360    81953367.432 8      1888.722
G14  22293372.760   117152462.624 7      2742.978    22293372.100   117152462.628 5      2742.978    22293379.420    91287660.892 6      2137.386    22293379.880    91287663.908 8      2137.386
R03  19862320.140   106324554.382 8      2679.436    19862320.920   106324554.408 8      2679.436    19862331.360    82696921.995 8      2084.006    19862331.120    82696920.992 8      2084.006
G01  21220784.340   111515973.017 7      2063.786    21220783.400   111515973.021 6      2063.786    21220788.280    86895579.896 6      1608.145    21220788.800    86895580.907 8      1608.145
R18  20641476.340   110185601.124 7      3140.786    20641475.520   110185601.125 7      3140.786    20641486.640    85699956.106 8      2442.833    20641486.800    85699957.112 8      2442.833
G08  22227221.480   116804835.629 7        83.473    22227220.260   116804835.631 6        83.473    22227232.260    91016793.331 6        65.044    22227233.400    91016799.342 7        65.044
R04  20948511.700   112178329.234 7      6257.604    20948511.280   112178329.257 6      6257.604    20948528.060    87249881.748 8      4867.025    20948528.100    87249880.755 8      4867.025
G22  23683623.640   124458283.480 6      3900.718    23683622.680   124458283.492 2      3900.718    23683631.560    96980474.520 2      3039.521
R17  22138872.780   118469581.844 7      1256.855    22138871.720   118469581.841 7      1256.855    22138888.540    92143072.057 7       977.554    22138888.020    92143070.062 7       977.554
G04  23265417.880   122260595.580 7      5700.060    23265416.940   122260595.580 4      5700.060    23265431.880    95268049.347 5      4441.606    23265432.540    95268054.375 7      4441.606
R02  22879862.080   122091322.603 7      -764.139    22879860.720   122091322.585 7      -764.139    22879874.240    94959976.236 7      -594.330    22879875.260    94959974.232 7      -594.330
R16  22776160.820   121666157.983 7      -308.091    22776162.380   121666158.002 7      -308.091    22776180.120    94629315.554 7      -239.627    22776179.940    94629315.550 7      -239.627
> 2025 04 04 17 24 23.0000000  0 13
G02  22632301.840   118933546.117 7      1464.035    22632301.140   118933546.124 6      1464.035    22632305.840    92675507.972 6      1140.807
G03  20013381.820   105171028.698 8      2424.180    20013380.840   105171028.703 8      2424.180    20013387.260    81951475.591 8      1888.971    20013388.000    81951478.593 8      1888.971
G14  22292850.520   117149719.550 7      2743.181    22292850.060   117149719.558 5      2743.181    22292857.400    91285523.447 5      2137.543    22292858.000    91285526.465 8      2137.543
R03  19861819.260   106321874.977 8      2679.385    19861820.340   106321875.002 8      2679.385    19861830.820    82694838.028 8      2083.966    19861830.720    82694837.027 8      2083.966
G01  21220391.500   111513908.975 8      2064.339    21220390.620   111513908.983 6      2064.339    21220395.580    86893971.566 6      1608.576    21220396.160    86893972.578 8      1608.576
R18  20640888.180   110182460.034 7      3141.480    20640886.960   110182460.041 7      3141.480    20640898.200    85697513.055 8      2443.373    20640898.140    85697514.061 8      2443.373
G08  22227205.340   116804751.851 7        83.966    22227204.380   116804751.848 6        83.966    22227216.380    91016728.051 6        65.428    22227217.480    91016734.066 7        65.428
R04  20947343.180   112172071.429 7      6257.952    20947342.180   112172071.452 6      6257.952    20947359.400    87245014.593 8      4867.296    20947359.380    87245013.598 8      4867.296
G22  23682881.420   124454382.598 5      3901.082    23682881.160   124454382.611 2      3901.082    23682889.520    96977434.884 2      3039.804
R17  22138637.960   118468324.716 7      1257.433    22138636.720   118468324.715 7      1257.433    22138653.520    92142094.301 7       978.003    22138653.020    92142092.303 7       978.003
G04  23264333.220   122254895.257 7      5700.691    23264332.240   122254895.262 4      5700.691    23264347.320    95263607.569 5      4442.097    23264347.620    95263612.596 7      4442.097
R02  22880004.900   122092086.468 7      -763.648    22880003.760   122092086.450 7      -763.648    22880017.460    94960570.360 7      -593.948    22880018.080    94960568.360 7      -593.948
R16  22776218.360   121666465.794 7      -307.553    22776220.060   121666465.809 7      -307.553    22776237.680    94629554.961 7      -239.208    22776237.720    94629554.960 7      -239.208
> 2025 04 04 17 24 24.0000000  0 13
G02  22632023.320   118932081.617 7      1464.864    22632022.460   118932081.625 6      1464.864    22632027.000    92674366.816 6      1141.452
G03  20012920.340   105168604.314 8      2424.463    20012919.480   105168604.316 8      2424.463    20012925.880    81949586.470 8      1889.192    20012926.540    81949589.474 8      1889.192
G14  22292328.640   117146976.141 7      2743.453    22292328.020   117146976.148 5      2743.453    22292335.440    91283385.735 5      2137.755    22292335.880    91283388.751 8      2137.755
R03  19861319.000   106319195.509 8      2679.354    19861319.960   106319195.538 8      2679.354    19861330.340    82692754.012 8      2083.942    19861330.000    82692753.011 8      2083.942
G01  21219998.560   111511844.085 8      2065.232    21219997.680   111511844.093 6      2065.232    21220002.600    86892362.573 6      1609.272    21220003.100    86892363.583 8      1609.272
R18  20640299.580   110179318.146 7      3142.205    20640298.600   110179318.145 7      3142.205    20640309.620    85695069.370 8      2443.938    20640309.740    85695070.374 8      2443.938
G08  22227189.500   116804667.458 7        84.562    22227188.320   116804667.455 6        84.562    22227200.360    91016662.298 6        65.892    22227201.080    91016668.309 7        65.892
R04  20946174.740   112165813.152 7      6258.499    20946173.260   112165813.176 6      6258.499    20946190.700    87240147.068 8      4867.722    20946190.640    87240146.074 8      4867.722
G22  23682139.460   124450481.276 6      3901.610    23682138.600   124450481.289 2      3901.610    23682147.100    96974394.907 2      3040.216
R17  22138402.760   118467066.830 7      1258.110    22138401.480   118467066.829 7      1258.110    22138418.500    92141115.950 7       978.530    22138418.000    92141113.958 7       978.530
G04  23263248.200   122249194.085 7      5701.479    23263247.220   122249194.092 4      5701.479    23263262.420    95259165.130 5      4442.711    23263262.680    95259170.161 7      4442.711
R02  22880147.940   122092849.882 7      -763.279    22880147.180   122092849.864 7      -763.279    22880160.420    94961164.135 7      -593.662    22880161.200    94961162.139 7      -593.662
R16  22776276.040   121666772.928 7      -306.900    22776277.880   121666772.939 7      -306.900    22776295.160    94629793.836 7      -238.700    22776294.980    94629793.837 7      -238.700
> 2025 04 04 17 24 25.0000000  0 13
G02  22631744.460   118930616.287 7      1465.776    22631743.600   118930616.295 6      1465.776    22631748.260    92673225.008 6      1142.163
G03  20012458.880   105166179.612 8      2424.898    20012458.040   105166179.614 8      2424.898    20012464.520    81947697.106 8      1889.531    20012465.060    81947700.104 8      1889.531
G14  22291806.380   117144232.455 7      2743.874    22291805.880   117144232.462 5      2743.874    22291813.340    91281247.809 5      2138.083    22291813.720    91281250.833 8      2138.083
R03  19860818.400   106316516.045 8      2679.496    19860819.500   106316516.073 8      2679.496    19860829.820    82690669.999 8      2084.053    19860829.560    82690668.998 8      2084.053
G01  21219605.540   111509778.473 8      2065.968    21219604.580   111509778.480 6      2065.968    21219609.420    86890753.015 6      1609.845    21219609.900    86890754.025 8      1609.845
R18  20639710.600   110176175.492 7      3143.053    20639709.860   110176175.499 7      3143.053    20639720.800    85692625.103 8      2444.597    20639721.040    85692626.106 8      2444.597
G08  22227173.300   116804582.547 6        85.289    22227172.100   116804582.546 6        85.289    22227184.120    91016596.142 6        66.459    22227184.860    91016602.151 7        66.459
R04  20945005.740   112159554.541 7      6258.815    20945005.020   112159554.570 6      6258.815    20945021.880    87235279.276 8      4867.967    20945021.960    87235278.278 8      4867.967
G22  23681397.000   124446579.599 6      3901.895    23681396.500   124446579.609 2      3901.895    23681404.860    96971354.651 2      3040.438
R17  22138167.800   118465808.292 7      1258.920    22138166.460   118465808.296 7      1258.920    22138183.020    92140137.097 7       979.160    22138182.840    92140135.103 7       979.160
G04  23262163.300   122243492.132 7      5702.370    23262162.120   122243492.140 5      5702.370    23262177.200    95254722.079 5      4443.405    23262177.480    95254727.105 7      4443.405
R02  22880291.520   122093612.915 7      -762.850    22880290.080   122093612.902 7      -762.850    22880303.620    94961757.615 7      -593.328    22880304.080    94961755.617 7      -593.328
R16  22776333.480   121667079.476 7      -306.274    22776334.980   121667079.477 7      -306.274    22776352.900    94630032.261 7      -238.213    22776352.620    94630032.259 7      -238.213
> 2025 04 04 17 24 26.0000000  0 13
G02  22631465.380   118929150.219 7      1466.440    22631464.360   118929150.227 6      1466.440    22631469.560    92672082.622 6      1142.680
G03  20011997.420   105163754.705 8      2424.994    20011996.460   105163754.709 8      2424.994    20012002.980    81945807.589 8      1889.606    20012003.680    81945810.590 8      1889.606
G14  22291284.360   117141488.609 7      2743.911    22291283.860   117141488.619 6      2743.911    22291291.220    91279109.763 6      2138.113    22291291.660    91279112.781 8      2138.113
R03  19860317.840   106313836.693 8      2679.365    19860318.720   106313836.718 8      2679.365    19860329.380    82688586.075 8      2083.950    19860328.860    82688585.074 8      2083.950
G01  21219212.260   111507712.164 8      2066.659    21219211.400   111507712.166 6      2066.659    21219216.240    86889142.917 6      1610.384    21219216.680    86889143.924 8      1610.384
R18  20639121.900   110173032.195 7      3143.624    20639120.900   110173032.199 7      3143.624    20639131.860    85690180.335 8      2445.041    20639132.100    85690181.338 8      2445.041
G08  22227157.220   116804497.210 7        85.489    22227155.780   116804497.210 6        85.489    22227167.760    91016529.668 6        66.615    22227169.020    91016535.682 7        66.615
R04  20943837.320   112153295.595 7      6259.173    20943836.780   112153295.608 6      6259.173    20943852.880    87230411.229 8      4868.246    20943853.100    87230410.236 8      4868.246
G22  23680653.760   124442677.669 6      3901.989    23680653.360   124442677.677 2      3901.989    23680661.940    96968314.193 2      3040.511
R17  22137932.600   118464549.218 7      1259.397    22137932.020   118464549.214 7      1259.397    22137948.080    92139157.823 7       979.531    22137947.640    92139155.830 7       979.531
G04  23261078.180   122237789.465 7      5703.004    23261077.020   122237789.472 5      5703.004    23261091.980    95250278.470 5      4443.899    23261092.520    95250283.501 7      4443.899
R02  22880434.420   122094375.675 7      -762.656    22880433.540   122094375.660 7      -762.656    22880445.920    94962350.879 7      -593.177    22880446.760    94962348.884 7      -593.177
R16  22776390.680   121667385.514 7      -305.851    22776392.280   121667385.513 7      -305.851    22776409.980    94630270.270 7      -237.884    22776410.160    94630270.266 7      -237.884
> 2025 04 04 17 24 27.0000000  0 13
G02  22631186.180   118927683.166 7      1467.797    22631185.320   118927683.173 6      1467.797    22631190.280    92670939.477 6      1143.738
G03  20011535.860   105161329.340 8      2425.892    20011534.900   105161329.345 8      2425.892    20011541.580    81943917.705 8      1890.305    20011542.220    81943920.704 8      1890.305
G14  22290762.120   117138744.338 7      2744.762    22290761.400   117138744.348 6      2744.762    22290769.060    91276971.378 6      2138.776    22290769.460    91276974.400 8      2138.776
R03  19859817.440   106311157.212 8      2679.850    19859818.340   106311157.240 8      2679.850    19859828.740    82686502.049 8      2084.328    19859828.500    82686501.048 8      2084.328
G01  21218818.660   111505644.970 7      2067.918    21218818.180   111505644.974 6      2067.918    21218822.800    86887532.126 6      1611.365    21218823.360    86887533.138 8      1611.365
R18  20638532.960   110169888.020 7      3144.919    20638532.260   110169888.018 7      3144.919    20638542.920    85687734.869 8      2446.048    20638542.920    85687735.873 8      2446.048
G08  22227140.840   116804411.170 7        86.628    22227139.320   116804411.167 6        86.628    22227151.480    91016462.630 6        67.502    22227152.620    91016468.637 7        67.502
R04  20942668.160   112147036.101 7      6260.176    20942667.600   112147036.116 6      6260.176    20942684.240    87225542.754 8      4869.026    20942684.180    87225541.759 8      4869.026
G22  23679910.960   124438775.198 6      3903.132    23679910.340   124438775.206 2      3903.132    23679919.100    96965273.309 2      3041.402
R17  22137696.860   118463289.294 7      1260.596    22137696.840   118463289.303 7      1260.596    22137712.460    92138177.899 7       980.463    22137712.320    92138175.908 7       980.463
G04  23259992.580   122232085.862 7      5704.416    23259991.480   122232085.870 5      5704.416    23260006.620    95245834.133 5      4444.999    23260007.300    95245839.158 7      4444.999
R02  22880577.040   122095137.900 7      -761.852    22880576.660   122095137.895 7      -761.852    22880588.560    94962943.741 7      -592.552    22880589.940    94962941.750 7      -592.552
R16  22776447.720   121667690.797 7      -304.629    22776449.500   121667690.792 7      -304.629    22776467.360    94630507.699 7      -236.933    22776467.360    94630507.698 7      -236.933
> 2025 04 04 17 24 28.0000000  0 13
G02  22630906.760   118926215.129 7      1468.712    22630905.960   118926215.140 6      1468.712    22630910.840    92669795.565 6      1144.451
G03  20011074.160   105158903.519 8      2426.251    20011073.380   105158903.523 8      2426.251    20011080.040    81942027.472 8      1890.585    20011080.600    81942030.476 8      1890.585
G14  22290239.760   117135999.648 7      2745.072    22290239.120   117135999.656 5      2745.072    22290246.980    91274832.672 5      2139.017    22290247.060    91274835.698 8      2139.017
R03  19859316.820   106308477.603 8      2679.895    19859317.720   106308477.631 8      2679.895    19859328.200    82684417.927 8      2084.363    19859327.820    82684416.924 8      2084.363
